time,x,y,z,yaw,platform,trajectory,traj_double,traj_short,traj_spin,traj_time,ref_time,comptime,x_ref,y_ref,yaw_ref,z_ref,throttle_input,p_input,q_input,r_input,cbf_term_pitch_cbf,cbf_term_roll_cbf,cbf_term_thrust_cbf,cbf_term_yaw_cbf
10.059694528579712,0.008752321,0.07454114,-3.001932,-0.04967603096927574,SIM,FIG8_HORIZONTAL,NormSpd,Not Short,NoSpin,0.05425429344177246,1.2542542934417724,0.0068743228912353516,0.22993038854625994,0.32776331163300787,0.0,-5.0,0.7203473094127935,0.12314068972326002,0.10787237504540778,0.03183804799098095,nan,nan,nan,nan
10.166802167892456,-0.004726272,0.08109665,-3.0041592,-0.05010162287588376,nan,nan,nan,nan,nan,0.16137194633483887,1.3613719463348388,0.0053064823150634766,0.17076088795280503,0.3386967647375716,0.0,-5.0,0.7204809324142285,0.11857049459506445,0.11446989732404107,0.03189421548286414,nan,nan,nan,nan
10.262976884841919,-0.011803924,0.08267469,-3.0035543,-0.04658463332219755,nan,nan,nan,nan,nan,0.2575395107269287,1.4575395107269287,0.005413055419921875,0.11134316458282792,0.34542440850977013,0.0,-5.0,0.7208252600117925,0.09321339489217928,0.10798267195182538,0.03128320280465846,nan,nan,nan,nan
10.359687089920044,-0.024087075,0.08602618,-3.006205,-0.037808363226917316,nan,nan,nan,nan,nan,0.3542468547821045,1.5542468547821044,0.0071468353271484375,0.047726012224251886,0.3491817363139113,0.0,-5.0,0.7207131982735142,0.0764586265477613,0.08925373201548464,0.026251543404651214,nan,nan,nan,nan
10.458026885986328,-0.029956954,0.08538597,-3.0053592,-0.029461164224411293,nan,nan,nan,nan,nan,0.4527449607849121,1.652744960784912,0.007112741470336914,-0.01876464672857628,0.34987413259722827,0.0,-5.0,0.7206684745520774,0.06627779375244491,0.07675901013621023,0.02150703436433255,nan,nan,nan,nan
10.551605224609375,-0.038661383,0.08506866,-3.0028832,-0.019543625116718467,nan,nan,nan,nan,nan,0.546189546585083,1.746189546585083,0.005154132843017578,-0.08125480836705218,0.3476011412955058,0.0,-5.0,0.7206973360484875,0.05915378594839442,0.06120600604124059,0.014658065485776613,nan,nan,nan,nan
10.661649227142334,-0.04604915,0.08607768,-3.0009785,-0.012129018946637558,nan,nan,nan,nan,nan,0.6562139987945557,1.8562139987945556,0.006523847579956055,-0.15129279379028804,0.34129456032370553,0.0,-5.0,0.7206779492004651,0.05263607871165984,0.046604115774848666,0.010724117592998772,nan,nan,nan,nan
10.762476921081543,-0.048672337,0.088910386,-3.0014822,-0.0066636767141488576,nan,nan,nan,nan,nan,0.757051944732666,1.957051944732666,0.005974292755126953,-0.20956598914498864,0.33212478386312905,0.0,-5.0,0.720691990182539,0.038632773334711976,0.023554202233047914,0.005335582421287523,nan,nan,nan,nan
10.861066579818726,-0.049532313,0.09248768,-3.003259,-0.004394502932839032,nan,nan,nan,nan,nan,0.8556575775146484,2.0556575775146486,0.007932662963867188,-0.25888571834698726,0.3201080491767693,0.0,-5.0,0.7213048579417815,0.016010793713320908,-0.007663547686824374,0.003343022546570069,nan,nan,nan,nan
10.963963508605957,-0.04486702,0.09500774,-3.0033867,-0.0019319392842760451,nan,nan,nan,nan,nan,0.9585895538330078,2.158589553833008,0.006051063537597656,-0.30033935593478467,0.30446598478715936,0.0,-5.0,0.7223102610496642,-0.013456060968549097,-0.034095590789768745,0.001523344626118948,nan,nan,nan,nan
11.061194896697998,-0.039143126,0.09487376,-3.0022545,0.00017187313721482274,nan,nan,nan,nan,nan,1.055800199508667,2.255800199508667,0.006615161895751953,-0.32862680223193097,0.28692508705113395,0.0,-5.0,0.7229335098838717,-0.029428337949027227,-0.04913981792559199,0.0004929125618372564,nan,nan,nan,nan
11.152661085128784,-0.034860305,0.09391816,-3.0001602,0.002629761521646017,nan,nan,nan,nan,nan,1.147263526916504,2.347263526916504,0.005726814270019531,-0.3446875657224134,0.2681065722902596,0.0,-5.0,0.7235790655194541,-0.03699975823820319,-0.05310025159029117,-0.0011129640513202238,nan,nan,nan,nan
11.257879734039307,-0.02990782,0.08803025,-2.9907465,0.007765126066044444,nan,nan,nan,nan,nan,1.2525451183319092,2.4525451183319094,0.007416963577270508,-0.34985195571043304,0.24386205199929917,0.0,-5.0,0.72454730100709,-0.030745070663578265,-0.04404285870704057,-0.004209061883809017,nan,nan,nan,nan
11.353714942932129,-0.028064007,0.08369521,-2.986638,0.009511527113239038,nan,nan,nan,nan,nan,1.348348617553711,2.548348617553711,0.005321979522705078,-0.34199375471741694,0.21960014733978744,0.0,-5.0,0.7251595198099616,-0.028669363512300358,-0.04329897397273682,-0.005622203835783369,nan,nan,nan,nan
11.449617385864258,-0.023781512,0.070857614,-2.9789991,0.010803791107320992,nan,nan,nan,nan,nan,1.4441869258880615,2.6441869258880617,0.0055522918701171875,-0.3224278410089206,0.1934464353293299,0.0,-5.0,0.7258233551971869,-0.014826347938218215,-0.027692442650124053,-0.0066414441301543455,nan,nan,nan,nan
11.548501014709473,-0.018607812,0.0591495,-2.974075,0.01119997732173142,nan,nan,nan,nan,nan,1.5430619716644287,2.743061971664429,0.005376577377319336,-0.2906852110713084,0.16472787732753785,0.0,-5.0,0.7262926861109724,-0.005318261649101237,-0.018592161123012655,-0.006844407306449359,nan,nan,nan,nan
11.64434814453125,-0.005336228,0.03835477,-2.9690166,0.01144727253244334,nan,nan,nan,nan,nan,1.6389362812042236,2.838936281204224,0.009803056716918945,-0.24977981581496977,0.13544237901061634,0.0,-5.0,0.7267564382903984,0.016543248767315118,0.00869476868057077,-0.007144993351323582,nan,nan,nan,nan
11.764125108718872,0.00943008,0.020071566,-2.9649878,0.010163787652901969,nan,nan,nan,nan,nan,1.7587108612060547,2.958710861206055,0.0057830810546875,-0.18684708172044628,0.09725342154806177,0.0,-5.0,0.7271067619562706,0.03008515719312394,0.035062072241578104,-0.006461197812945479,nan,nan,nan,nan
11.860801935195923,0.02198202,-0.0007086983,-2.9719598,0.009051121929061549,nan,nan,nan,nan,nan,1.8553991317749023,3.0553991317749025,0.007120609283447266,-0.12859244776275824,0.06545081069049016,0.0,-5.0,0.7271058224000062,0.03498969446598541,0.05018417819519398,-0.00574217195362595,nan,nan,nan,nan
11.957556009292603,0.041597977,-0.02500924,-2.9755027,0.008325255820380285,nan,nan,nan,nan,nan,1.9525463581085205,3.1525463581085207,0.007323265075683594,-0.0655526472117988,0.03292229511123197,0.0,-5.0,0.7269407827106954,0.04375409657277107,0.06800984312487778,-0.0049941858234918745,nan,nan,nan,nan
12.055458307266235,0.061961967,-0.04356011,-2.9766636,0.00901315481403218,nan,nan,nan,nan,nan,2.0501973628997803,3.2501973628997805,0.005293846130371094,0.0001335457460607719,-6.677287424554781e-05,0.0,-5.0,0.7269516299900767,0.04346094253791936,0.08322412756465365,-0.005127867883374046,nan,nan,nan,nan
12.147547960281372,0.098640986,-0.06907188,-2.977193,0.010743043701661745,nan,nan,nan,nan,nan,2.1421456336975098,3.34214563369751,0.0057621002197265625,0.06202114800538264,-0.031133998194523664,0.0,-5.0,0.7270245429798093,0.04204012273059294,0.10283431004802072,-0.006145431177127413,nan,nan,nan,nan
12.26373553276062,0.12777345,-0.09318312,-2.9701169,0.011769468720317484,nan,nan,nan,nan,nan,2.258319139480591,3.458319139480591,0.006228923797607422,0.13717947765851102,-0.07000428772277476,0.0,-5.0,0.7273383698481497,0.0343135880129773,0.10674165799275293,-0.006957089100952512,nan,nan,nan,nan
12.365033864974976,0.14595978,-0.10767761,-2.964062,0.012209657779429542,nan,nan,nan,nan,nan,2.3596184253692627,3.559618425369263,0.0055429935455322266,0.19721491438353125,-0.10319489939626518,0.0,-5.0,0.7276276226232347,0.025147807784442432,0.10037413134667558,-0.007163760071610983,nan,nan,nan,nan
12.458368301391602,0.15775785,-0.11810875,-2.9640496,0.01186526690827503,nan,nan,nan,nan,nan,2.4529738426208496,3.65297384262085,0.005536317825317383,0.24591489535376823,-0.132914496729954,0.0,-5.0,0.7278227226183658,0.018352363081813587,0.09694883880708748,-0.007091978536529568,nan,nan,nan,nan
12.55545949935913,0.17350054,-0.13587023,-2.962907,0.010025532459392292,nan,nan,nan,nan,nan,2.550262451171875,3.750262451171875,0.0062673091888427734,0.28814519733508415,-0.16273172806322428,0.0,-5.0,0.7276926805343762,0.008665857920617128,0.06381779880001047,-0.00612464564477959,nan,nan,nan,nan
12.654210090637207,0.18093687,-0.14826423,-2.9584568,0.008905334846741705,nan,nan,nan,nan,nan,2.648810863494873,3.8488108634948732,0.009041547775268555,0.3205550799473658,-0.191467726417627,0.0,-5.0,0.727813662389978,0.007777635681399632,0.05426604220782218,-0.005092133844328561,nan,nan,nan,nan
12.758856534957886,0.18562685,-0.16279003,-2.9585507,0.007407987716033325,nan,nan,nan,nan,nan,2.753556489944458,3.953556489944458,0.0058743953704833984,0.34226558021831677,-0.22010166590233282,0.0,-5.0,0.7278553004512165,0.004798141545691896,0.020949883104493076,-0.004213483723231801,nan,nan,nan,nan
12.853834629058838,0.18177634,-0.16876602,-2.956023,0.006773383575535538,nan,nan,nan,nan,nan,2.8484222888946533,4.0484222888946535,0.005344867706298828,0.34987038109365814,-0.2440967214847582,0.0,-5.0,0.7279463291279374,0.004448795072423969,0.00869043860400938,-0.003399662440772318,nan,nan,nan,nan
12.96549677848816,0.17203785,-0.1759242,-2.9477885,0.006455540294545099,nan,nan,nan,nan,nan,2.960059642791748,4.160059642791748,0.006237983703613281,0.3437929732584314,-0.26969249689112146,0.0,-5.0,0.7281736470336965,0.002038606279171134,-0.01945591085647403,-0.003028161172576625,nan,nan,nan,nan
13.059603452682495,0.15549581,-0.18132485,-2.936323,0.006064179572468303,nan,nan,nan,nan,nan,3.0542526245117188,4.254252624511719,0.005555152893066406,0.3262242459994086,-0.2888592319420141,0.0,-5.0,0.7285281536763518,-0.0022911135763982625,-0.047858904631669266,-0.003166743107286855,nan,nan,nan,nan
13.152600765228271,0.14373487,-0.18403424,-2.9299839,0.005409886266432238,nan,nan,nan,nan,nan,3.147176742553711,4.347176742553711,0.005413532257080078,0.2983173259646132,-0.3054234714391515,0.0,-5.0,0.7287022405015734,-0.00034240068637640014,-0.05454518803688405,-0.002654172918639732,nan,nan,nan,nan
13.26145887374878,0.11941882,-0.18966067,-2.9210556,0.003312364563926506,nan,nan,nan,nan,nan,3.256039619445801,4.456039619445801,0.006212472915649414,0.2534935093497035,-0.3216878395234442,0.0,-5.0,0.7289356846518166,0.0012066323997072846,-0.07228465937938579,-0.0015929954047242696,nan,nan,nan,nan
13.352857828140259,0.0908544,-0.19944178,-2.9141865,0.0024767593485660977,nan,nan,nan,nan,nan,3.3474371433258057,4.547437143325806,0.005417823791503906,0.2071252713145744,-0.3326008172325683,0.0,-5.0,0.729040828992212,0.005897714763353591,-0.08588155866776083,-0.0007220137834501052,nan,nan,nan,nan
13.463013172149658,0.055982277,-0.20386627,-2.907211,0.00039090036228612863,nan,nan,nan,nan,nan,3.4576613903045654,4.657661390304566,0.006345272064208984,0.1427730672286703,-0.3423043223620692,0.0,-5.0,0.729097839462177,0.013301673659153407,-0.09523060170314568,-0.00021624041623922782,nan,nan,nan,nan
13.554116487503052,0.03138821,-0.20380056,-2.9024687,-0.001497254466465891,nan,nan,nan,nan,nan,3.5486974716186523,4.7486974716186525,0.005289793014526367,0.08461596217589709,-0.34739471263638033,0.0,-5.0,0.7291472983782388,0.016911274288769772,-0.10263028064256534,0.001060339785081268,nan,nan,nan,nan
13.665119171142578,-0.006696078,-0.2005707,-2.8976908,-0.004837683256864499,nan,nan,nan,nan,nan,3.659703254699707,4.859703254699707,0.006322622299194336,0.010349045167649883,-0.3499617385671191,0.0,-5.0,0.7291089821881451,0.012192907554304792,-0.1101111431759169,0.0031663485582189986,nan,nan,nan,nan
13.758827447891235,-0.03231883,-0.19613864,-2.8950796,-0.007531064866710249,nan,nan,nan,nan,nan,3.7534093856811523,4.9534093856811525,0.0057713985443115234,-0.05285280722093198,-0.34899515458262326,0.0,-5.0,0.7290119788323891,0.0034364901977702073,-0.10047042427612596,0.004922377703956143,nan,nan,nan,nan
13.853605031967163,-0.06175265,-0.18787023,-2.885776,-0.010431358961774486,nan,nan,nan,nan,nan,3.848170518875122,5.048170518875122,0.005491971969604492,-0.11499928010988117,-0.3451077950337702,0.0,-5.0,0.7290892744174693,-0.0015548242274896565,-0.08861560447337821,0.006372330985099743,nan,nan,nan,nan
13.964453220367432,-0.08765136,-0.17977972,-2.8735619,-0.01215985264899609,nan,nan,nan,nan,nan,3.9590203762054443,5.1590203762054445,0.0070476531982421875,-0.18266985818293424,-0.3368918799093179,0.0,-5.0,0.7293917870903932,-0.005224415817682242,-0.07429212872476543,0.008024264379425458,nan,nan,nan,nan
14.058485984802246,-0.10336829,-0.17234947,-2.863059,-0.012013034755306006,nan,nan,nan,nan,nan,4.053099870681763,5.253099870681763,0.005140781402587891,-0.23365877670779947,-0.32688231916027816,0.0,-5.0,0.729619742040946,-0.0020945381997235554,-0.059932458293998146,0.007920176098058075,nan,nan,nan,nan
14.152369022369385,-0.11964964,-0.15710594,-2.8483894,-0.01344009102986317,nan,nan,nan,nan,nan,4.146930456161499,5.346930456161499,0.005649089813232422,-0.2768362164523865,-0.314208302680902,0.0,-5.0,0.7299560472682654,-0.006107075703778251,-0.04444567916019649,0.008442224826754647,nan,nan,nan,nan
14.264405250549316,-0.132333,-0.14457726,-2.8445587,-0.013646581654059338,nan,nan,nan,nan,nan,4.258991241455078,5.458991241455078,0.00730443000793457,-0.3163982390683002,-0.2956975049801042,0.0,-5.0,0.7299928017434305,-0.007126909293578022,-0.027637027236786214,0.008888447625979654,nan,nan,nan,nan
14.36029839515686,-0.1323337,-0.13115735,-2.8403764,-0.014439350988073873,nan,nan,nan,nan,nan,4.3549909591674805,5.554990959167481,0.005536556243896484,-0.33857790796056425,-0.2770737201599999,0.0,-5.0,0.7299475811971361,-0.0023252209531756615,-0.02370071925638098,0.008966365180767537,nan,nan,nan,nan
14.45543646812439,-0.12751928,-0.10961793,-2.8359945,-0.016621112708163226,nan,nan,nan,nan,nan,4.449999570846558,5.649999570846558,0.0067157745361328125,-0.34908058135777825,-0.2562941321882707,0.0,-5.0,0.7298245085605044,-0.007188908833771143,0.008957848493507316,0.009891977462561046,nan,nan,nan,nan
14.559788703918457,-0.12110578,-0.08802358,-2.83233,-0.019027934647125724,nan,nan,nan,nan,nan,4.554459095001221,5.754459095001221,0.006003618240356445,-0.34707151063670844,-0.2309615558587173,0.0,-5.0,0.7297053218166318,-0.007896856591972125,0.0168464686001283,0.011286741091030538,nan,nan,nan,nan
14.641750812530518,-0.11255031,-0.06622703,-2.8279266,-0.020905649382934884,nan,nan,nan,nan,nan,4.6367857456207275,5.836785745620728,0.00805044174194336,-0.33552391815100163,-0.20932484332119042,0.0,-5.0,0.7295959292785211,-0.02078443944267934,0.042439656932454974,0.013043476718913715,nan,nan,nan,nan
14.764519453048706,-0.08723973,-0.036421668,-2.8247087,-0.02344834416492609,nan,nan,nan,nan,nan,4.759093284606934,5.959093284606934,0.00676417350769043,-0.3028514534871863,-0.17477728832552528,0.0,-5.0,0.7294883213340844,-0.02503953474494017,0.061151524008397976,0.014678659885611834,nan,nan,nan,nan
14.860068798065186,-0.062010434,-0.013287883,-2.82365,-0.02401242291850779,nan,nan,nan,nan,nan,4.854728698730469,6.054728698730469,0.007624387741088867,-0.26543606534407715,-0.14603799925162303,0.0,-5.0,0.7293827774269096,-0.025680000769912108,0.07571729633917632,0.015381947907768258,nan,nan,nan,nan
14.956716299057007,-0.03743178,0.008342136,-2.821094,-0.023751930411169013,nan,nan,nan,nan,nan,4.951318264007568,6.1513182640075685,0.006732463836669922,-0.21846863524929785,-0.11574693529571234,0.0,-5.0,0.7292685427915132,-0.024075501143020893,0.08733918268964702,0.015437448563586587,nan,nan,nan,nan
15.055185317993164,0.0014731168,0.043996308,-2.8135374,-0.021424707145277586,nan,nan,nan,nan,nan,5.049752950668335,6.249752950668335,0.005543947219848633,-0.16280110989652755,-0.08384163439453436,0.0,-5.0,0.7292698227254475,-0.028431221093420795,0.0991789672333946,0.014678355503694656,nan,nan,nan,nan
15.152064561843872,0.032647915,0.07192238,-2.8058007,-0.01693764786851457,nan,nan,nan,nan,nan,5.146653890609741,6.346653890609741,0.005601644515991211,-0.10224848797783494,-0.05169109500346746,0.0,-5.0,0.729391488303225,-0.030797971492583114,0.10523138896626616,0.012512363893848029,nan,nan,nan,nan
15.249836206436157,0.059426118,0.09485496,-2.800783,-0.01250301765998944,nan,nan,nan,nan,nan,5.244407415390015,6.444407415390015,0.00634765625,-0.037544384785783,-0.018799330191781656,0.0,-5.0,0.7294858494691385,-0.031726509383493126,0.1077467511171169,0.009483603287383334,nan,nan,nan,nan
15.365800857543945,0.09678341,0.12482305,-2.7983165,-0.007125110212896378,nan,nan,nan,nan,nan,5.360391139984131,6.560391139984131,0.005876779556274414,0.04077093388451029,0.02042025155988256,0.0,-5.0,0.7294577475376576,-0.028162075832916123,0.10515281406929355,0.005725112575560272,nan,nan,nan,nan
15.45308542251587,0.13424589,0.1535373,-2.7996411,-0.00382384227631809,nan,nan,nan,nan,nan,5.447671175003052,6.647671175003052,0.0060541629791259766,0.09856997333750353,0.04979140722126576,0.0,-5.0,0.72905767934594,-0.022785554127630853,0.09170364495447471,0.0025799784697399103,nan,nan,nan,nan
15.55234146118164,0.15986027,0.17299493,-2.7993488,-0.003567223482122921,nan,nan,nan,nan,nan,5.546905040740967,6.746905040740967,0.0055065155029296875,0.1607958819644786,0.08274343287475937,0.0,-5.0,0.7289110798085362,-0.01829328067765059,0.09561484552772587,0.0019673609743257733,nan,nan,nan,nan
15.648587465286255,0.17893806,0.19274797,-2.8011835,-0.003835869416784786,nan,nan,nan,nan,nan,5.643413305282593,6.843413305282593,0.006152629852294922,0.21567221984392845,0.11406328884723362,0.0,-5.0,0.7286502067347969,-0.011266628454944623,0.0755378572653846,0.0019747155812992133,nan,nan,nan,nan
15.76322317123413,0.20677632,0.2186386,-2.7974408,-0.00434943968699986,nan,nan,nan,nan,nan,5.757814168930054,6.957814168930054,0.0062618255615234375,0.2708894265033309,0.149883689710358,0.0,-5.0,0.7285696994343366,-0.008001925222929376,0.06803747911246377,0.002018512290788116,nan,nan,nan,nan
15.8590087890625,0.22485852,0.23669705,-2.7889073,-0.0042425346831548305,nan,nan,nan,nan,nan,5.853751182556152,7.0537511825561525,0.005880832672119141,0.307114299541638,0.17852872306375867,0.0,-5.0,0.7287230750818965,-0.004787413582447814,0.04014912542135236,0.0020122089746438267,nan,nan,nan,nan
15.951941013336182,0.23076566,0.24652481,-2.7809455,-0.0039896842376340984,nan,nan,nan,nan,nan,5.946517467498779,7.1465174674987795,0.005414247512817383,0.3321340561676458,0.20477046707959595,0.0,-5.0,0.7289161127184998,-0.0020735363287916076,0.033358441246679874,0.0015671864396776091,nan,nan,nan,nan
16.06015682220459,0.22816484,0.25859267,-2.7654269,-0.003464175681129649,nan,nan,nan,nan,nan,6.054869174957275,7.254869174957276,0.006512641906738281,0.34782984165764397,0.23332342568802922,0.0,-5.0,0.7293135049095532,0.0009946724791917857,0.0028427851287703395,0.0011099687562298836,nan,nan,nan,nan
16.154828548431396,0.22106881,0.2592348,-2.753315,-0.0032004218314487572,nan,nan,nan,nan,nan,6.149421453475952,7.349421453475952,0.005169391632080078,0.34910874036557815,0.25616069326138674,0.0,-5.0,0.7296270892933057,0.009906901715772132,-0.027235853676608274,0.0009724645022408516,nan,nan,nan,nan
16.24997067451477,0.21000227,0.25914875,-2.7471895,-0.003031820858846722,nan,nan,nan,nan,nan,6.24455451965332,7.4445545196533205,0.007246732711791992,0.33865570639550274,0.27697973797250286,0.0,-5.0,0.7297884177869303,0.013461228768111044,-0.03685039928353398,0.0007496182509154651,nan,nan,nan,nan
16.34737253189087,0.18539529,0.25786093,-2.7421362,-0.002626574651320275,nan,nan,nan,nan,nan,6.341964483261108,7.541964483261109,0.0066106319427490234,0.31612121051797737,0.29587036987412796,0.0,-5.0,0.7297598511796005,0.01857406949671115,-0.06830178742298477,0.0006680480130661966,nan,nan,nan,nan
16.449000597000122,0.1658669,0.25614318,-2.7415838,-0.00221541162853813,nan,nan,nan,nan,nan,6.443592548370361,7.6435925483703615,0.008300304412841797,0.280713201510107,0.31278266401581717,0.0,-5.0,0.7295301597930807,0.014681004558993627,-0.07715269110030948,0.0003923337289725835,nan,nan,nan,nan
16.54988193511963,0.13435602,0.25121686,-2.7389739,-0.0003901829531376584,nan,nan,nan,nan,nan,6.544537782669067,7.744537782669068,0.0062143802642822266,0.2348464439297227,0.32659581408724964,0.0,-5.0,0.7292539021738677,0.011396988015766742,-0.09047892710593086,-0.00039047524846864897,nan,nan,nan,nan
16.660390377044678,0.10128493,0.24272932,-2.7368643,0.0015376560148303055,nan,nan,nan,nan,nan,6.655103445053101,7.855103445053101,0.0060427188873291016,0.17445076424522152,0.33815592962560814,0.0,-5.0,0.7290819796589634,0.007775804785874996,-0.0957358274237064,-0.0014388986424084733,nan,nan,nan,nan
16.75502371788025,0.076611646,0.23879625,-2.7356539,0.0013308500695187932,nan,nan,nan,nan,nan,6.749608278274536,7.949608278274536,0.006236553192138672,0.11641774834635986,0.3449817913364714,0.0,-5.0,0.7289642902471463,0.0022563324698066534,-0.09734549795247084,-0.0018922877972640678,nan,nan,nan,nan
16.856534719467163,0.053724084,0.23289469,-2.7321122,0.001050828559445295,nan,nan,nan,nan,nan,6.851135969161987,8.051135969161987,0.005668163299560547,0.049810457600134625,0.34910823059258694,0.0,-5.0,0.7288611384614594,-0.007171379693186824,-0.09846847575796276,-0.0014231498292389692,nan,nan,nan,nan
16.954420566558838,0.021862034,0.21983734,-2.721534,0.0026980480143333624,nan,nan,nan,nan,nan,6.9489850997924805,8.14898509979248,0.0056993961334228516,-0.01622371971120235,0.3499059335667509,0.0,-5.0,0.7289743883001031,-0.0045356855157919485,-0.08992322665561871,-0.0018717431205761603,nan,nan,nan,nan
17.051673650741577,0.0062059057,0.21205139,-2.7113209,0.004575559837387902,nan,nan,nan,nan,nan,7.046236515045166,8.246236515045165,0.006736040115356445,-0.0812857209609543,0.3475992836513608,0.0,-5.0,0.7292163602648256,-0.007295883027822667,-0.08475240783240465,-0.0029581417138799314,nan,nan,nan,nan
17.149664878845215,-0.016322404,0.20580754,-2.700476,0.004877471485674528,nan,nan,nan,nan,nan,7.144254446029663,8.344254446029662,0.006428718566894531,-0.14395567576360546,0.34216856029363185,0.0,-5.0,0.7295035540963377,-0.008415378029711111,-0.06834536809647752,-0.0037169313404999188,nan,nan,nan,nan
17.24834656715393,-0.039904937,0.20639889,-2.6936197,0.0018741844845975497,nan,nan,nan,nan,nan,7.2429234981536865,8.442923498153686,0.006984233856201172,-0.20183187460853405,0.33360182331040567,0.0,-5.0,0.729635483949522,-0.017069897197247462,-0.06271719523198918,-0.0029180070659603325,nan,nan,nan,nan
17.361475467681885,-0.06658275,0.2080098,-2.6933115,-0.0033212353635947408,nan,nan,nan,nan,nan,7.356133222579956,8.556133222579955,0.005318164825439453,-0.2591021999697821,0.32004294261007815,0.0,-5.0,0.7295561983961042,-0.030983834382923348,-0.05547371639908123,0.00068069421340445,nan,nan,nan,nan
17.458081245422363,-0.08571181,0.20687681,-2.6962776,-0.006402445113446286,nan,nan,nan,nan,nan,7.4526450634002686,8.652645063400268,0.005244016647338867,-0.2982542479686174,0.30545290934932184,0.0,-5.0,0.7292905437582685,-0.03852197114400618,-0.06281603071635232,0.002793994584989548,nan,nan,nan,nan
17.557021141052246,-0.11285996,0.20317806,-2.695461,-0.009448431339078297,nan,nan,nan,nan,nan,7.551601886749268,8.751601886749267,0.005953073501586914,-0.3276384775583308,0.28773614010843745,0.0,-5.0,0.7290798187500421,-0.031598075256548036,-0.04931914137608438,0.005298297610399265,nan,nan,nan,nan
17.658738374710083,-0.12166417,0.19570538,-2.6989534,-0.008744977131746382,nan,nan,nan,nan,nan,7.653335332870483,8.853335332870483,0.005632638931274414,-0.34537691079742355,0.2667814552920058,0.0,-5.0,0.728940922284619,-0.02839629221523668,-0.04691093234258843,0.005707990367767573,nan,nan,nan,nan
17.75542402267456,-0.12405378,0.17836611,-2.7014804,-0.005417430826344657,nan,nan,nan,nan,nan,7.750004291534424,8.950004291534423,0.00516819953918457,-0.3498977347476527,0.2444779388318904,0.0,-5.0,0.7285948733382996,-0.005477188243617464,-0.010132982720686011,0.004268607027221365,nan,nan,nan,nan
17.84717345237732,-0.120622344,0.1661923,-2.702535,-0.00317170995033721,nan,nan,nan,nan,nan,7.841844320297241,9.04184432029724,0.006876945495605469,-0.3429026630089151,0.22130932077335938,0.0,-5.0,0.7284952023209385,0.0024703268349458847,0.002936663012766369,0.0028237838221315046,nan,nan,nan,nan
17.963311910629272,-0.10947936,0.14581403,-2.7046285,-0.0005243082286689304,nan,nan,nan,nan,nan,7.9579198360443115,9.15791983604431,0.007717132568359375,-0.31869956008229794,0.18955747257122,0.0,-5.0,0.7283155541959708,0.015507424161045806,0.032491582225241594,0.0009940266833951912,nan,nan,nan,nan
18.065283060073853,-0.091615714,0.11174517,-2.7085438,0.0003068689785654388,nan,nan,nan,nan,nan,8.060131788253784,9.260131788253783,0.009708881378173828,-0.2840948747472323,0.15961015561582156,0.0,-5.0,0.7280906533488501,0.03328795974447195,0.06079569225371374,-6.534534068684075e-05,nan,nan,nan,nan
18.147606372833252,-0.07667854,0.08800418,-2.7111244,-3.8952349210011686e-05,nan,nan,nan,nan,nan,8.142324447631836,9.342324447631835,0.006817817687988281,-0.24816850859011927,0.1343846615997978,0.0,-5.0,0.7279223375864422,0.043841885272349,0.07424728314101088,1.7646155947803067e-06,nan,nan,nan,nan
18.247660636901855,-0.059595894,0.05896261,-2.7127438,-0.0007449588071913368,nan,nan,nan,nan,nan,8.24276614189148,9.442766141891479,0.006848812103271484,-0.1958798376278833,0.10242373016737272,0.0,-5.0,0.7277731995602238,0.05228732623175468,0.08708457497735633,0.00031515831077943496,nan,nan,nan,nan
18.35913372039795,-0.028476415,0.0116545865,-2.7129462,-0.0015671677455236423,nan,nan,nan,nan,nan,8.353701114654541,9.55370111465454,0.005289316177368164,-0.12966035920197824,0.06601507035907593,0.0,-5.0,0.7277047324769231,0.06370258533716687,0.0969897280732682,0.001155586318252173,nan,nan,nan,nan
18.455016613006592,0.009465146,-0.02939585,-2.7109556,-0.00023565998271556738,nan,nan,nan,nan,nan,8.449581861495972,9.649581861495971,0.006156444549560547,-0.06752199177459825,0.033920675998980826,0.0,-5.0,0.727745527980828,0.06725613634089136,0.11147511477630011,0.00045132371009952367,nan,nan,nan,nan
18.560044527053833,0.048104998,-0.06454626,-2.707224,0.0008531180403855133,nan,nan,nan,nan,nan,8.55464506149292,9.75464506149292,0.0054929256439208984,0.003143041983302201,-0.0015715368336434046,0.0,-5.0,0.7278563394994428,0.06347453655116908,0.12546783859298252,-7.45726081515257e-05,nan,nan,nan,nan
18.65412425994873,0.087017834,-0.09759421,-2.7016659,0.0026681210665151505,nan,nan,nan,nan,nan,8.64869499206543,9.848694992065429,0.005365133285522461,0.06637755423480908,-0.033340389440403136,0.0,-5.0,0.7280682442666476,0.05247658580661056,0.12808088870367032,-0.0011350571112883803,nan,nan,nan,nan
18.75245952606201,0.11793863,-0.12130578,-2.6989894,0.004532300193644876,nan,nan,nan,nan,nan,8.747056245803833,9.947056245803832,0.005948305130004883,0.13013622597881502,-0.06626668780215407,0.0,-5.0,0.7282232629132324,0.038930734259760826,0.12493760475224681,-0.0023279128620713914,nan,nan,nan,nan
18.84831428527832,0.15825869,-0.14917581,-2.699346,0.007684417114503179,nan,nan,nan,nan,nan,8.842995405197144,10.042995405197143,0.006968498229980469,0.18782232465526547,-0.09780782895246652,0.0,-5.0,0.7282256119775821,0.021614674727584392,0.11325418761517718,-0.0036501287602905366,nan,nan,nan,nan
18.94874596595764,0.17873503,-0.1623222,-2.702388,0.01060517338850606,nan,nan,nan,nan,nan,8.943330526351929,10.143330526351928,0.007613420486450195,0.24122931506777476,-0.12989059748709209,0.0,-5.0,0.7280507116325141,0.005848727903132825,0.10349587887191634,-0.00525307173839361,nan,nan,nan,nan
19.050520420074463,0.1984902,-0.1791297,-2.7063057,0.013224153187990823,nan,nan,nan,nan,nan,9.0450918674469,10.245091867446899,0.006769418716430664,0.28614481903503747,-0.16118094489672607,0.0,-5.0,0.7277894594443827,-0.013625365921128603,0.06026050555038669,-0.007174725136125701,nan,nan,nan,nan
19.149885654449463,0.20985077,-0.1846392,-2.7100773,0.014421884497122733,nan,nan,nan,nan,nan,9.14474630355835,10.344746303558349,0.007399320602416992,0.3194410334700342,-0.190315119417284,0.0,-5.0,0.7276547729411997,-0.021013022040113336,0.04482240511466381,-0.00784573860004976,nan,nan,nan,nan
19.262678384780884,0.21761215,-0.19127294,-2.7162697,0.015995123154863768,nan,nan,nan,nan,nan,9.257362365722656,10.457362365722656,0.00632166862487793,0.3427947060331402,-0.22110132396618296,0.0,-5.0,0.7273741820680787,-0.0299111885416705,0.0072962407377613935,-0.009012062292466672,nan,nan,nan,nan
19.35853934288025,0.21562356,-0.19391899,-2.7191203,0.016474620658019662,nan,nan,nan,nan,nan,9.353096961975098,10.553096961975097,0.0057735443115234375,0.34994216969429653,-0.24522767204788087,0.0,-5.0,0.7272587089817512,-0.02818828166282181,-0.00843497678039215,-0.009298787457501838,nan,nan,nan,nan
19.454739332199097,0.20742488,-0.19228287,-2.7188916,0.01675650455675885,nan,nan,nan,nan,nan,9.449323654174805,10.649323654174804,0.005663633346557617,0.34508088195209563,-0.26736288904490463,0.0,-5.0,0.7272361319455822,-0.02699849589354382,-0.040662310263689536,-0.009551786368820678,nan,nan,nan,nan
19.550280332565308,0.18959,-0.18976147,-2.7135394,0.016427793785110428,nan,nan,nan,nan,nan,9.545171976089478,10.745171976089477,0.009125947952270508,0.32839986620480427,-0.2871133181825675,0.0,-5.0,0.7273981288843792,-0.0239438728580412,-0.05475244947071018,-0.009735570032076677,nan,nan,nan,nan
19.654082775115967,0.17245954,-0.18612882,-2.7139437,0.015700379454949367,nan,nan,nan,nan,nan,9.648646831512451,10.84864683151245,0.006482839584350586,0.2977958786123618,-0.30566606114386563,0.0,-5.0,0.7275596205023799,-0.01869658985392709,-0.0732932440097016,-0.009468376436266246,nan,nan,nan,nan
19.75472593307495,0.1404681,-0.17991284,-2.7135208,0.01364694992277478,nan,nan,nan,nan,nan,9.74929690361023,10.949296903610229,0.0058748722076416016,0.2566177901963681,-0.3207821952724597,0.0,-5.0,0.7274962335049725,-0.014386969213395912,-0.09518123458427862,-0.00855297300369738,nan,nan,nan,nan
19.85003685951233,0.11295093,-0.17657475,-2.7104301,0.012135634279170405,nan,nan,nan,nan,nan,9.844618082046509,11.044618082046508,0.006773710250854492,0.20865982932694355,-0.3323026083990049,0.0,-5.0,0.7275395524922521,-0.0077961088122467225,-0.10136751015416401,-0.007712290024397687,nan,nan,nan,nan
19.963303089141846,0.07467196,-0.1758684,-2.7023344,0.011891837628145807,nan,nan,nan,nan,nan,9.957950592041016,11.157950592041015,0.005495786666870117,0.1425943780705665,-0.3423247141159523,0.0,-5.0,0.7278133310774592,0.0036402387815218096,-0.11176392439376065,-0.007063662412652993,nan,nan,nan,nan
20.060604333877563,0.0499843,-0.17432788,-2.6967053,0.011452202385173835,nan,nan,nan,nan,nan,10.055175065994263,11.255175065994262,0.00576019287109375,0.08035638836645728,-0.34765480009105487,0.0,-5.0,0.7279861558259909,0.013321324660101958,-0.1155285730214935,-0.006944291421316281,nan,nan,nan,nan
20.165212631225586,0.0030193885,-0.16992176,-2.6897666,0.011472013451692034,nan,nan,nan,nan,nan,10.159858226776123,11.359858226776122,0.006474733352661133,0.010244228587668594,-0.3499625098831697,0.0,-5.0,0.7282222107071323,0.016584402630531646,-0.11105332482305433,-0.006911293735453283,nan,nan,nan,nan
20.26277732849121,-0.0318402,-0.16607334,-2.6861486,0.011308866377644522,nan,nan,nan,nan,nan,10.257587194442749,11.457587194442748,0.005872011184692383,-0.05564555264316734,-0.3488852799013917,0.0,-5.0,0.7283229533786982,0.021188814496917417,-0.11687230480252826,-0.006921327976318394,nan,nan,nan,nan
20.360701322555542,-0.0811788,-0.15854011,-2.6833458,0.009648117990278468,nan,nan,nan,nan,nan,10.35529637336731,11.555296373367309,0.005525827407836914,-0.11954223578329805,-0.3446979295818661,0.0,-5.0,0.7284118737687233,0.015533360451057425,-0.11198435569102241,-0.006413324058993252,nan,nan,nan,nan
20.463036060333252,-0.106956035,-0.15203705,-2.6839545,0.007902923199891415,nan,nan,nan,nan,nan,10.45772123336792,11.65772123336792,0.0052149295806884766,-0.18191944115775602,-0.3370107762372721,0.0,-5.0,0.7283275343162338,0.01520993681163073,-0.10882765535930154,-0.005183327567174545,nan,nan,nan,nan
20.555813789367676,-0.13653801,-0.14408857,-2.6888454,0.005960324871011963,nan,nan,nan,nan,nan,10.550461530685425,11.750461530685424,0.0058023929595947266,-0.23232659418182888,-0.32720028169415327,0.0,-5.0,0.7280221341887053,0.006232634777673435,-0.07636635810505082,-0.003847439835975843,nan,nan,nan,nan
20.64995551109314,-0.15742229,-0.1405505,-2.6928253,0.004801713074440784,nan,nan,nan,nan,nan,10.644611120223999,11.844611120223998,0.006016254425048828,-0.2758731845359284,-0.3145531920907551,0.0,-5.0,0.7278911303247991,0.011241248625324442,-0.07465982447762229,-0.0031764413645647594,nan,nan,nan,nan
20.759686946868896,-0.18328221,-0.13390923,-2.6985662,0.0030335627802582908,nan,nan,nan,nan,nan,10.754250526428223,11.954250526428222,0.005425453186035156,-0.31501349332595713,-0.2965524910348488,0.0,-5.0,0.727653234317886,0.014471808907098139,-0.05173344198600441,-0.0021407040046460568,nan,nan,nan,nan
20.856873035430908,-0.19967426,-0.124589115,-2.7028363,0.001696703439758332,nan,nan,nan,nan,nan,10.85145878791809,12.05145878791809,0.005580425262451172,-0.3379644160948334,-0.2778022495108643,0.0,-5.0,0.7274652451738728,0.008612770498389304,-0.031022604698022725,-0.0011207530377863569,nan,nan,nan,nan
20.95185685157776,-0.20862567,-0.112129696,-2.706124,-0.00035402268800508157,nan,nan,nan,nan,nan,10.946441650390625,12.146441650390624,0.006878376007080078,-0.3488979380844682,-0.25711237687506233,0.0,-5.0,0.7273807981099297,0.00010926761941371525,0.0009759799563881031,7.700131908059505e-05,nan,nan,nan,nan
21.063944578170776,-0.19547766,-0.095143124,-2.6946888,-0.0030377314659705322,nan,nan,nan,nan,nan,11.058593034744263,12.258593034744262,0.005557060241699219,-0.34669933546592274,-0.22990884708825676,0.0,-5.0,0.7277740812410318,-0.00379050857526297,0.032242251716491734,0.0014688681564337328,nan,nan,nan,nan
21.16472816467285,-0.17596911,-0.07736585,-2.6871011,-0.005188584884512888,nan,nan,nan,nan,nan,11.15934681892395,12.35934681892395,0.006161689758300781,-0.3308611550490685,-0.20315814944067861,0.0,-5.0,0.7282159819711485,-0.010115026128902712,0.06809033682417975,0.002894662560557926,nan,nan,nan,nan
21.244518756866455,-0.1571284,-0.06189436,-2.6794195,-0.0064007447579234236,nan,nan,nan,nan,nan,11.239083290100098,12.439083290100097,0.007436037063598633,-0.30941028399799547,-0.1806096091218143,0.0,-5.0,0.728415216393548,-0.013847012990880451,0.08830534848373768,0.0037615884455542118,nan,nan,nan,nan
21.360501527786255,-0.12776938,-0.040256523,-2.66767,-0.0077586433726608735,nan,nan,nan,nan,nan,11.35533857345581,12.55533857345581,0.0056149959564208984,-0.26516690014990735,-0.14585045748669387,0.0,-5.0,0.7288918265942991,-0.018384018192605673,0.10689970728089417,0.004822379381176927,nan,nan,nan,nan
21.46108078956604,-0.101062015,-0.023856947,-2.6587808,-0.008288890204504728,nan,nan,nan,nan,nan,11.455658435821533,12.655658435821532,0.00537109375,-0.21616655982606875,-0.11436015095699134,0.0,-5.0,0.7291826190594366,-0.01739463894813649,0.11481405409461985,0.005056334296031944,nan,nan,nan,nan
21.55698299407959,-0.06245016,0.00021684429,-2.652139,-0.008549302286776311,nan,nan,nan,nan,nan,11.551549196243286,12.751549196243285,0.005701780319213867,-0.16172418973197022,-0.08325148672504573,0.0,-5.0,0.7293826254350307,-0.021998584614863276,0.12211307503973555,0.005521201082771474,nan,nan,nan,nan
21.65127444267273,-0.034428433,0.01746585,-2.6502755,-0.008029110127344476,nan,nan,nan,nan,nan,11.645877122879028,12.845877122879028,0.005979061126708984,-0.10275104415657031,-0.051950998731737946,0.0,-5.0,0.7293835349053395,-0.020188773884032295,0.12318569925381402,0.005276278253447847,nan,nan,nan,nan
21.76482057571411,0.005712477,0.041681893,-2.6483774,-0.00597741211854691,nan,nan,nan,nan,nan,11.759741067886353,12.959741067886352,0.0062198638916015625,-0.027213740124286255,-0.013617180091451398,0.0,-5.0,0.7291548863066499,-0.020781754589146283,0.11596637712570369,0.003988842491249906,nan,nan,nan,nan
21.859676837921143,0.05136549,0.066369385,-2.6440132,-0.004144240832311088,nan,nan,nan,nan,nan,11.854239225387573,13.054239225387573,0.005825042724609375,0.03663378973668337,0.01834209945271593,0.0,-5.0,0.7291591075727428,-0.021201034589823243,0.10470485974711809,0.002704867783663364,nan,nan,nan,nan
21.954392910003662,0.081069805,0.07803972,-2.6421237,-0.004037925140621415,nan,nan,nan,nan,nan,11.948972940444946,13.148972940444946,0.007269382476806641,0.09941484749725779,0.05022730850584539,0.0,-5.0,0.7291353471552108,-0.016950135877312984,0.10835773061436836,0.0020789341998307246,nan,nan,nan,nan
22.04807472229004,0.12903538,0.09748692,-2.6390312,-0.004478075167303192,nan,nan,nan,nan,nan,12.042762994766235,13.242762994766235,0.008151769638061523,0.15830132032754074,0.08138113778997584,0.0,-5.0,0.7291142160068588,-0.012945820654875859,0.09686373932860595,0.0023202878369173417,nan,nan,nan,nan
22.164608478546143,0.17337318,0.11595603,-2.635482,-0.005756094055227676,nan,nan,nan,nan,nan,12.159354209899902,13.359354209899902,0.00558924674987793,0.22406368725673373,0.11914832052443754,0.0,-5.0,0.7291455967817113,-0.010383977007561211,0.0944989918023249,0.0026068588554739257,nan,nan,nan,nan
22.263959169387817,0.20048258,0.12696466,-2.632043,-0.007019871229544163,nan,nan,nan,nan,nan,12.258589744567871,13.45858974456787,0.005382537841796875,0.2712214331332392,0.15012076658962792,0.0,-5.0,0.7291911937830095,-0.009691942642524225,0.0928777032702126,0.003007873650108333,nan,nan,nan,nan
22.361557245254517,0.23046532,0.13779461,-2.6251597,-0.008960989281492863,nan,nan,nan,nan,nan,12.356122970581055,13.556122970581054,0.005283355712890625,0.3078808171729912,0.17921844914880022,0.0,-5.0,0.7293550544274879,-0.003616572630848677,0.058398537264629444,0.004435917172419577,nan,nan,nan,nan
22.455894470214844,0.24519074,0.14681016,-2.6227024,-0.009379075516368811,nan,nan,nan,nan,nan,12.450473546981812,13.65047354698181,0.0063629150390625,0.3329686582441507,0.20585443174724088,0.0,-5.0,0.7294074185135642,-0.003222704310027612,0.04906791274205081,0.004555487018274292,nan,nan,nan,nan
22.553160667419434,0.25504708,0.15884717,-2.619501,-0.008981286465830057,nan,nan,nan,nan,nan,12.547948122024536,13.747948122024535,0.010669469833374023,0.34727801894838556,0.23157285626845983,0.0,-5.0,0.7293262826794633,-0.003294810428909381,0.003491747524533704,0.004674218231237729,nan,nan,nan,nan
22.65707278251648,0.2530152,0.16697027,-2.6143413,-0.00823325901191686,nan,nan,nan,nan,nan,12.651630878448486,13.851630878448486,0.005803108215332031,0.34899893305291335,0.2566694771186433,0.0,-5.0,0.7292990582835644,-0.006135795913863023,-0.011698133298064376,0.003962411608024823,nan,nan,nan,nan
22.750646352767944,0.2424122,0.17886649,-2.6061,-0.007188475053924412,nan,nan,nan,nan,nan,12.745577335357666,13.945577335357665,0.0064754486083984375,0.3384802676548205,0.27719115222765417,0.0,-5.0,0.7295554328128182,-0.009941254231575946,-0.05264164792396216,0.003384364263815767,nan,nan,nan,nan
22.85172724723816,0.23307797,0.18728855,-2.6038828,-0.0065485033768098435,nan,nan,nan,nan,nan,12.8467378616333,14.0467378616333,0.007268428802490234,0.3147214513133591,0.29672996247471495,0.0,-5.0,0.7295634343768084,-0.01536033157937281,-0.06503488255022187,0.0026754590198015686,nan,nan,nan,nan
22.950206995010376,0.21046935,0.19842945,-2.5996482,-0.006264093314242358,nan,nan,nan,nan,nan,12.944841861724854,14.144841861724853,0.005698442459106445,0.280207478885856,0.3129721047804917,0.0,-5.0,0.7294737812997969,-0.018907795833876646,-0.08780876890185382,0.002566499418716607,nan,nan,nan,nan
23.06106162071228,0.17484665,0.20545368,-2.6011443,-0.005517562493644933,nan,nan,nan,nan,nan,13.055623292922974,14.255623292922973,0.00560307502746582,0.22923118397260858,0.3279254836318995,0.0,-5.0,0.7292830711030789,-0.02037424731485936,-0.10536641250386083,0.0023276235758691974,nan,nan,nan,nan
23.15303897857666,0.15131627,0.20921241,-2.600814,-0.004787896820333112,nan,nan,nan,nan,nan,13.147660493850708,14.347660493850707,0.007133960723876953,0.17879865186143665,0.337497643653596,0.0,-5.0,0.729077551518959,-0.021317531097074897,-0.1177143543803719,0.0016715594155735543,nan,nan,nan,nan
23.252485036849976,0.10430339,0.21533243,-2.598297,-0.002683474746693887,nan,nan,nan,nan,nan,13.247053384780884,14.447053384780883,0.006301164627075195,0.11804665625286816,0.3448348914467757,0.0,-5.0,0.7289886231459363,-0.016267662833171083,-0.12794207234666027,0.0009393732494548557,nan,nan,nan,nan
23.34666419029236,0.06529208,0.2179954,-2.5976486,-0.0008803349520593185,nan,nan,nan,nan,nan,13.341342687606812,14.54134268760681,0.005646705627441406,0.05636031908903143,0.3488562207719223,0.0,-5.0,0.7289195272985767,-0.015508755502265562,-0.13282239968108497,-0.0001909596594066936,nan,nan,nan,nan
23.446892738342285,0.03764481,0.21754193,-2.5995867,0.0006066669677749336,nan,nan,nan,nan,nan,13.441485404968262,14.641485404968261,0.0056040287017822266,-0.011152972877371716,0.34995556132288846,0.0,-5.0,0.7287674004138354,-0.013180235048783165,-0.13234033892244287,-0.0012665860152563063,nan,nan,nan,nan
23.564116954803467,-0.0051748035,0.21692833,-2.6020808,0.002338547888416965,nan,nan,nan,nan,nan,13.55871868133545,14.758718681335449,0.006566047668457031,-0.08947638597236432,0.34708021760486885,0.0,-5.0,0.7284793456002945,-0.007769724114367344,-0.12015382653809306,-0.0023277810410165856,nan,nan,nan,nan
23.648585081100464,-0.035918433,0.21631463,-2.6032052,0.0032678609226286324,nan,nan,nan,nan,nan,13.643339157104492,14.843339157104491,0.006363391876220703,-0.14339093107200301,0.3422335669163248,0.0,-5.0,0.728333528690592,-0.00719651526550616,-0.11366080395526654,-0.002901896488665736,nan,nan,nan,nan
23.748162746429443,-0.07028124,0.21569861,-2.6023571,0.0035729063348537322,nan,nan,nan,nan,nan,13.742759227752686,14.942759227752685,0.00568699836730957,-0.2017410538185006,0.3336186313303892,0.0,-5.0,0.7282987209806541,-0.00939528129020636,-0.10093721189833911,-0.0030959480482154636,nan,nan,nan,nan
23.864041328430176,-0.09770914,0.208053,-2.6001546,0.004513470107847008,nan,nan,nan,nan,nan,13.858689069747925,15.058689069747924,0.00541996955871582,-0.26026169335406485,0.3196919386247682,0.0,-5.0,0.7283217811108047,-0.007188453496427289,-0.07277955394974132,-0.003281187373112277,nan,nan,nan,nan
23.958635091781616,-0.12106975,0.19680668,-2.5976043,0.005533005429927783,nan,nan,nan,nan,nan,13.953197240829468,15.153197240829467,0.005727291107177734,-0.2984495952887734,0.3053616593856666,0.0,-5.0,0.7283699603934665,0.000879743238400976,-0.040870832704279436,-0.003523937198660454,nan,nan,nan,nan
24.0553035736084,-0.13606156,0.18626359,-2.5943792,0.005904776835127957,nan,nan,nan,nan,nan,14.049876928329468,15.249876928329467,0.00858926773071289,-0.3272261454105219,0.28806800425629686,0.0,-5.0,0.7284393146609127,0.001963218161740268,-0.03212657367576041,-0.004054775886281609,nan,nan,nan,nan
24.16115427017212,-0.14517555,0.17654006,-2.59005,0.005613694420477584,nan,nan,nan,nan,nan,14.155723571777344,15.355723571777343,0.005438327789306641,-0.3456350169725059,0.2662577228044101,0.0,-5.0,0.7285184248369153,0.0040861771776078155,-0.017279517011502012,-0.0039080952924202775,nan,nan,nan,nan
24.258128881454468,-0.14664803,0.16647518,-2.5827246,0.0043792762833947466,nan,nan,nan,nan,nan,14.252708435058594,15.452708435058593,0.0064697265625,-0.3498487244183675,0.2438224142848866,0.0,-5.0,0.7287119556379472,0.006718943748519684,0.016515243805310546,-0.0030952533229498115,nan,nan,nan,nan
24.35701584815979,-0.14149015,0.1621996,-2.5788682,0.003436299746476289,nan,nan,nan,nan,nan,14.3516526222229,15.5516526222229,0.007992267608642578,-0.3415113334377441,0.21872860501623484,0.0,-5.0,0.7288687515113622,-0.0008036864252659906,0.028027339850590756,-0.0023309214847691715,nan,nan,nan,nan
24.454227209091187,-0.12368177,0.15094267,-2.580895,0.0024477928306087214,nan,nan,nan,nan,nan,14.4488205909729,15.6488205909729,0.006567955017089844,-0.3211951460572114,0.19213802450173117,0.0,-5.0,0.728805174472504,-0.0011960079150999075,0.05775866521066954,-0.0015076863396939052,nan,nan,nan,nan
24.55177640914917,-0.10572093,0.1408734,-2.5807211,0.0022819256233537442,nan,nan,nan,nan,nan,14.546412229537964,15.746412229537963,0.006152153015136719,-0.28941648533001696,0.16372692629266694,0.0,-5.0,0.7286641189310915,-0.002020309094886826,0.07149367558522739,-0.0009498959137105099,nan,nan,nan,nan
24.66202402114868,-0.07302358,0.122404605,-2.5810053,0.0024893446725090095,nan,nan,nan,nan,nan,14.65658187866211,15.856581878662109,0.0053212642669677734,-0.24127225631775912,0.12991811624503116,0.0,-5.0,0.7287033685513146,0.004492122254031617,0.095117761327049,-0.000915589321824172,nan,nan,nan,nan
24.7553448677063,-0.031268835,0.098467305,-2.584935,0.00274964902157028,nan,nan,nan,nan,nan,14.749961853027344,15.949961853027343,0.0060160160064697266,-0.19182596816753408,0.10009335457683832,0.0,-5.0,0.7284310379644182,0.019082310010970566,0.11438419380424929,-0.0013147603905860345,nan,nan,nan,nan
24.85161828994751,-0.0004871554,0.08285592,-2.5851896,0.0033108574934031573,nan,nan,nan,nan,nan,14.846237182617188,16.046237182617187,0.006104946136474609,-0.13433782695387503,0.0684932431714093,0.0,-5.0,0.7283928344247391,0.023942713520824672,0.1265366604505695,-0.0011414701440114563,nan,nan,nan,nan
24.961536645889282,0.041347265,0.055630036,-2.5870922,0.00399954963101448,nan,nan,nan,nan,nan,14.956120252609253,16.156120252609252,0.005283355712890625,-0.06317561684681394,0.031718322996045566,0.0,-5.0,0.7283503757035946,0.031778618428430216,0.13440546201061318,-0.0015207675218354673,nan,nan,nan,nan
25.051600694656372,0.083883196,0.02703128,-2.5870223,0.003980716865600586,nan,nan,nan,nan,nan,15.046224355697632,16.24622435569763,0.005341053009033203,-0.0025547697689397,0.0012773933921148084,0.0,-5.0,0.7282490096121013,0.04101388759450955,0.12466656541245709,-0.0022315616459766554,nan,nan,nan,nan
25.16147756576538,0.124972306,0.0006586266,-2.5809345,0.002774925728652062,nan,nan,nan,nan,nan,15.156035423278809,16.356035423278808,0.0054471492767333984,0.07124747411291615,-0.035811690176332366,0.0,-5.0,0.7283129532979907,0.04085254784203051,0.11257427160889032,-0.0014064070881361188,nan,nan,nan,nan
25.252925872802734,0.15552214,-0.020416852,-2.5736759,0.0020689894550772786,nan,nan,nan,nan,nan,15.2476806640625,16.4476806640625,0.005850315093994141,0.13052835236342547,-0.06647411122586748,0.0,-5.0,0.7286292232738295,0.03832981112513601,0.10618950474915607,-0.0004085131135947815,nan,nan,nan,nan
25.348172426223755,0.17759174,-0.041359913,-2.565136,0.002177591168894997,nan,nan,nan,nan,nan,15.342865228652954,16.542865228652953,0.0057430267333984375,0.18774799212050292,-0.09776554078725345,0.0,-5.0,0.7289751082861731,0.03594052410406487,0.09217458734251556,-0.00016196454788613534,nan,nan,nan,nan
25.46543002128601,0.20140249,-0.07090788,-2.5539887,0.001890274263214754,nan,nan,nan,nan,nan,15.460204362869263,16.660204362869262,0.006003618240356445,0.24937214436989585,-0.13517424244041637,0.0,-5.0,0.7293564182958413,0.030033826627556933,0.05784953349532,-0.0002016016455888031,nan,nan,nan,nan
25.547152519226074,0.21156055,-0.08995407,-2.5445664,0.0010797800636024608,nan,nan,nan,nan,nan,15.541718482971191,16.74171848297119,0.0055119991302490234,0.2848243102068882,-0.160167012438957,0.0,-5.0,0.7295506584411712,0.02425370569988011,0.03076948862575721,-0.00015337235793631794,nan,nan,nan,nan
25.65790557861328,0.22239217,-0.11919743,-2.5320184,-0.0005603784565198482,nan,nan,nan,nan,nan,15.652477502822876,16.852477502822875,0.00882577896118164,0.321543081527304,-0.19250495784680116,0.0,-5.0,0.7299256407573733,0.02181669067486855,0.003859288884035039,0.0010749535957331575,nan,nan,nan,nan
25.759232997894287,0.22691882,-0.13785106,-2.5271034,-0.0014844077540681292,nan,nan,nan,nan,nan,15.753795862197876,16.953795862197875,0.0058803558349609375,0.3422994061869362,-0.22016462777274579,0.0,-5.0,0.7300627789781369,0.02221257044111578,-0.0015105588679684857,0.002179965346537585,nan,nan,nan,nan
25.853408336639404,0.22660977,-0.15956706,-2.5290735,-0.0026989931925713905,nan,nan,nan,nan,nan,15.848068475723267,17.048068475723266,0.005759000778198242,0.34986378425825554,-0.2440109197543596,0.0,-5.0,0.7298622242090445,0.017113659881124434,-0.023527300932080247,0.0027576548418184804,nan,nan,nan,nan
25.964872121810913,0.21030614,-0.17808849,-2.5277674,-0.0038172464765325025,nan,nan,nan,nan,nan,15.959439992904663,17.159439992904662,0.0055620670318603516,0.3438713405027316,-0.26955882618101673,0.0,-5.0,0.7296601783916136,0.011292375355522324,-0.04346645998132583,0.0034388142880582176,nan,nan,nan,nan
26.065614938735962,0.19429712,-0.18826921,-2.5273583,-0.004547848050698244,nan,nan,nan,nan,nan,16.060187101364136,17.260187101364135,0.009464025497436523,0.3247480471675237,-0.2899882220624197,0.0,-5.0,0.7295700978348063,0.010503355063609207,-0.05142256041348291,0.004191177826800719,nan,nan,nan,nan
26.165217399597168,0.16404185,-0.2039382,-2.525015,-0.004764431331618948,nan,nan,nan,nan,nan,16.159783363342285,17.359783363342284,0.0052280426025390625,0.29376787023706513,-0.3074836945365992,0.0,-5.0,0.7293236010618622,0.00042314195699528513,-0.07891661166873304,0.004350530104464871,nan,nan,nan,nan
26.25879716873169,0.1372842,-0.21643278,-2.5225613,-0.004185798817687485,nan,nan,nan,nan,nan,16.253374338150024,17.453374338150024,0.006253480911254883,0.25473366247404333,-0.3213314848748416,0.0,-5.0,0.7293455731210715,0.004849375653854752,-0.0898930137131957,0.00421457774246166,nan,nan,nan,nan
26.349812984466553,0.114155896,-0.22150803,-2.523524,-0.004433950522249552,nan,nan,nan,nan,nan,16.344444036483765,17.544444036483764,0.005291938781738281,0.20875436848350493,-0.33228411643348443,0.0,-5.0,0.7292631130144978,0.007974900984526237,-0.09781362077838508,0.0041878401526377375,nan,nan,nan,nan
26.46147108078003,0.07422573,-0.23270549,-2.5252635,-0.004098680815261361,nan,nan,nan,nan,nan,16.456064701080322,17.65606470108032,0.00561976432800293,0.14375880910662683,-0.34219125751613155,0.0,-5.0,0.729034074743165,0.0078415250075107,-0.1085466725065482,0.004104212792090436,nan,nan,nan,nan
26.556785821914673,0.036476403,-0.2432233,-2.5232072,-0.003099008440699125,nan,nan,nan,nan,nan,16.551382541656494,17.751382541656493,0.008936643600463867,0.08285187043592616,-0.3475041765411814,0.0,-5.0,0.7289286092735567,0.010974182589575906,-0.10582075837485178,0.003218890142156248,nan,nan,nan,nan
26.650399208068848,0.010070827,-0.24611737,-2.5202656,-0.002529940380768545,nan,nan,nan,nan,nan,16.645020008087158,17.845020008087157,0.00510859489440918,0.020274627209112737,-0.3498530384581139,0.0,-5.0,0.7290405963981003,0.01090864672882274,-0.09729114342383802,0.0027700922737001303,nan,nan,nan,nan
26.760677099227905,-0.015712861,-0.24303073,-2.5192454,-0.0022786348331301273,nan,nan,nan,nan,nan,16.755237102508545,17.955237102508544,0.005807638168334961,-0.05407501853564173,-0.3489477866162917,0.0,-5.0,0.7290098382833208,0.006100639148504554,-0.08488580870401642,0.002309875562564902,nan,nan,nan,nan
26.855109930038452,-0.037822884,-0.23813286,-2.5167248,-0.0021135175980955094,nan,nan,nan,nan,nan,16.849724292755127,18.049724292755126,0.006009340286254883,-0.11599175020056951,-0.3450198202084011,0.0,-5.0,0.7290332147224807,0.0044766134940959655,-0.08488597628862221,0.002281087141708636,nan,nan,nan,nan
26.948387622833252,-0.071901694,-0.2238185,-2.513107,-0.002910679848413509,nan,nan,nan,nan,nan,16.94295072555542,18.14295072555542,0.0052623748779296875,-0.17330809253806775,-0.3383251421021784,0.0,-5.0,0.7290898123517817,-0.011860180379204494,-0.06961890938551454,0.0018874043508025232,nan,nan,nan,nan
27.060692071914673,-0.096770816,-0.2077808,-2.5115538,-0.004291415859167454,nan,nan,nan,nan,nan,17.055262804031372,18.25526280403137,0.005831718444824219,-0.2347463780606676,-0.3266200647382642,0.0,-5.0,0.7291279068013815,-0.022734347267709207,-0.06081399506188999,0.0027953420015279107,nan,nan,nan,nan
27.154083490371704,-0.11320638,-0.19421987,-2.5112088,-0.005009383074942109,nan,nan,nan,nan,nan,17.148665189743042,18.34866518974304,0.007424592971801758,-0.27755287314196486,-0.31394931220175937,0.0,-5.0,0.7291040854968467,-0.02225090805276529,-0.060834082603458565,0.0035918626715830937,nan,nan,nan,nan
27.254469394683838,-0.140009,-0.16733013,-2.5051632,-0.005356251592498735,nan,nan,nan,nan,nan,17.24912428855896,18.44912428855896,0.006420612335205078,-0.31348636503904087,-0.2974699975712535,0.0,-5.0,0.7292767278647246,-0.03235346284755766,-0.042664981239887045,0.0036137111680754103,nan,nan,nan,nan
27.365628004074097,-0.15335341,-0.14239657,-2.5050097,-0.005917984888175975,nan,nan,nan,nan,nan,17.360185861587524,18.560185861587524,0.005692243576049805,-0.3394515007356262,-0.2759963772494046,0.0,-5.0,0.7293305861702212,-0.03252616354756856,-0.03388465136559298,0.0040811179050492365,nan,nan,nan,nan
27.460288763046265,-0.15831603,-0.12319986,-2.5029576,-0.006411503586713782,nan,nan,nan,nan,nan,17.454848766326904,18.654848766326904,0.005787372589111328,-0.349302914516662,-0.2551740425364884,0.0,-5.0,0.7293241351222824,-0.029749613832322934,-0.024044759043720398,0.004442381633964314,nan,nan,nan,nan
27.555067539215088,-0.15646493,-0.08957827,-2.4978182,-0.007695356339915338,nan,nan,nan,nan,nan,17.549699068069458,18.749699068069457,0.005829572677612305,-0.34747259151032883,-0.23216912861678599,0.0,-5.0,0.7294204736681015,-0.03078665148519608,0.009999221517363011,0.004870865037047416,nan,nan,nan,nan
27.648568153381348,-0.14977954,-0.069373906,-2.4947631,-0.00840932003470223,nan,nan,nan,nan,nan,17.643133640289307,18.843133640289306,0.005494117736816406,-0.33427614271181616,-0.20759969097408393,0.0,-5.0,0.7295936022699874,-0.02645965603227538,0.023941912204029386,0.005745236220789336,nan,nan,nan,nan
27.760765075683594,-0.14333889,-0.034430128,-2.4815726,-0.008103260451287776,nan,nan,nan,nan,nan,17.75533628463745,18.95533628463745,0.005681037902832031,-0.30411777522658645,-0.17587739472815028,0.0,-5.0,0.7299687260694588,-0.02522510621661839,0.0491327267027147,0.00592742627940829,nan,nan,nan,nan
27.853171586990356,-0.1286679,0.0016201215,-2.4688854,-0.0070755774754951446,nan,nan,nan,nan,nan,17.847813367843628,19.047813367843627,0.006075382232666016,-0.2684622086984239,-0.14816095715966637,0.0,-5.0,0.7303568907427258,-0.028481024400755495,0.06825998268205244,0.005316386304352867,nan,nan,nan,nan
27.948915481567383,-0.11276953,0.027734227,-2.4598684,-0.00640245347501539,nan,nan,nan,nan,nan,17.943488359451294,19.143488359451293,0.005646228790283203,-0.22258269011823925,-0.1182435996619231,0.0,-5.0,0.7305010393808287,-0.024579757681271436,0.07414824407973446,0.004935951773225237,nan,nan,nan,nan
28.061938285827637,-0.08493807,0.062471267,-2.4494226,-0.0062619567622388544,nan,nan,nan,nan,nan,18.05651044845581,19.25651044845581,0.006027936935424805,-0.15873963034366478,-0.08162019310368139,0.0,-5.0,0.7307614053627421,-0.02031838249588509,0.09117354547828439,0.004708770302781299,nan,nan,nan,nan
28.161530017852783,-0.04945097,0.10032265,-2.4440463,-0.00618822563327338,nan,nan,nan,nan,nan,18.156094312667847,19.356094312667846,0.005983114242553711,-0.09612259394182801,-0.04853007743283226,0.0,-5.0,0.7307205857902068,-0.01831258083279396,0.1040118989615115,0.004661657758500864,nan,nan,nan,nan
28.25690197944641,-0.026436498,0.121250905,-2.4446285,-0.00548750871716162,nan,nan,nan,nan,nan,18.25172758102417,19.45172758102417,0.007961273193359375,-0.032616174296959975,-0.01632585759552762,0.0,-5.0,0.7305261815971609,-0.015723046993538138,0.11143579271385139,0.004282870791105108,nan,nan,nan,nan
28.36262845993042,0.01270434,0.15283248,-2.4455671,-0.00390881448680915,nan,nan,nan,nan,nan,18.357520818710327,19.557520818710326,0.005707740783691406,0.038841333507348925,0.019450725929473427,0.0,-5.0,0.7301661573605087,-0.011337131339692365,0.10891378480646492,0.003298472143463357,nan,nan,nan,nan
28.442434549331665,0.037544083,0.16966692,-2.4496107,-0.0029241657252106756,nan,nan,nan,nan,nan,18.436993837356567,19.636993837356567,0.011112689971923828,0.09161707303760279,0.0462131458311564,0.0,-5.0,0.7299115141004451,-0.006226068740312611,0.10553396461868178,0.0024950448887619326,nan,nan,nan,nan
28.547675848007202,0.061760213,0.18463571,-2.4554894,-0.0021643495559032205,nan,nan,nan,nan,nan,18.542253255844116,19.742253255844116,0.005780458450317383,0.15799362356958013,0.08121339699472699,0.0,-5.0,0.7294992562220027,-0.0010299345196914573,0.10734096726931376,0.0016817076070365282,nan,nan,nan,nan
28.648264408111572,0.09075834,0.20296761,-2.4607818,-0.0024184423338687016,nan,nan,nan,nan,nan,18.64282774925232,19.84282774925232,0.0055370330810546875,0.21536002731563578,0.11387597767542153,0.0,-5.0,0.7290325369394944,0.00543470005613493,0.0857162427427923,0.0012759703720184909,nan,nan,nan,nan
28.74887704849243,0.11224087,0.21471862,-2.4671702,-0.002856737109063383,nan,nan,nan,nan,nan,18.74344229698181,19.94344229698181,0.0050373077392578125,0.2646277387594185,0.14547541270179024,0.0,-5.0,0.7287260808647766,0.0073538583343828665,0.08305556465749238,0.0013141951953524707,nan,nan,nan,nan
28.851556539535522,0.14273638,0.23390561,-2.4769266,-0.002826113500751643,nan,nan,nan,nan,nan,18.846439599990845,20.046439599990844,0.005221843719482422,0.3047107686586141,0.1763965941061463,0.0,-5.0,0.7282152925600457,0.005688793017466921,0.059698951701818666,0.001393596474116336,nan,nan,nan,nan
28.965451955795288,0.16949932,0.24937578,-2.4884467,-0.0024891861475243955,nan,nan,nan,nan,nan,18.960041999816895,20.160041999816894,0.005575418472290039,0.33490666816254283,0.20846370833014624,0.0,-5.0,0.7277974277944118,6.538249992149482e-05,0.044497991260945204,0.0008978497616547501,nan,nan,nan,nan
29.061855792999268,0.18140367,0.25546268,-2.4962955,-0.0024821980609157756,nan,nan,nan,nan,nan,19.056431770324707,20.256431770324706,0.00593876838684082,0.34794581537915115,0.23371721686200303,0.0,-5.0,0.7275133104704568,-0.002178452810898918,0.03975331363741255,0.0005540188087949696,nan,nan,nan,nan
29.158528089523315,0.19129342,0.25988287,-2.5103455,-0.0031263141761711053,nan,nan,nan,nan,nan,19.153091430664062,20.353091430664062,0.006701946258544922,0.3489228482478213,0.2570051687842643,0.0,-5.0,0.7270640757974418,0.001868716152162272,0.009448275712232307,0.0008552832100856313,nan,nan,nan,nan
29.25502324104309,0.19107091,0.2646102,-2.5177345,-0.003656424475035866,nan,nan,nan,nan,nan,19.24967384338379,20.44967384338379,0.006467103958129883,0.3377643545017846,0.27803517548434364,0.0,-5.0,0.7268837518001784,-0.0005051707515772758,-0.0014145598152293594,0.0009269739170203035,nan,nan,nan,nan
29.353384494781494,0.18358703,0.26870215,-2.5300274,-0.004310579970638781,nan,nan,nan,nan,nan,19.348006010055542,20.54800601005554,0.005521059036254883,0.3143450647398562,0.296957269952764,0.0,-5.0,0.7265318391775794,-0.0017818023497101782,-0.04025917686619541,0.0015199125728178173,nan,nan,nan,nan
29.45050811767578,0.17230421,0.27252668,-2.5391617,-0.0044901695769147,nan,nan,nan,nan,nan,19.445072889328003,20.645072889328002,0.005265712738037109,0.2801137796284894,0.3130070868616471,0.0,-5.0,0.7262834161520734,-0.005320871856813197,-0.055513578440118734,0.0014447687502685577,nan,nan,nan,nan
29.564385175704956,0.14862856,0.28063798,-2.5480685,-0.004786773291262869,nan,nan,nan,nan,nan,19.558950424194336,20.758950424194335,0.006826877593994141,0.22752519698631982,0.3283172220165218,0.0,-5.0,0.7260322220770302,-0.01418948672702355,-0.08531811772885459,0.0015631859470602214,nan,nan,nan,nan
29.66381525993347,0.1295634,0.28371865,-2.5511787,-0.005163298896104148,nan,nan,nan,nan,nan,19.65840458869934,20.85840458869934,0.007068157196044922,0.1725107457804104,0.3384422952623592,0.0,-5.0,0.726085336356247,-0.02176379959611227,-0.0986731544429105,0.001630193566381404,nan,nan,nan,nan
29.762130975723267,0.0933244,0.2853554,-2.5535564,-0.006385465771237187,nan,nan,nan,nan,nan,19.756703853607178,20.956703853607177,0.0061397552490234375,0.1118790916428205,0.34537872957535387,0.0,-5.0,0.7261712707793742,-0.02210372043991796,-0.11763439930906053,0.002535561848866008,nan,nan,nan,nan
