time,x,y,z,yaw,platform,trajectory,traj_double,traj_short,traj_spin,traj_time,ref_time,comptime,x_ref,y_ref,yaw_ref,z_ref,throttle_input,p_input,q_input,r_input,cbf_term_pitch_cbf,cbf_term_roll_cbf,cbf_term_thrust_cbf,cbf_term_yaw_cbf
10.044666051864624,0.011918753,-0.0038492465,-3.0576067,0.00043932856853225134,SIM,FIG8_VERTICAL,NormSpd,Short,NoSpin,0.03750038146972656,1.2375003814697265,0.008294105529785156,0.0,0.32573223142863733,0.0,-5.238355361560832,0.71711510033866,0.1480196358034701,-0.032328327198939105,-0.0014098866661579586,nan,nan,nan,nan
10.207929849624634,0.011918753,-0.0038492465,-3.0576067,0.00043932856853225134,nan,nan,nan,nan,nan,0.20071768760681152,1.4007176876068115,0.007462263107299805,0.0,0.34180669032021266,0.0,-5.147049846082083,0.7172236164654684,0.15449148289541634,-0.012175476185303178,0.0001868150811098549,nan,nan,nan,nan
10.254838228225708,0.00074616604,-0.006142871,-3.0619848,0.0004937630757980314,nan,nan,nan,nan,nan,0.24800467491149902,1.448004674911499,0.006114959716796875,0.0,0.3448898340296092,0.0,-5.117440482398599,0.7175120367957882,0.1341993442613982,-0.009687861057134104,-0.00022384905618968691,nan,nan,nan,nan
10.356167554855347,-0.007015534,-0.007729665,-3.0611885,0.0005991107593938817,nan,nan,nan,nan,nan,0.3489053249359131,1.548905324935913,0.006134986877441406,0.0,0.34905358027612493,0.0,-5.0513039934858455,0.7185503074323306,0.1144644680464726,-0.016180873001128415,-0.0003272043751826027,nan,nan,nan,nan
10.451771020889282,-0.011826007,-0.009544295,-3.0607176,0.0007633880982036354,nan,nan,nan,nan,nan,0.444516658782959,1.644516658782959,0.006326913833618164,0.0,0.3499377170564322,0.0,-4.986797171903984,0.7190340636676161,0.09842315531511898,-0.01584616599414594,-0.000411493101603889,nan,nan,nan,nan
10.546924829483032,-0.01843372,-0.01066457,-3.0600238,0.0009340382392522871,nan,nan,nan,nan,nan,0.539686918258667,1.739686918258667,0.0052525997161865234,0.0,0.3478514078062763,0.0,-4.923031292643903,0.7194558041647496,0.0830364946158829,-0.015154964410289556,-0.0005353013976278324,nan,nan,nan,nan
10.640771627426147,-0.023124613,-0.0098045105,-3.0595865,0.0011482951883940167,nan,nan,nan,nan,nan,0.6334881782531738,1.8334881782531738,0.005477190017700195,0.0,0.3429162454345775,0.0,-4.8627153009982305,0.7198352192612012,0.066661084677861,-0.0161555568814728,-0.0006604155113475162,nan,nan,nan,nan
10.757289171218872,-0.02435492,-0.0055334,-3.0605648,0.0014219687236173778,nan,nan,nan,nan,nan,0.7499954700469971,1.949995470046997,0.005995512008666992,0.0,0.33287025429893774,0.0,-4.794277641501167,0.7208845541121677,0.04062592976938888,-0.011986626795513553,-0.000849829841500733,nan,nan,nan,nan
10.850416660308838,-0.0301071,0.0025872346,-3.0585725,0.0019923526593767977,nan,nan,nan,nan,nan,0.8432209491729736,2.043220949172974,0.00688624382019043,0.0,0.3217863250447427,0.0,-4.746851741488103,0.722629333107275,-0.005126414676738081,-0.0050045459326270745,-0.0011627516568829754,nan,nan,nan,nan
10.944669723510742,-0.033381186,0.011010417,-3.0571132,0.002305828866100184,nan,nan,nan,nan,nan,0.9373817443847656,2.137381744384766,0.005173206329345703,0.0,0.3079407059452553,0.0,-4.70727931007378,0.7240053533911949,-0.03820398408272037,-0.00284635201153501,-0.001346193590858715,nan,nan,nan,nan
11.040843486785889,-0.03484067,0.020855114,-3.054342,0.0025680877004148023,nan,nan,nan,nan,nan,1.0336012840270996,2.2336012840271,0.005444049835205078,0.0,0.2911597132632779,0.0,-4.676842873649372,0.7252644062859015,-0.06840458412215097,1.5489671111253806e-05,-0.0015367047669296277,nan,nan,nan,nan
11.138419151306152,-0.030653857,0.027643414,-3.054544,0.0029641344032654195,nan,nan,nan,nan,nan,1.13120436668396,2.33120436668396,0.00708770751953125,0.0,0.2715667021305137,0.0,-4.657364326051918,0.7264888560562344,-0.0780246733287026,0.008616200590915118,-0.001835790310425872,nan,nan,nan,nan
11.251472234725952,-0.028182372,0.04229648,-3.0531263,0.0027547075403695307,nan,nan,nan,nan,nan,1.2442784309387207,2.444278430938721,0.008165121078491211,0.0,0.24586045368563952,0.0,-4.650030052679482,0.7273932185276082,-0.08656136266231876,0.012330313277417767,-0.0017724737567227312,nan,nan,nan,nan
11.340283393859863,-0.029773548,0.06049122,-3.0528603,0.0026819728222737885,nan,nan,nan,nan,nan,1.3332202434539795,2.5332202434539797,0.005851268768310547,0.0,0.22356202038826878,0.0,-4.6559758394493125,0.7281671941716008,-0.07959856198424284,0.014130959665817688,-0.0015795891554269163,nan,nan,nan,nan
11.439647674560547,-0.0301471,0.0749274,-3.0473921,0.0027150970039935152,nan,nan,nan,nan,nan,1.432434320449829,2.6324343204498293,0.0054972171783447266,0.0,0.19674756045685168,0.0,-4.674561872328786,0.7286489181802873,-0.07387350756535413,0.010957221092141815,-0.0016333163466260006,nan,nan,nan,nan
11.556825399398804,-0.028061602,0.08803567,-3.0405288,0.0025380150491738744,nan,nan,nan,nan,nan,1.549536943435669,2.749536943435669,0.0073010921478271484,0.0,0.1627918128045396,0.0,-4.711777772042385,0.7296027385998272,-0.055025213913856404,0.008420462555990504,-0.001598289617112263,nan,nan,nan,nan
11.642547369003296,-0.026176248,0.092901334,-3.040721,0.0023635452653140814,nan,nan,nan,nan,nan,1.6352744102478027,2.835274410247803,0.005336284637451172,0.0,0.13658390750464985,0.0,-4.748490764356477,0.7296136617873528,-0.035523571607304745,0.007723601054319133,-0.0014889839055859768,nan,nan,nan,nan
11.74475383758545,-0.021229433,0.0965775,-3.0458653,0.001766598378856104,nan,nan,nan,nan,nan,1.7374615669250488,2.937461566925049,0.005743503570556641,0.0,0.10413848290216149,0.0,-4.801155936865426,0.7294029401963262,-0.013367670735907729,0.007804509674510602,-0.0011918737140382456,nan,nan,nan,nan
11.85518503189087,-0.020520452,0.096896596,-3.0516682,0.0017657906203255962,nan,nan,nan,nan,nan,1.8479619026184082,3.0479619026184084,0.007147073745727539,0.0,0.06792091412858174,0.0,-4.866740564257649,0.7289966086847016,0.007410021911558964,0.00537942639207728,-0.0010081788037054114,nan,nan,nan,nan
11.953930139541626,-0.020422315,0.09571275,-3.0511098,0.0018868431925463496,nan,nan,nan,nan,nan,1.9467442035675049,3.146744203567505,0.008335351943969727,0.0,0.034876079436299244,0.0,-4.9305950005711185,0.7286560716188466,0.015735439929027505,0.0018362960628370013,-0.0011096125131301621,nan,nan,nan,nan
12.051560163497925,-0.019290078,0.08967346,-3.0482173,3.704628131973725e-05,nan,nan,nan,nan,nan,2.044344186782837,3.244344186782837,0.006214141845703125,0.0,0.001913495525658635,0.0,-4.996173066142556,0.7285420754286782,0.029345948436194546,-0.0029175938053566507,-0.0004313256697778038,nan,nan,nan,nan
12.145843744277954,-0.017253773,0.081359476,-3.0490086,-0.0008947571694549565,nan,nan,nan,nan,nan,2.1385557651519775,3.3385557651519777,0.0050508975982666016,0.0,-0.029924084393496177,0.0,-5.059629028432355,0.7280156091581714,0.03423786929820927,-0.0032798955967751828,0.000420295303474272,nan,nan,nan,nan
12.247531652450562,-0.020490961,0.057549186,-3.0447733,-0.0025777065489463458,nan,nan,nan,nan,nan,2.240238904953003,3.440238904953003,0.005079984664916992,0.0,-0.06400050360374616,0.0,-5.125842811243658,0.7275945812412831,0.04852368157983198,-0.0066286354030118564,0.0012183643473855942,nan,nan,nan,nan
12.34804654121399,-0.021776823,0.03724578,-3.0475576,-0.0038937811311333496,nan,nan,nan,nan,nan,2.340833902359009,3.540833902359009,0.005010843276977539,0.0,-0.09710545939948524,0.0,-5.186586540270112,0.7271196711787583,0.0570262277326391,-0.009134542804482554,0.002086906301776305,nan,nan,nan,nan
12.443043947219849,-0.019736947,0.0068337303,-3.0515258,-0.004754632567227288,nan,nan,nan,nan,nan,2.4357619285583496,3.63576192855835,0.006974458694458008,0.0,-0.1275093587007197,0.0,-5.2374930093389445,0.7265509846808847,0.06793700792920253,-0.008922634736364614,0.003210316114082476,nan,nan,nan,nan
12.545439004898071,-0.015737485,-0.01538035,-3.05282,-0.004259072167642252,nan,nan,nan,nan,nan,2.5381414890289307,3.738141489028931,0.005217790603637695,0.0,-0.15909002128292052,0.0,-5.283410866638938,0.7258547084305866,0.07130513773600379,-0.003496377343075379,0.002981628363393852,nan,nan,nan,nan
12.641886711120605,-0.015798919,-0.054947678,-3.0544312,-0.0045178446812717005,nan,nan,nan,nan,nan,2.634617567062378,3.834617567062378,0.006369590759277344,0.0,-0.18743012057388372,0.0,-5.316579201407144,0.7254692939247589,0.07191191682455449,0.0007613588794479605,0.0028673387716459512,nan,nan,nan,nan
12.74076247215271,-0.017620612,-0.07468385,-3.0540867,-0.005975245729986592,nan,nan,nan,nan,nan,2.7336113452911377,3.933611345291138,0.00776219367980957,0.0,-0.21481444029768987,0.0,-5.339190336738681,0.7251266864965669,0.06953993113684283,-3.665693299279152e-05,0.003371683009441907,nan,nan,nan,nan
12.855060577392578,-0.022112692,-0.09975675,-3.0540612,-0.0075906035244893595,nan,nan,nan,nan,nan,2.847827672958374,4.047827672958374,0.010660648345947266,0.0,-0.24395250737395735,0.0,-5.3498592008799815,0.7249433788605898,0.05794468326625085,-0.002961168137300148,0.004580995710109391,nan,nan,nan,nan
12.94593095779419,-0.029787108,-0.1237086,-3.0562623,-0.008293947597735314,nan,nan,nan,nan,nan,2.9386422634124756,4.138642263412476,0.005303859710693359,0.0,-0.2650165524538377,0.0,-5.346214717915169,0.7248790053473719,0.040781218727067504,-0.008104127412327564,0.005208442634336379,nan,nan,nan,nan
13.051497220993042,-0.035094056,-0.13826652,-3.0558858,-0.008181076694935828,nan,nan,nan,nan,nan,3.044682502746582,4.244682502746582,0.0072329044342041016,0.0,-0.2870185787957982,0.0,-5.328514269562008,0.724632065971172,0.03251000276327771,-0.011893761357577647,0.005294488452583025,nan,nan,nan,nan
13.154839277267456,-0.035496835,-0.15275414,-3.0560622,-0.0076010426635315575,nan,nan,nan,nan,nan,3.147615432739258,4.347615432739258,0.010009050369262695,0.0,-0.3054959273740862,0.0,-5.298161972583412,0.7247233025792218,0.016369951559037227,-0.009963358973578213,0.004997732380546858,nan,nan,nan,nan
13.247311115264893,-0.038047064,-0.16100036,-3.0534902,-0.00754656865192562,nan,nan,nan,nan,nan,3.2400104999542236,4.440010499954224,0.00558924674987793,0.0,-0.3195125965525317,0.0,-5.260849213193879,0.7250416188387157,0.002305601728456938,-0.005735918123031709,0.0047670443889044276,nan,nan,nan,nan
13.346642255783081,-0.038985267,-0.1714857,-3.0447247,-0.00812180903342233,nan,nan,nan,nan,nan,3.3393759727478027,4.539375972747803,0.005460500717163086,0.0,-0.33174152335656487,0.0,-5.211496862648732,0.7257388014043488,-0.011466999386771742,-0.0022223568521346814,0.0049914517458863016,nan,nan,nan,nan
13.446323871612549,-0.04062856,-0.17642443,-3.036164,-0.0097086856893693,nan,nan,nan,nan,nan,3.4390268325805664,4.639026832580567,0.005269289016723633,0.0,-0.3409340681251637,0.0,-5.154190238835972,0.7264270465910042,-0.011090365577819585,0.0009386701137071575,0.005628979206859955,nan,nan,nan,nan
13.541779279708862,-0.047960583,-0.17863262,-3.0228035,-0.01216991149094457,nan,nan,nan,nan,nan,3.5345280170440674,4.734528017044068,0.006260395050048828,0.0,-0.3467783147819821,0.0,-5.093886413319094,0.7274228582745746,-0.01687107282508464,-0.0031600313593086373,0.0071902658542584335,nan,nan,nan,nan
13.641199350357056,-0.0482269,-0.17935967,-3.0156333,-0.01324535711685414,nan,nan,nan,nan,nan,3.633962392807007,4.833962392807007,0.006008625030517578,0.0,-0.34972465437468037,0.0,-5.027739005042414,0.7281944119667494,-0.014584369129079549,-0.0034167495176746832,0.008095327620725038,nan,nan,nan,nan
13.751465320587158,-0.049062304,-0.17843646,-3.00198,-0.013729391214215144,nan,nan,nan,nan,nan,3.7442164421081543,4.9442164421081545,0.004967689514160156,0.0,-0.34921688129957834,0.0,-4.953304295636693,0.7292228453638763,-0.01244842746663314,-0.0013473298679880282,0.008662464368319694,nan,nan,nan,nan
13.847354650497437,-0.050626777,-0.17838883,-2.9907737,-0.013089398102665557,nan,nan,nan,nan,nan,3.840287685394287,5.040287685394287,0.005038261413574219,0.0,-0.34554212395483447,0.0,-4.8900516636048765,0.730214091239501,-0.009558405963954462,-0.0002108749916628432,0.0084902478896392,nan,nan,nan,nan
13.947759628295898,-0.053147428,-0.17899166,-2.979584,-0.011584053750461456,nan,nan,nan,nan,nan,3.9404709339141846,5.140470933914185,0.0053424835205078125,0.0,-0.3385390540134051,0.0,-4.8281516962332525,0.7310974107580138,-0.0015479189158466029,-0.0007241831924277734,0.007519984406435852,nan,nan,nan,nan
14.04668664932251,-0.053346373,-0.17749627,-2.9741142,-0.011483347611152587,nan,nan,nan,nan,nan,4.039423942565918,5.239423942565918,0.005472898483276367,0.0,-0.3285073902772667,0.0,-4.77331177448527,0.7316190360827536,0.007302355885308159,0.00031735542979925853,0.0072372827741122555,nan,nan,nan,nan
14.1426842212677,-0.058344413,-0.1691266,-2.9645333,-0.011479144385265242,nan,nan,nan,nan,nan,4.135392904281616,5.335392904281616,0.00541996955871582,0.0,-0.3159083104975767,0.0,-4.728009032515859,0.7322196970689829,0.00447862158225656,-0.0010642531058155354,0.007286866677579769,nan,nan,nan,nan
14.250162839889526,-0.059659924,-0.1564766,-2.955865,-0.011818954220247358,nan,nan,nan,nan,nan,4.243005275726318,5.4430052757263185,0.0052814483642578125,0.0,-0.2985556284594919,0.0,-4.688376813763031,0.73285079532565,-0.000697507696408576,-0.0006715707901092587,0.007382534696568379,nan,nan,nan,nan
14.347758531570435,-0.05752059,-0.14721327,-2.9518914,-0.012183295244292739,nan,nan,nan,nan,nan,4.340472459793091,5.540472459793091,0.0051305294036865234,0.0,-0.28004749888812713,0.0,-4.664044373371055,0.7334186493601492,0.0016009619161855924,0.0009823807465087324,0.007589980895353683,nan,nan,nan,nan
14.445566654205322,-0.0511548,-0.13177744,-2.9458437,-0.012229666131251048,nan,nan,nan,nan,nan,4.43827486038208,5.63827486038208,0.0053577423095703125,0.0,-0.2589790438964634,0.0,-4.651583715551382,0.73357587542525,-0.008542323408435993,0.008740458693525867,0.007900606667082057,nan,nan,nan,nan
14.543585300445557,-0.046140257,-0.12084458,-2.9411008,-0.011199859792668474,nan,nan,nan,nan,nan,4.536315441131592,5.736315441131592,0.00534367561340332,0.0,-0.23553800353284615,0.0,-4.651557482367986,0.7338338945187515,-0.005622634158795695,0.011453606705572451,0.007296072461153291,nan,nan,nan,nan
14.641253471374512,-0.033944022,-0.102306604,-2.9335678,-0.00872971665810945,nan,nan,nan,nan,nan,4.63404393196106,5.83404393196106,0.006003379821777344,0.0,-0.21006754603186106,0.0,-4.663952752614919,0.733904130632248,-0.011585453760443197,0.01502344070780482,0.006107374428029735,nan,nan,nan,nan
14.753917932510376,-0.026562717,-0.08408422,-2.929021,-0.005427195989653898,nan,nan,nan,nan,nan,4.746656179428101,5.946656179428101,0.005311250686645508,0.0,-0.17841016592996012,0.0,-4.69301800246266,0.7338995714129961,-0.011701881319455243,0.01507468546451482,0.004213537244354646,nan,nan,nan,nan
14.844456672668457,-0.019837577,-0.06966796,-2.9270236,-0.003168367044597109,nan,nan,nan,nan,nan,4.837164878845215,6.037164878845215,0.005824565887451172,0.0,-0.15141698884826196,0.0,-4.726972039622389,0.7337914367536369,-0.011075657955520781,0.012600504568850802,0.0024418664137066514,nan,nan,nan,nan
14.952560663223267,-0.008902713,-0.05104355,-2.9241107,-0.0019034771605906083,nan,nan,nan,nan,nan,4.9452965259552,6.1452965259552,0.0050814151763916016,0.0,-0.1176676391406139,0.0,-4.7783628771824205,0.7333458691401976,-0.0109424950817055,0.012599693970464038,0.0012094954042541277,nan,nan,nan,nan
15.042170524597168,-0.0009989167,-0.038379878,-2.920246,-0.0018831092625414855,nan,nan,nan,nan,nan,5.0348899364471436,6.234889936447144,0.007132768630981445,0.0,-0.08871494046444954,0.0,-4.828364461230387,0.7331005584430046,-0.007550225476041873,0.014443605005863638,0.0010722577095548817,nan,nan,nan,nan
15.136712789535522,0.010597568,-0.0205405,-2.9190817,-0.0026320778290354198,nan,nan,nan,nan,nan,5.129834890365601,6.329834890365601,0.007043361663818359,0.0,-0.05731190955793668,0.0,-4.8869233561155685,0.7327267443710334,-0.010719698178834244,0.01660079931967875,0.0011927400736449114,nan,nan,nan,nan
15.255647659301758,0.020211339,0.010662773,-2.9269373,-0.0034603198195744178,nan,nan,nan,nan,nan,5.248409271240234,6.4484092712402346,0.007530927658081055,0.0,-0.017447218039166285,0.0,-4.965148946217121,0.7317060243374663,-0.019317824987645508,0.015210305400710649,0.0020447124537221616,nan,nan,nan,nan
15.339594841003418,0.023338499,0.027237447,-2.9372616,-0.0036875391072318793,nan,nan,nan,nan,nan,5.332385301589966,6.532385301589966,0.007187843322753906,0.0,0.010954979376790542,0.0,-5.021899223680348,0.7308423844359042,-0.023632000124018747,0.0083833462073654,0.002068400875108153,nan,nan,nan,nan
15.434704303741455,0.02814626,0.04859292,-2.950019,-0.004690530635626439,nan,nan,nan,nan,nan,5.4279046058654785,6.627904605865479,0.011943817138671875,0.0,0.04316320734840887,0.0,-5.085667444466173,0.7295674646664264,-0.02279354692833639,0.0018669191900645928,0.002522029453880387,nan,nan,nan,nan
15.539844036102295,0.031877268,0.066738494,-2.953777,-0.004724174772822344,nan,nan,nan,nan,nan,5.532649993896484,6.7326499938964846,0.0067081451416015625,0.0,0.07804959294664075,0.0,-5.152168407131416,0.7285421832707739,-0.021869927297192802,-0.0029234739045827115,0.002833064965698609,nan,nan,nan,nan
15.641235113143921,0.030006144,0.0827708,-2.957566,-0.0042742368517591865,nan,nan,nan,nan,nan,5.633975505828857,6.833975505828858,0.008103370666503906,0.0,0.11103985856627942,0.0,-5.210607009407797,0.7278393157001172,-0.021947801958431868,-0.006837390845140123,0.0026365488185042204,nan,nan,nan,nan
15.74824333190918,0.021706935,0.109097995,-2.959289,-0.002202988960300141,nan,nan,nan,nan,nan,5.74097752571106,6.94097752571106,0.005164623260498047,0.0,0.1447165505259414,0.0,-5.263533203700874,0.7271760959825729,-0.0208370706157021,-0.018885877260753185,0.001680629830409137,nan,nan,nan,nan
15.845853805541992,0.014536008,0.123262204,-2.9633896,-6.508499072733348e-06,nan,nan,nan,nan,nan,5.83860445022583,7.03860445022583,0.00551605224609375,0.0,0.17410201024151634,0.0,-5.302067560204779,0.7267563065244269,-0.020203010110619476,-0.024912332973650714,0.0004105240929356918,nan,nan,nan,nan
15.94524884223938,0.007756212,0.13417888,-2.969489,0.0022486914401541446,nan,nan,nan,nan,nan,5.937957048416138,7.137957048416138,0.0077495574951171875,0.0,0.2024146852035386,0.0,-5.3302616522730855,0.7259525228037293,-0.017013817427184164,-0.028020353639186056,-0.0009580411942116123,nan,nan,nan,nan
16.04347252845764,-0.0037983123,0.14992867,-2.9781444,0.006000901630177867,nan,nan,nan,nan,nan,6.036186695098877,7.236186695098877,0.006954193115234375,0.0,0.228574260967172,0.0,-5.346197723638654,0.7253019693064521,-0.010649387948912292,-0.02941814684360247,-0.003273621421501467,nan,nan,nan,nan
16.15792942047119,-0.012481858,0.16746612,-2.9799788,0.007114521872548308,nan,nan,nan,nan,nan,6.15071964263916,7.35071964263916,0.0074253082275390625,0.0,0.25645978050115686,0.0,-5.34904499266665,0.7249650439318622,-0.01228244899661155,-0.02664293517173458,-0.004517089611523224,nan,nan,nan,nan
16.234554767608643,-0.018971065,0.17915156,-2.9849155,0.007061190568496639,nan,nan,nan,nan,nan,6.22739052772522,7.42739052772522,0.00817418098449707,0.0,0.2733917385600253,0.0,-5.341401686848221,0.7249070835943268,-0.014826209142989627,-0.022108016652801765,-0.004610563877776495,nan,nan,nan,nan
16.356550693511963,-0.025551466,0.19456662,-2.9896178,0.006517262632634973,nan,nan,nan,nan,nan,6.349268198013306,7.549268198013306,0.0058078765869140625,0.0,0.29718306595885663,0.0,-5.313968571061182,0.72467862917794,-0.017381183212043665,-0.015493185016157377,-0.004231944603383899,nan,nan,nan,nan
16.4531831741333,-0.026798196,0.20336415,-2.9884188,0.006155596611130151,nan,nan,nan,nan,nan,6.445978879928589,7.645978879928589,0.004945993423461914,0.0,0.3131441208344708,0.0,-5.279745792488136,0.7247580415544015,-0.01859739182687838,-0.009433885791329878,-0.004014920903513154,nan,nan,nan,nan
16.545395612716675,-0.020958574,0.21021307,-2.9848013,0.0055833327879436165,nan,nan,nan,nan,nan,6.5381081104278564,7.738108110427857,0.005415201187133789,0.0,0.32580740307378275,0.0,-5.23805407321064,0.7252207732642306,-0.013160499182967906,0.004651572354081707,-0.0036314033641439217,nan,nan,nan,nan
16.656691789627075,-0.014773721,0.21538986,-2.98187,0.00518544719512915,nan,nan,nan,nan,nan,6.649465322494507,7.849465322494507,0.005560398101806641,0.0,0.33765887612627654,0.0,-5.177747705922064,0.7258400174064128,-0.007446855923744701,0.017667760438124326,-0.0033077355119850746,nan,nan,nan,nan
16.747039079666138,-0.0066287313,0.21350797,-2.9783695,0.004811810142369406,nan,nan,nan,nan,nan,6.739744663238525,7.939744663238526,0.005742311477661133,0.0,0.3444030473751588,0.0,-5.122690394057738,0.7263401953083656,-0.006407681491458499,0.022988377009374967,-0.0030666654548931875,nan,nan,nan,nan
16.854437589645386,0.0068129264,0.20881292,-2.970894,0.004410282930170702,nan,nan,nan,nan,nan,6.847527980804443,8.047527980804443,0.006353616714477539,0.0,0.3490190252110021,0.0,-5.052225724529796,0.7272540841596051,0.005849987669075654,0.03475228226806589,-0.0026964328520319865,nan,nan,nan,nan
16.950610876083374,0.025768558,0.20097247,-2.962475,0.0038111850963361664,nan,nan,nan,nan,nan,6.943314790725708,8.143314790725707,0.004967689514160156,0.0,0.3499451516395641,0.0,-4.987609872885627,0.7280824669300988,0.01345292504719635,0.04042452043138522,-0.0024834428933282063,nan,nan,nan,nan
17.044536352157593,0.037671246,0.19388497,-2.9576256,0.0035536258982488567,nan,nan,nan,nan,nan,7.037270545959473,8.237270545959472,0.005804538726806641,0.0,0.3479409047055757,0.0,-4.92462714103635,0.7287995064501289,0.012667388783481856,0.04179465636482276,-0.002198275556829882,nan,nan,nan,nan
17.1565043926239,0.060404368,0.17908083,-2.9539106,0.003271142417769289,nan,nan,nan,nan,nan,7.149273872375488,8.349273872375488,0.005780458450317383,0.0,0.3418073045401224,0.0,-4.852955336380433,0.7296894865818305,0.01702406812810913,0.0408613824499665,-0.002059742805919842,nan,nan,nan,nan
17.253307580947876,0.08231197,0.15791818,-2.9509995,0.0016852553256618222,nan,nan,nan,nan,nan,7.246067762374878,8.446067762374877,0.00508427619934082,0.0,0.33327848374497665,0.0,-4.796433678759611,0.730284390309202,0.021903989767924112,0.036229325912517284,-0.0015775158092675814,nan,nan,nan,nan
17.344059228897095,0.09182999,0.14454377,-2.947667,0.00036701311416113304,nan,nan,nan,nan,nan,7.3367767333984375,8.536776733398437,0.005976438522338867,0.0,0.32263767078219113,0.0,-4.749882459149951,0.7308275144571329,0.02101730636182129,0.02993267937587609,-0.0006358314877176905,nan,nan,nan,nan
17.452204942703247,0.1002292,0.12581654,-2.9392972,-0.0009318662035753631,nan,nan,nan,nan,nan,7.445223331451416,8.645223331451415,0.005320549011230469,0.0,0.30667093018999264,0.0,-4.70440428087576,0.7315429662878028,0.018573303930240627,0.014340303542054376,0.00029959243930930817,nan,nan,nan,nan
17.543707847595215,0.10648732,0.11166643,-2.9302132,-0.0016317671681308505,nan,nan,nan,nan,nan,7.5364344120025635,8.736434412002563,0.006617069244384766,0.0,0.29062669363370364,0.0,-4.676111457566091,0.732190247667116,0.014107308701315113,-0.0024573149543107107,0.0008026978048985735,nan,nan,nan,nan
17.639424800872803,0.10824687,0.106618755,-2.9246697,-0.0015282320409114817,nan,nan,nan,nan,nan,7.632371425628662,8.832371425628661,0.005629777908325195,0.0,0.2713174410271991,0.0,-4.657204056510541,0.7327881600128422,0.0038658482770775916,-0.01041422157366251,0.0010046860642261427,nan,nan,nan,nan
17.749976873397827,0.108592115,0.10203686,-2.9201605,-0.0010923317839699994,nan,nan,nan,nan,nan,7.74267840385437,8.94267840385437,0.005129098892211914,0.0,0.24624543724969383,0.0,-4.650017539583272,0.7332586148132552,-0.013341314765473126,-0.019279562571420064,0.00048428082251781066,nan,nan,nan,nan
17.843340396881104,0.106310874,0.09748493,-2.9200525,-0.00173740953159204,nan,nan,nan,nan,nan,7.836078882217407,9.036078882217407,0.009050846099853516,0.0,0.2228170276209254,0.0,-4.656337003313988,0.7331172233535382,-0.023467786218531045,-0.02462861919658325,0.0008236920891508521,nan,nan,nan,nan
17.957011699676514,0.10194073,0.09261565,-2.9183192,-0.0024618998650331233,nan,nan,nan,nan,nan,7.949882984161377,9.149882984161376,0.005258798599243164,0.0,0.19183749171971243,0.0,-4.679091118621084,0.7331052144080089,-0.02932144568263975,-0.026773762221949247,0.001273015882836466,nan,nan,nan,nan
18.04823088645935,0.09236036,0.08530423,-2.922822,-0.003219172892936672,nan,nan,nan,nan,nan,8.040937662124634,9.240937662124633,0.006197452545166016,0.0,0.1653616594280962,0.0,-4.70851663788836,0.7327720274584741,-0.02670273512529095,-0.029848051415107924,0.0018078743929322658,nan,nan,nan,nan
18.153703212738037,0.08504904,0.07808307,-2.9284546,-0.0027964756557372385,nan,nan,nan,nan,nan,8.146553039550781,9.34655303955078,0.004957437515258789,0.0,0.13306255939898737,0.0,-4.753857408327149,0.7324493646713847,-0.02544626785132372,-0.030541169861088475,0.001816083629606709,nan,nan,nan,nan
18.243160486221313,0.076544486,0.06956753,-2.9352665,-0.0017542709161490564,nan,nan,nan,nan,nan,8.235897064208984,9.435897064208984,0.006659269332885742,0.0,0.10464370197899998,0.0,-4.800285663689959,0.7318193047263822,-0.014074214421315935,-0.027269610944407153,0.001203751982891277,nan,nan,nan,nan
18.336227655410767,0.06384599,0.05442265,-2.9497914,0.0003504963656130629,nan,nan,nan,nan,nan,8.328948020935059,9.528948020935058,0.005551815032958984,0.0,0.07421967445599528,0.0,-4.854936537436007,0.7307937595121912,-0.002450367071892192,-0.024393765270964284,0.0002176992621670599,nan,nan,nan,nan
18.450693607330322,0.053684246,0.03194059,-2.9591477,0.002520244391244939,nan,nan,nan,nan,nan,8.443398714065552,9.643398714065551,0.004987239837646484,0.0,0.036002125719247956,0.0,-4.9283776943530455,0.7298111021784577,0.015087547614151644,-0.019994988533918144,-0.001125288173624716,nan,nan,nan,nan
18.548135995864868,0.046907224,0.015634447,-2.9692242,0.004067369305658465,nan,nan,nan,nan,nan,8.540893793106079,9.740893793106078,0.00543975830078125,0.0,0.0030808209644388935,0.0,-4.993838596781724,0.7290104653629096,0.024954356097268936,-0.016986528791988715,-0.002280272201272099,nan,nan,nan,nan
18.65708088874817,0.034484744,-0.011833587,-2.9819086,0.005055153386816115,nan,nan,nan,nan,nan,8.650043725967407,9.850043725967407,0.006095170974731445,0.0,-0.03379459683173672,0.0,-5.0672733868351125,0.7280009239618778,0.03708593810898297,-0.014485290475938009,-0.003294578750454443,nan,nan,nan,nan
18.751594305038452,0.01951928,-0.048330802,-2.9957752,0.004218625872525484,nan,nan,nan,nan,nan,8.744296312332153,9.944296312332153,0.006998538970947266,0.0,-0.06534958653469741,0.0,-5.128400760555649,0.7270827888988266,0.04978098895623029,-0.01644258818156402,-0.0029895705988857947,nan,nan,nan,nan
18.85127544403076,0.011457024,-0.07259252,-3.0027397,0.0033643363488526593,nan,nan,nan,nan,nan,8.84398865699768,10.04398865699768,0.005223274230957031,0.0,-0.0981304381637662,0.0,-5.18838909261069,0.7262776488537166,0.05583855672036628,-0.016392632490226197,-0.0025163036543106487,nan,nan,nan,nan
18.94287085533142,0.003981411,-0.102903545,-3.0132647,0.0028262166528548027,nan,nan,nan,nan,nan,8.93562650680542,10.13562650680542,0.005974769592285156,0.0,-0.1274666896600002,0.0,-5.237425691749972,0.7255182125600795,0.058083342070553275,-0.010399750205822494,-0.001902561013064183,nan,nan,nan,nan
19.054023265838623,-0.0014158739,-0.13983901,-3.0272405,0.0022079216210033896,nan,nan,nan,nan,nan,9.046771049499512,10.246771049499511,0.005013942718505859,0.0,-0.16168501558395693,0.0,-5.286797600198656,0.7246502631895982,0.05544909380231201,-0.00250236506920593,-0.0015608149808435424,nan,nan,nan,nan
19.14721155166626,-0.00066237093,-0.15658206,-3.038489,0.001994944012073586,nan,nan,nan,nan,nan,9.139990091323853,10.339990091323852,0.006621599197387695,0.0,-0.18896264820136052,0.0,-5.31811237362728,0.7240746830439803,0.053674103153340036,0.001578747062257045,-0.0014011233057338718,nan,nan,nan,nan
19.241825103759766,0.005004081,-0.18135217,-3.0577729,0.00187848522529521,nan,nan,nan,nan,nan,9.2345712184906,10.4345712184906,0.005903005599975586,0.0,-0.2150707362236284,0.0,-5.3393499244142975,0.7232753352667891,0.04058686953267048,0.013659283529447824,-0.0012325844717462396,nan,nan,nan,nan
19.355422735214233,0.015001429,-0.20319095,-3.0800529,0.001760093034000874,nan,nan,nan,nan,nan,9.34841275215149,10.548412752151489,0.005526304244995117,0.0,-0.24409440914403932,0.0,-5.3498702054281,0.7223471086343068,0.022601054409646635,0.027004082915646925,-0.0011092492141787469,nan,nan,nan,nan
19.446505069732666,0.01912142,-0.21546826,-3.0894325,0.0017257585723379322,nan,nan,nan,nan,nan,9.43923282623291,10.63923282623291,0.005945444107055664,0.0,-0.26514701908356275,0.0,-5.346155880707919,0.7218671820680133,0.01779075343537892,0.02966207685045948,-0.0011579220001929488,nan,nan,nan,nan
19.551820039749146,0.024438044,-0.23054987,-3.0989864,0.0017399275989031134,nan,nan,nan,nan,nan,9.544531345367432,10.744531345367431,0.0052988529205322266,0.0,-0.2869893087363977,0.0,-5.328549539745495,0.7217978597045867,0.008603172632991561,0.028992046632175476,-0.0011276595275265303,nan,nan,nan,nan
19.643906831741333,0.029347146,-0.24395691,-3.1054668,0.0018825910793009593,nan,nan,nan,nan,nan,9.636647701263428,10.836647701263427,0.00656437873840332,0.0,-0.30366800211411005,0.0,-5.3019813418124295,0.722057810651723,0.002326963249702561,0.024427738075232613,-0.0011089598000053982,nan,nan,nan,nan
19.7434139251709,0.033435147,-0.25017017,-3.107251,0.002240596306406469,nan,nan,nan,nan,nan,9.736141681671143,10.936141681671142,0.0061070919036865234,0.0,-0.3189760643738607,0.0,-5.262587338591237,0.7223284374015716,0.0008413305570668776,0.020418369627858424,-0.0012556121648415305,nan,nan,nan,nan
19.84060025215149,0.04446178,-0.25267574,-3.105388,0.0029910803961631675,nan,nan,nan,nan,nan,9.833658456802368,11.033658456802367,0.005211830139160156,0.0,-0.331119842121968,0.0,-5.214566409809813,0.7230667622591952,-0.008589549924563449,0.017828913018024087,-0.0017138960277181192,nan,nan,nan,nan
19.954996824264526,0.049442295,-0.24315818,-3.0907893,0.003467166429973162,nan,nan,nan,nan,nan,9.947814464569092,11.147814464569091,0.005317211151123047,0.0,-0.34159405944909843,0.0,-5.148830192995887,0.7243241794084156,-0.01984760845648078,0.012473626348452112,-0.002055861663801295,nan,nan,nan,nan
20.049195289611816,0.050596353,-0.23722225,-3.0896509,0.0036660731580783487,nan,nan,nan,nan,nan,10.041932821273804,11.241932821273803,0.00601506233215332,0.0,-0.34710856061058,0.0,-5.089050124393235,0.7252110572293848,-0.024518120512558958,0.006942331242382185,-0.0022277273750165123,nan,nan,nan,nan
20.14102792739868,0.051478993,-0.22889522,-3.0847862,0.0037939827255691924,nan,nan,nan,nan,nan,10.13376522064209,11.33376522064209,0.0053310394287109375,0.0,-0.34972200247973056,0.0,-5.0278720000408414,0.7261976317003186,-0.02946474519911211,-0.001869959781674669,-0.0023442266538223817,nan,nan,nan,nan
20.250916242599487,0.05148026,-0.2213373,-3.078993,0.003918846622038342,nan,nan,nan,nan,nan,10.243659734725952,11.443659734725951,0.005602359771728516,0.0,-0.34922942327089773,0.0,-4.95367765142963,0.7272202342924238,-0.022565460824318193,-0.007483868476491707,-0.0024792243493568077,nan,nan,nan,nan
20.35376238822937,0.051332165,-0.21638536,-3.0737398,0.003540477090738815,nan,nan,nan,nan,nan,10.346580505371094,11.546580505371093,0.004907131195068359,0.0,-0.3451970157918521,0.0,-4.886017412165036,0.7279570568124584,-0.009793200233332482,-0.009495485390804744,-0.0023744551448218122,nan,nan,nan,nan
20.451780080795288,0.049436074,-0.20586349,-3.0668912,0.0026588349948560353,nan,nan,nan,nan,nan,10.44449496269226,11.64449496269226,0.005066633224487305,0.0,-0.33819095073441263,0.0,-4.825784865733333,0.7289301248987418,-0.0014044254938317328,-0.011483131414593107,-0.001905125118713438,nan,nan,nan,nan
20.549880027770996,0.04785497,-0.19624017,-3.0622985,0.0020443393026075146,nan,nan,nan,nan,nan,10.542600870132446,11.742600870132446,0.00577092170715332,0.0,-0.3281349940333568,0.0,-4.771678200992443,0.7297901214301284,0.005608189158862093,-0.011961513833065991,-0.00146142673293391,nan,nan,nan,nan
20.638612031936646,0.041879073,-0.18073228,-3.0549114,0.0014767909894641722,nan,nan,nan,nan,nan,10.631393671035767,11.831393671035766,0.006139516830444336,0.0,-0.31648842003643096,0.0,-4.729720235640341,0.7306103406405562,0.0035413542450502484,-0.0115614186508265,-0.0010387579111914523,nan,nan,nan,nan
20.751585006713867,0.03136623,-0.16527705,-3.0459533,0.001381324763327251,nan,nan,nan,nan,nan,10.744291305541992,11.944291305541991,0.005387306213378906,0.0,-0.29832832765008377,0.0,-4.687981602054749,0.7313750770346554,0.0016998909264281537,-0.016211815061295407,-0.0008625075022752816,nan,nan,nan,nan
20.843611240386963,0.025111394,-0.15744455,-3.0382586,0.0015187609970470502,nan,nan,nan,nan,nan,10.836498975753784,12.036498975753783,0.008294105529785156,0.0,-0.2808517861042491,0.0,-4.6648082712723475,0.7320290485422778,0.005240897176905104,-0.019443160215315537,-0.0009154476050528349,nan,nan,nan,nan
20.957621812820435,0.02159683,-0.14271294,-3.0280995,0.0008092159847334865,nan,nan,nan,nan,nan,10.950404167175293,12.150404167175292,0.00577855110168457,0.0,-0.2562008916390944,0.0,-4.65089969470402,0.7327274923269904,0.006499775556365181,-0.014466789268562093,-0.0006498961863442336,nan,nan,nan,nan
21.051159858703613,0.017944345,-0.120640695,-3.019863,-0.0008786762565525838,nan,nan,nan,nan,nan,11.04386854171753,12.243868541717529,0.00580286979675293,0.0,-0.2336415762979461,0.0,-4.652076226915386,0.7331050424201047,0.00034206646670037515,-0.005740979119354287,0.00012793730959868133,nan,nan,nan,nan
21.142925262451172,0.017046401,-0.10579238,-3.0181777,-0.0022198378482418874,nan,nan,nan,nan,nan,11.13574481010437,12.33574481010437,0.005294084548950195,0.0,-0.20960698545185857,0.0,-4.664276287813307,0.7334138839476466,-0.0017953904827463449,-0.0018649801406001511,0.0008566416805406275,nan,nan,nan,nan
21.253662824630737,0.01910261,-0.08075265,-3.0199544,-0.004911656691750528,nan,nan,nan,nan,nan,11.246362924575806,12.446362924575805,0.005328178405761719,0.0,-0.17849551653397858,0.0,-4.69292274068493,0.7331206844055004,-0.008788052281915511,0.007088240409772313,0.002488107035793974,nan,nan,nan,nan
21.344311714172363,0.025405927,-0.052132167,-3.0222652,-0.008145528805001814,nan,nan,nan,nan,nan,11.33704662322998,12.53704662322998,0.006949424743652344,0.0,-0.15145305891448263,0.0,-4.72692198125958,0.7326775879054694,-0.021002647948179836,0.01725771111767184,0.004543320712578111,nan,nan,nan,nan
21.44516658782959,0.024455395,-0.025521126,-3.024265,-0.009858792592503112,nan,nan,nan,nan,nan,11.437962293624878,12.637962293624877,0.005771636962890625,0.0,-0.12000158698425004,0.0,-4.774544402257934,0.7323054331929895,-0.027176587133181985,0.017552383090370847,0.005937792093597816,nan,nan,nan,nan
21.53903031349182,0.02559512,-0.0004731418,-3.0246842,-0.010306009676257357,nan,nan,nan,nan,nan,11.53185772895813,12.73185772895813,0.005822181701660156,0.0,-0.08970692865221669,0.0,-4.8265793149152625,0.732036801888732,-0.02792867878762696,0.015128070520942548,0.0063887150793795,nan,nan,nan,nan
21.655654907226562,0.02633575,0.03806747,-3.022974,-0.010001859530558765,nan,nan,nan,nan,nan,11.648376703262329,12.848376703262328,0.0050449371337890625,0.0,-0.05111454421359491,0.0,-4.89886696520434,0.7314707862669182,-0.035359826645274525,0.011641419570380437,0.006345046432443522,nan,nan,nan,nan
21.746830940246582,0.02533654,0.06488588,-3.0198824,-0.009274522420955576,nan,nan,nan,nan,nan,11.739627599716187,12.939627599716186,0.006147861480712891,0.0,-0.020413922240616333,0.0,-4.959241660047726,0.7310724905673244,-0.036337949152449034,0.005448724446066688,0.005993741871996788,nan,nan,nan,nan
21.85643768310547,0.034193102,0.09699767,-3.0193927,-0.009426049032974986,nan,nan,nan,nan,nan,11.849187135696411,13.04918713569641,0.004995584487915039,0.0,0.016634986184158186,0.0,-5.033232373331774,0.730469473186565,-0.0329182946454173,0.007075944310814974,0.005746969937487398,nan,nan,nan,nan
21.94704508781433,0.03660279,0.12518637,-3.0258212,-0.009143459390791777,nan,nan,nan,nan,nan,11.93982219696045,13.139822196960449,0.007197856903076172,0.0,0.04716149973637946,0.0,-5.093462775302253,0.7297206927153027,-0.029111200537694035,0.008321056956091198,0.005748167478524746,nan,nan,nan,nan
22.041666746139526,0.04033995,0.14789712,-3.0316763,-0.00874350946472973,nan,nan,nan,nan,nan,12.034409046173096,13.234409046173095,0.004969358444213867,0.0,0.07862962564382149,0.0,-5.153239409099442,0.7290018755748754,-0.025890126001716026,0.006989318437585207,0.005464353490978699,nan,nan,nan,nan
22.15366220474243,0.04548042,0.17698273,-3.0392072,-0.00834002835054077,nan,nan,nan,nan,nan,12.146365642547607,13.346365642547607,0.005608558654785156,0.0,0.1150071423308259,0.0,-5.21724205719042,0.7280422339033841,-0.022431544345198243,0.006863074899816279,0.005124055049288063,nan,nan,nan,nan
22.243962287902832,0.048485953,0.20141292,-3.0471635,-0.008231003464928395,nan,nan,nan,nan,nan,12.23670506477356,13.436705064773559,0.0054814815521240234,0.0,0.14339918702503893,0.0,-5.2616217632541185,0.7271982689578759,-0.016126601427337448,0.0032181081705909484,0.004995132906865462,nan,nan,nan,nan
22.351555347442627,0.052699257,0.21684009,-3.0547159,-0.008575142247198051,nan,nan,nan,nan,nan,12.344346284866333,13.544346284866332,0.005235195159912109,0.0,0.17578453579122025,0.0,-5.3040114027654806,0.7263308694505779,-0.01101839293511104,0.002783518190546246,0.005088069694633996,nan,nan,nan,nan
22.443219900131226,0.064303465,0.22967856,-3.0642645,-0.009536805929814991,nan,nan,nan,nan,nan,12.435986280441284,13.635986280441283,0.005105733871459961,0.0,0.20187037173431013,0.0,-5.329817761610679,0.7256583186445227,-0.0010433733430925307,0.007601017261133993,0.005548817425283131,nan,nan,nan,nan
22.55231475830078,0.070578106,0.235023,-3.0729668,-0.010095357145229909,nan,nan,nan,nan,nan,12.54501986503601,13.74501986503601,0.0051424503326416016,0.0,0.23082907568501163,0.0,-5.347025822337306,0.7250562891534355,0.007889554093586434,0.011539293104478748,0.006115121487506053,nan,nan,nan,nan
22.64391851425171,0.07383005,0.2369535,-3.0781598,-0.00989345126302387,nan,nan,nan,nan,nan,12.636730432510376,13.836730432510375,0.005315542221069336,0.0,0.25321565946950325,0.0,-5.349616050614619,0.7246239677926366,0.013598769439059941,0.010256961510763886,0.006149183138079371,nan,nan,nan,nan
22.75348949432373,0.07597565,0.23519252,-3.0846424,-0.009333324740995578,nan,nan,nan,nan,nan,12.746195554733276,13.946195554733276,0.005259990692138672,0.0,0.27731880574337114,0.0,-5.338373585628467,0.7242488461219606,0.022703355525871004,0.004522146849363921,0.0058073522820244645,nan,nan,nan,nan
22.843692541122437,0.07315806,0.2316812,-3.080309,-0.008458386309418696,nan,nan,nan,nan,nan,12.836508512496948,14.036508512496948,0.00513458251953125,0.0,0.2948801419510579,0.0,-5.31768815711206,0.7245424284118201,0.02779294138136245,-0.005196952269519642,0.00530307725711512,nan,nan,nan,nan
22.954702615737915,0.07196563,0.2311231,-3.0758326,-0.007235753279874321,nan,nan,nan,nan,nan,12.947410345077515,14.147410345077514,0.005162477493286133,0.0,0.3133601449490546,0.0,-5.279162624007143,0.7248986055759274,0.02267851144143271,-0.00992821439915847,0.004637032880607206,nan,nan,nan,nan
23.044185638427734,0.0674602,0.23006475,-3.073748,-0.006529477078374323,nan,nan,nan,nan,nan,13.036893844604492,14.236893844604491,0.0054018497467041016,0.0,0.32565709515497854,0.0,-5.238655730853841,0.7254613939711079,0.014180305903306885,-0.01478941317600678,0.003995887057097889,nan,nan,nan,nan
23.152138471603394,0.06033445,0.22905795,-3.071706,-0.0063775150243091236,nan,nan,nan,nan,nan,13.144849061965942,14.344849061965942,0.0056111812591552734,0.0,0.33724444111484836,0.0,-5.180431398361032,0.7259708696280393,0.0044343168417801445,-0.020059010624118256,0.0038066055630513696,nan,nan,nan,nan
23.25771164894104,0.051431242,0.22982465,-3.0696344,-0.006550834815171968,nan,nan,nan,nan,nan,13.250465393066406,14.450465393066406,0.005301475524902344,0.0,0.34503060195018376,0.0,-5.115870644653496,0.7263829316768969,-0.00718826019939366,-0.024608541038903607,0.003917827643643514,nan,nan,nan,nan
23.35185170173645,0.04548,0.22943147,-3.067933,-0.006265771830717986,nan,nan,nan,nan,nan,13.344602584838867,14.544602584838866,0.0057830810546875,0.0,0.3489435799180582,0.0,-5.054182189118202,0.7269665506144858,-0.014126517422300004,-0.022777020713890178,0.0038798684067866828,nan,nan,nan,nan
23.45067524909973,0.04195396,0.23081587,-3.0708904,-0.005869140622532476,nan,nan,nan,nan,nan,13.443379640579224,14.643379640579223,0.005970001220703125,0.0,0.3499447625429375,0.0,-4.987566019786649,0.7275212680787068,-0.021446988393400614,-0.019061542913764915,0.003697735965291953,nan,nan,nan,nan
23.54765796661377,0.035328172,0.23140818,-3.075443,-0.005383432670462866,nan,nan,nan,nan,nan,13.540619611740112,14.740619611740112,0.007067203521728516,0.0,0.3478163553034792,0.0,-4.922415759882177,0.7280434921444995,-0.024183351498343338,-0.012107387883200812,0.003339853660904594,nan,nan,nan,nan
23.64064121246338,0.03129801,0.2312722,-3.0776448,-0.005390830853682783,nan,nan,nan,nan,nan,13.633460760116577,14.833460760116576,0.005360126495361328,0.0,0.3429181021630695,0.0,-4.862732366933878,0.7284521101642487,-0.028033061762362647,-0.010345435994795506,0.003307515576303326,nan,nan,nan,nan
23.748127460479736,0.029323328,0.23334327,-3.0890963,-0.005951558070795119,nan,nan,nan,nan,nan,13.740859746932983,14.940859746932983,0.005715847015380859,0.0,0.333812373619826,0.0,-4.799310594806373,0.7287576860821635,-0.0292840238771509,-0.004647307700279234,0.003533238383279788,nan,nan,nan,nan
23.854301929473877,0.024902338,0.23507187,-3.0976005,-0.006912725657997906,nan,nan,nan,nan,nan,13.84700608253479,15.04700608253479,0.005550384521484375,0.0,0.32128044769735137,0.0,-4.745089878908261,0.7289952041634813,-0.024523896318556913,-0.0011676166463119259,0.004155951321616592,nan,nan,nan,nan
23.9446804523468,0.022317879,0.23451085,-3.0977602,-0.0069115175009249324,nan,nan,nan,nan,nan,13.93746304512024,15.137463045120239,0.005152225494384766,0.0,0.3079276316905066,0.0,-4.707249155795658,0.7295163216093669,-0.02692084925326792,-0.000599424036419563,0.004422556059064982,nan,nan,nan,nan
24.041184902191162,0.019712761,0.23025824,-3.0959458,-0.005994547698101751,nan,nan,nan,nan,nan,14.033982753753662,15.233982753753661,0.005163908004760742,0.0,0.29108807136296205,0.0,-4.676743826014278,0.7302280803093114,-0.016888273374158717,0.0020694007245089597,0.004117162302094108,nan,nan,nan,nan
24.150856971740723,0.018138122,0.22117198,-3.0955808,-0.004897918186765344,nan,nan,nan,nan,nan,14.143587112426758,15.343587112426757,0.005894660949707031,0.0,0.2689044304687648,0.0,-4.655752916986984,0.7308108744657703,-0.006745523978748548,0.0059200193841964935,0.003325469121052487,nan,nan,nan,nan
24.244099855422974,0.016527163,0.20988779,-3.0954332,-0.004245085964188905,nan,nan,nan,nan,nan,14.236845970153809,15.436845970153808,0.005423307418823242,0.0,0.24764378891683825,0.0,-4.650000279786104,0.73108363442555,0.0005936611676806656,0.006666093117259243,0.0029552457621379977,nan,nan,nan,nan
24.353891849517822,0.015807949,0.19815263,-3.1035266,-0.0032159602164087593,nan,nan,nan,nan,nan,14.346606016159058,15.546606016159057,0.005043983459472656,0.0,0.22005891535090574,0.0,-4.6577574254791445,0.7311053760401653,0.01196689084356286,0.007334220875417096,0.0022730296302611156,nan,nan,nan,nan
24.44376254081726,0.014365363,0.19023219,-3.1043842,-0.003099984472915658,nan,nan,nan,nan,nan,14.436570644378662,15.636570644378661,0.005071163177490234,0.0,0.19558860497967068,0.0,-4.675602260443739,0.7311695219573797,0.010522349506432502,0.0066430517809236995,0.0019976531277750204,nan,nan,nan,nan
24.555700540542603,0.012915907,0.17476952,-3.0991104,-0.0035398519440580575,nan,nan,nan,nan,nan,14.548405170440674,15.748405170440673,0.005248308181762695,0.0,0.16313068339217904,0.0,-4.71134399420176,0.7313366185088274,0.011860089581735967,0.0035436930102968347,0.0023285636809142864,nan,nan,nan,nan
24.65220355987549,0.012991734,0.16148548,-3.093001,-0.003409254236957813,nan,nan,nan,nan,nan,14.644911527633667,15.844911527633666,0.0058078765869140625,0.0,0.13357605610559997,0.0,-4.753068999629069,0.7314770192503071,0.012782254874046283,0.003095707379673085,0.0022721450608136446,nan,nan,nan,nan
24.743232250213623,0.011671482,0.14274721,-3.0977821,-0.0022967975099396406,nan,nan,nan,nan,nan,14.735963344573975,15.935963344573974,0.00494694709777832,0.0,0.1046223031525505,0.0,-4.8003224959221145,0.7311156554110864,0.01690589022943638,0.0021104183349426996,0.001763382558993457,nan,nan,nan,nan
24.84544587135315,0.015900182,0.12581338,-3.1019955,-0.0007186056220689473,nan,nan,nan,nan,nan,14.838163137435913,16.038163137435912,0.0051174163818359375,0.0,0.07116996711258308,0.0,-4.860633886560639,0.730607793843739,0.019330834498506356,0.004759747223830053,0.0008829516917081231,nan,nan,nan,nan
24.952499628067017,0.021435436,0.10783396,-3.1024146,0.0005830745881658782,nan,nan,nan,nan,nan,14.945196151733398,16.145196151733398,0.006220340728759766,0.0,0.035397178689802515,0.0,-4.92956862425969,0.7301990800894319,0.01915436821262696,0.008632718000587599,0.00011086661055582614,nan,nan,nan,nan
25.044453859329224,0.027491258,0.084645376,-3.1018424,0.001849849143055863,nan,nan,nan,nan,nan,15.037288665771484,16.237288665771484,0.005632638931274414,0.0,0.004300458548440336,0.0,-4.99139973217202,0.7297238273952752,0.02482085044354359,0.012482466837058382,-0.0008184499241472155,nan,nan,nan,nan
25.1568500995636,0.030109525,0.061658554,-3.1021776,0.0024420970745099545,nan,nan,nan,nan,nan,15.149584770202637,16.349584770202636,0.005126237869262695,0.0,-0.0336400426558746,0.0,-5.066968598245606,0.7290729558739778,0.024723701813727537,0.01003414108680177,-0.0013230326575540277,nan,nan,nan,nan
25.249741554260254,0.03064789,0.046174996,-3.1034088,0.0027273967242369855,nan,nan,nan,nan,nan,15.242560625076294,16.442560625076293,0.0072476863861083984,0.0,-0.06477259449666471,0.0,-5.127307472798372,0.7283812477062427,0.024213615780104635,0.006775387197412391,-0.0014914170876337777,nan,nan,nan,nan
25.355478286743164,0.03965029,0.023737662,-3.1065993,0.004267520721009913,nan,nan,nan,nan,nan,15.34818434715271,16.54818434715271,0.005157947540283203,0.0,-0.09949220100284634,0.0,-5.190775541931913,0.7276830128604312,0.024411662549179064,0.006996657618568385,-0.0020186027462583294,nan,nan,nan,nan
25.450496196746826,0.048524797,0.0024107357,-3.1080558,0.00574487264822369,nan,nan,nan,nan,nan,15.443216800689697,16.643216800689697,0.008500099182128906,0.0,-0.12985486815124225,0.0,-5.241173553586371,0.7270919935580825,0.024896990786754992,0.011977172478530598,-0.0031794799843536587,nan,nan,nan,nan
25.54492449760437,0.057908293,-0.020527154,-3.110254,0.006579697275508892,nan,nan,nan,nan,nan,15.5376558303833,16.7376558303833,0.0049746036529541016,0.0,-0.158943648191448,0.0,-5.283217912869242,0.7266794422086744,0.026379966603171833,0.01313392806663471,-0.003839975305854427,nan,nan,nan,nan
25.653657913208008,0.06737028,-0.040732346,-3.1149662,0.007018309082463233,nan,nan,nan,nan,nan,15.646357774734497,16.846357774734496,0.005906581878662109,0.0,-0.19077244460543322,0.0,-5.319885081857288,0.7258798386642588,0.026837603348337895,0.014441714183911419,-0.004110897890259587,nan,nan,nan,nan
25.746308088302612,0.06440046,-0.06406691,-3.1213582,0.006303599771071715,nan,nan,nan,nan,nan,15.739068984985352,16.93906898498535,0.005485057830810547,0.0,-0.21626921557758982,0.0,-5.340082142970966,0.7253353368824369,0.024518172839826942,0.0056814797106274715,-0.004039031459122233,nan,nan,nan,nan
25.85437822341919,0.062763974,-0.08013624,-3.1289134,0.0052475268218362126,nan,nan,nan,nan,nan,15.84709882736206,17.04709882736206,0.00575566291809082,0.0,-0.2437756281780813,0.0,-5.349844866155145,0.7248278666930759,0.020163208456559143,-0.006310197305454933,-0.0033437374963324177,nan,nan,nan,nan
25.950451135635376,0.057161678,-0.09126382,-3.1342225,0.003909779517180336,nan,nan,nan,nan,nan,15.94324016571045,17.14324016571045,0.009282112121582031,0.0,-0.26603003243426904,0.0,-5.34574471799837,0.7245453771082789,0.020104036340914858,-0.010721281119998562,-0.0028257949802265063,nan,nan,nan,nan
26.04746651649475,0.043572813,-0.10613016,-3.1397212,0.0010287589458197611,nan,nan,nan,nan,nan,16.04034686088562,17.24034686088562,0.005720853805541992,0.0,-0.2861765963447326,0.0,-5.329514773103477,0.7243729828797075,0.010288187418530804,-0.023878103394945987,-0.0012489836530634934,nan,nan,nan,nan
26.15728449821472,0.030313652,-0.11982376,-3.1395192,-0.0014397463155668535,nan,nan,nan,nan,nan,16.149987936019897,17.349987936019897,0.0052607059478759766,0.0,-0.30588682783266596,0.0,-5.297318084392212,0.7245091002001456,0.007059649078443689,-0.0331469800605449,0.0005715427032203447,nan,nan,nan,nan
26.247246265411377,0.019734334,-0.13355958,-3.136316,-0.0029705593797851194,nan,nan,nan,nan,nan,16.239970922470093,17.439970922470092,0.006010770797729492,0.0,-0.31950713051173696,0.0,-5.2608670680238,0.7246959810295575,0.011936115658000146,-0.03542034273556961,0.001545190751163561,nan,nan,nan,nan
26.353548765182495,0.0071330457,-0.1425274,-3.1314347,-0.004147029743461776,nan,nan,nan,nan,nan,16.346320867538452,17.54632086753845,0.005662202835083008,0.0,-0.33248302944270214,0.0,-5.207733655117503,0.7253315634501188,0.01115624390414285,-0.03183246695687937,0.0025026864711661127,nan,nan,nan,nan
26.441715240478516,0.0013795125,-0.14580369,-3.1275008,-0.004487345375935434,nan,nan,nan,nan,nan,16.434418439865112,17.63441843986511,0.005159854888916016,0.0,-0.34057812045117203,0.0,-5.156983452754607,0.7258034186889306,0.01178186590068828,-0.028404275774903235,0.002785145385865326,nan,nan,nan,nan
26.55535864830017,-0.006502044,-0.15077016,-3.1183014,-0.004905277650585618,nan,nan,nan,nan,nan,16.54806089401245,17.74806089401245,0.006324291229248047,0.0,-0.3473684176699519,0.0,-5.0850338612427475,0.7266314046214827,0.005172152219887458,-0.017609938131615113,0.003053791248443236,nan,nan,nan,nan
26.64624571800232,-0.013449161,-0.15798911,-3.110245,-0.005099310019350043,nan,nan,nan,nan,nan,16.638978004455566,17.838978004455566,0.005221366882324219,0.0,-0.34978784038065935,0.0,-5.024354612223605,0.7273937911628273,0.0038716996123771075,-0.006904818248383548,0.0032147375296411322,nan,nan,nan,nan
26.75611138343811,-0.019447595,-0.16177477,-3.101094,-0.005095224950385891,nan,nan,nan,nan,nan,16.748812913894653,17.948812913894653,0.0053594112396240234,0.0,-0.349109463924119,0.0,-4.9502237788968975,0.7282701594939508,0.004745175306206872,0.0007750878582531719,0.003244693256604589,nan,nan,nan,nan
26.84841823577881,-0.016544975,-0.16332753,-3.096944,-0.004780384434422795,nan,nan,nan,nan,nan,16.84114933013916,18.04114933013916,0.005330324172973633,0.0,-0.3454956252014204,0.0,-4.8894982985511,0.7289872204828213,0.00842215772129962,0.00652969136429549,0.0031257065159183924,nan,nan,nan,nan
26.956181287765503,-0.012360532,-0.16089873,-3.0886936,-0.004231335235106784,nan,nan,nan,nan,nan,16.948890924453735,18.148890924453735,0.005507469177246094,0.0,-0.3378048248442242,0.0,-4.823211329518785,0.7299479879073858,0.009253398699943113,0.016922511933876398,0.0027720770535808524,nan,nan,nan,nan
27.055131435394287,-0.009203298,-0.15291364,-3.083153,-0.0037426918181412932,nan,nan,nan,nan,nan,17.04786229133606,18.24786229133606,0.0061473846435546875,0.0,-0.3275114508772794,0.0,-4.768991756026825,0.7306340397801517,0.006441680318907348,0.022076714481533224,0.0024654907682881005,nan,nan,nan,nan
27.14846682548523,-0.0084785,-0.14303964,-3.0803015,-0.0033859807200920977,nan,nan,nan,nan,nan,17.141287565231323,18.341287565231323,0.00555872917175293,0.0,-0.3150446540978837,0.0,-4.725516482012815,0.7310732970725226,-0.002763456020586718,0.020966018519309893,0.0021869386096069893,nan,nan,nan,nan
27.243777751922607,-0.001966655,-0.13210231,-3.074597,-0.003069402538828849,nan,nan,nan,nan,nan,17.236599922180176,18.436599922180175,0.005022525787353516,0.0,-0.2996808711906715,0.0,-4.690373894293789,0.7315492287828673,-0.011332901184432814,0.019541007052230854,0.0020015375288510657,nan,nan,nan,nan
27.355475902557373,0.005107794,-0.124341205,-3.06944,-0.0030345462822152693,nan,nan,nan,nan,nan,17.348191499710083,18.548191499710082,0.006146669387817383,0.0,-0.2784732621268863,0.0,-4.662617100884132,0.7320664069450825,-0.009489011229269055,0.018416373205021538,0.0018699000622658163,nan,nan,nan,nan
27.448749542236328,0.012769831,-0.11744191,-3.0664077,-0.002866605867815932,nan,nan,nan,nan,nan,17.441515922546387,18.641515922546386,0.005475044250488281,0.0,-0.25824016590135246,0.0,-4.651382165253268,0.7324690489349269,-0.0023872698241972513,0.01727708120908591,0.001892928888909466,nan,nan,nan,nan
27.540155172348022,0.018769644,-0.110347204,-3.0626905,-0.0023576583516033917,nan,nan,nan,nan,nan,17.532907962799072,18.73290796279907,0.005484342575073242,0.0,-0.23638944697339098,0.0,-4.651347771206736,0.7325570818667695,0.002993569156792255,0.01580421198477937,0.0015813667775924464,nan,nan,nan,nan
27.650152444839478,0.022176666,-0.094653,-3.056378,0.0001713736742916393,nan,nan,nan,nan,nan,17.642884254455566,18.842884254455566,0.0075113773345947266,0.0,-0.20766761390973454,0.0,-4.665673885372912,0.7326903841972797,0.003998390392074278,0.009357981756544153,0.0005475548694807363,nan,nan,nan,nan
27.742868423461914,0.028395904,-0.08590563,-3.0566204,0.0011774841468900335,nan,nan,nan,nan,nan,17.735586404800415,18.935586404800414,0.005413532257080078,0.0,-0.18162197289196358,0.0,-4.6894907730862485,0.7326375403048666,0.0027436940369877593,0.004981607143497688,-0.0005722448629892625,nan,nan,nan,nan
27.85539722442627,0.033081938,-0.0706996,-3.053215,0.0016399697083789128,nan,nan,nan,nan,nan,17.848098516464233,19.048098516464233,0.0059354305267333984,0.0,-0.1480735487578824,0.0,-4.731661627297635,0.7323638363213945,0.00101819124732277,0.0036124902653286747,-0.0011700445465308747,nan,nan,nan,nan
27.9466495513916,0.036957502,-0.05267784,-3.0500658,0.001252401649163092,nan,nan,nan,nan,nan,17.939559936523438,19.139559936523437,0.0051441192626953125,0.0,-0.11949368429143993,0.0,-4.775372359705406,0.73224883193766,-0.0017153343632759358,0.0022551492594837384,-0.0011139316573065402,nan,nan,nan,nan
28.055917978286743,0.042926513,-0.029221842,-3.049186,0.0001029854359695416,nan,nan,nan,nan,nan,18.04868483543396,19.24868483543396,0.0062198638916015625,0.0,-0.08419243868566151,0.0,-4.836559442824607,0.7317022039738759,-0.011215979207123585,0.0038848348588029482,-0.0005563481490301302,nan,nan,nan,nan
28.1486394405365,0.049254134,-0.0028781795,-3.0446768,-0.0022541158417113526,nan,nan,nan,nan,nan,18.14142417907715,19.341424179077148,0.005715131759643555,0.0,-0.05344036825207436,0.0,-4.894372479295787,0.7312062506147653,-0.022620807222002038,0.005072151314032924,0.0007426209915261508,nan,nan,nan,nan
28.25706386566162,0.05238149,0.018021185,-3.0528111,-0.0038798537363470167,nan,nan,nan,nan,nan,18.24979257583618,19.44979257583618,0.0055615901947021484,0.0,-0.016979777398360502,0.0,-4.966080431911205,0.7304710533438444,-0.0244469969462904,0.004759739755520907,0.001765678683340501,nan,nan,nan,nan
28.348430156707764,0.05137909,0.040216073,-3.0659842,-0.0042589087697222595,nan,nan,nan,nan,nan,18.341172456741333,19.541172456741332,0.005892038345336914,0.0,0.013926009286792742,0.0,-5.027829963122668,0.7293880229291467,-0.0271368933622682,0.00012797315502136974,0.0025959390981457487,nan,nan,nan,nan
28.441842079162598,0.05039749,0.055998642,-3.0768294,-0.003851104437829535,nan,nan,nan,nan,nan,18.43469738960266,19.63469738960266,0.005239248275756836,0.0,0.045442888470749565,0.0,-5.0901164628854065,0.7284178995037576,-0.02548458154839801,-0.0052519117630109415,0.002350714427505627,nan,nan,nan,nan
28.549317121505737,0.0514746,0.07986443,-3.0935972,-0.00323836963842285,nan,nan,nan,nan,nan,18.542055130004883,19.742055130004882,0.00542902946472168,0.0,0.08114819400937026,0.0,-5.157873986257472,0.7268822894828226,-0.0254643184020126,-0.008516909104524142,0.0019128263535177512,nan,nan,nan,nan
28.641912937164307,0.059905104,0.09801602,-3.1208408,-0.00469105896325014,nan,nan,nan,nan,nan,18.634622812271118,19.834622812271117,0.0051882266998291016,0.0,0.1112475233842447,0.0,-5.210956673691337,0.725430077358208,-0.020375515269393647,-0.0026620695058076575,0.002327359857827756,nan,nan,nan,nan
28.757054567337036,0.067649275,0.11979602,-3.147465,-0.006540335716861762,nan,nan,nan,nan,nan,18.749796628952026,19.949796628952026,0.005428791046142578,0.0,0.14742798685116448,0.0,-5.267421744027078,0.7239254317484505,-0.01608816456425132,0.005150668249474268,0.003471605169678937,nan,nan,nan,nan
28.85002064704895,0.07452467,0.13758886,-3.158485,-0.0076605516716601405,nan,nan,nan,nan,nan,18.84308385848999,20.04308385848999,0.006099700927734375,0.0,0.17541507053901215,0.0,-5.30358722498604,0.7230268988237166,-0.017514030063106787,0.00908164237174804,0.004229357337394627,nan,nan,nan,nan
28.945568799972534,0.08187151,0.15813574,-3.1626859,-0.00865462235818409,nan,nan,nan,nan,nan,18.93832039833069,20.138320398330688,0.005006074905395508,0.0,0.2025149599737003,0.0,-5.3303429690127935,0.722658509983414,-0.023104820161385944,0.011968539053502963,0.005103762598403478,nan,nan,nan,nan
29.056309938430786,0.09170473,0.18564409,-3.1610942,-0.00954255902708575,nan,nan,nan,nan,nan,19.049013376235962,20.24901337623596,0.005951881408691406,0.0,0.23184297209968735,0.0,-5.347367003676657,0.7225353842893103,-0.029779395460497068,0.01352632872855937,0.005579020745367764,nan,nan,nan,nan
29.154260635375977,0.09766741,0.21790247,-3.1652074,-0.009050045552175309,nan,nan,nan,nan,nan,19.146970987319946,20.346970987319946,0.0063478946685791016,0.0,0.2555950362197853,0.0,-5.349223077372224,0.7225695977509684,-0.03691862106388129,0.008874189443174224,0.005582155035023044,nan,nan,nan,nan
29.25000810623169,0.09975847,0.23682272,-3.1666653,-0.008591748119540572,nan,nan,nan,nan,nan,19.242807626724243,20.442807626724242,0.005706071853637695,0.0,0.2766180321963947,0.0,-5.338952280190478,0.7225569674310532,-0.04268467013691813,0.005333761674360874,0.0051612534664106985,nan,nan,nan,nan
29.349858045578003,0.09960196,0.26461783,-3.167766,-0.007813745842320141,nan,nan,nan,nan,nan,19.342605113983154,20.542605113983154,0.005758762359619141,0.0,0.29598610138411663,0.0,-5.315934911611862,0.7228546297780349,-0.04168383933949423,-0.0007993391320426219,0.00471558951535629,nan,nan,nan,nan
29.452813148498535,0.096740305,0.28144994,-3.1692436,-0.007259821182942673,nan,nan,nan,nan,nan,19.44559073448181,20.64559073448181,0.00682520866394043,0.0,0.31308544199585187,0.0,-5.279903551072234,0.7229952786997326,-0.04084717085944512,-0.006270929850670399,0.004327197793150931,nan,nan,nan,nan
29.55360770225525,0.09180278,0.2958927,-3.1683264,-0.006607866898447976,nan,nan,nan,nan,nan,19.54632019996643,20.74632019996643,0.007714271545410156,0.0,0.32681214321427754,0.0,-5.233950787882173,0.7234067152999978,-0.02792627707268842,-0.016228481378777707,0.0038655729518618422,nan,nan,nan,nan
29.64840531349182,0.08798261,0.3134392,-3.1653318,-0.005971785782751978,nan,nan,nan,nan,nan,19.641249895095825,20.841249895095824,0.005227804183959961,0.0,0.3369166586580803,0.0,-5.182513837566971,0.7239697592898543,-0.02009176976998055,-0.01950557988597593,0.0035396496637074702,nan,nan,nan,nan
29.740859031677246,0.084854335,0.32285437,-3.1649888,-0.005475114665233337,nan,nan,nan,nan,nan,19.733576774597168,20.933576774597167,0.005489349365234375,0.0,0.34402523506591004,0.0,-5.126590260699817,0.7245635402410275,-0.01798490926957308,-0.020327396909859456,0.0031742484429946585,nan,nan,nan,nan
