time,x,y,z,yaw,platform,trajectory,traj_double,traj_short,traj_spin,traj_time,ref_time,comptime,x_ref,y_ref,yaw_ref,z_ref,throttle_input,p_input,q_input,r_input,cbf_term_pitch_cbf,cbf_term_roll_cbf,cbf_term_thrust_cbf,cbf_term_yaw_cbf
10.076927423477173,-0.0063802307,0.0791261,-2.8774037,-0.003971404558592305,SIM,FIG8_HORIZONTAL,NormSpd,Not Short,NoSpin,0.07225346565246582,1.2722534656524658,0.00684666633605957,0.2206107042077039,0.3298495552675639,0.0,-5.0,0.8785971096381059,0.29892110021093804,0.31932237255533497,0.001903000194953369,nan,nan,nan,nan
10.18082070350647,-0.010426307,0.08472129,-2.8925943,-0.004439662483392774,nan,nan,nan,nan,nan,0.17611145973205566,1.3761114597320556,0.007221221923828125,0.16198681028213444,0.33991943101822075,0.0,-5.0,0.8785971096381059,0.29814350197287776,0.32915478356244704,0.001647947389394149,nan,nan,nan,nan
10.276874780654907,-0.005330324,0.08598991,-2.9007394,-0.003722148924490921,nan,nan,nan,nan,nan,0.27226829528808594,1.472268295288086,0.0065190792083740234,0.10185081469024751,0.34619249504680144,0.0,-5.0,0.8785971096381059,0.238517827364269,0.3441215095071642,0.002918049139056146,nan,nan,nan,nan
10.372760772705078,-0.0018479138,0.08610955,-2.9231906,-0.001917521189544807,nan,nan,nan,nan,nan,0.3680558204650879,1.5680558204650878,0.005552530288696289,0.03845353623072103,0.34946989720682636,0.0,-5.0,0.8785971096381053,0.18978741986774914,0.30728902273617403,0.0012712463109177715,nan,nan,nan,nan
10.483532667160034,-0.0034802207,0.09023316,-2.9478695,-0.0009392976629560771,nan,nan,nan,nan,nan,0.47879767417907715,1.678797674179077,0.006502628326416016,-0.03633664158927456,0.34952684852583404,0.0,-5.0,0.8785971096381059,0.1414453200233917,0.2641067695533867,-0.00034310844682628394,nan,nan,nan,nan
10.566174268722534,-0.005523898,0.09676788,-2.9695,-0.000935158881627094,nan,nan,nan,nan,nan,0.5616805553436279,1.7616805553436279,0.010532855987548828,-0.09141246511561603,0.3469496287899907,0.0,-5.0,0.8785971096381037,0.10988510195198276,0.2393609153747699,-6.29884305533801e-05,nan,nan,nan,nan
10.680572032928467,-0.0075064367,0.09975046,-2.997497,-0.000759516938672483,nan,nan,nan,nan,nan,0.6758527755737305,1.8758527755737304,0.006530046463012695,-0.16316382469405938,0.339760474342617,0.0,-5.0,0.8785971096381059,0.08787030327965628,0.21455187755141228,0.00031508191311197046,nan,nan,nan,nan
10.780584812164307,-0.010704373,0.10737113,-3.021395,-0.00102523697434416,nan,nan,nan,nan,nan,0.7758655548095703,1.9758655548095703,0.007338523864746094,-0.21962115041983232,0.33006182347754986,0.0,-5.0,0.8785971096381059,0.06469658703512556,0.1782521205663166,0.0007769483782531511,nan,nan,nan,nan
10.873624324798584,-0.020152437,0.11757795,-3.0978868,-0.0012599570552758509,nan,nan,nan,nan,nan,0.8689332008361816,2.068933200836182,0.005629062652587891,-0.2648450184889964,0.3182655110046413,0.0,-5.0,0.8785971096381059,-0.015382566625649031,-0.0019004947673033252,0.001228095595251044,nan,nan,nan,nan
10.972108602523804,-0.028925065,0.122749045,-3.1791487,-0.001343661251732063,nan,nan,nan,nan,nan,0.9673781394958496,2.16737813949585,0.005954265594482422,-0.3033493138182451,0.3029884649991957,0.0,-5.0,0.8785971096381059,-0.0876791596672657,-0.1500768731631522,0.0009854587421913238,nan,nan,nan,nan
11.06992506980896,-0.037087724,0.12506656,-3.3003879,-0.0019803493066803375,nan,nan,nan,nan,nan,1.0652105808258057,2.265210580825806,0.006003379821777344,-0.3307633562638157,0.28508999123458306,0.0,-5.0,0.8785971096381059,-0.12033096722087394,-0.233849579777555,0.0015226291598053805,nan,nan,nan,nan
11.170372486114502,-0.05040031,0.1257131,-3.5212007,-0.0028604224958557935,nan,nan,nan,nan,nan,1.165668249130249,2.365668249130249,0.008399724960327148,-0.3466304966044545,0.2640616646924002,0.0,-5.0,0.8785971096381059,-0.10613541251773365,-0.23117026673647612,0.002256792024661056,nan,nan,nan,nan
11.267630100250244,-0.05136628,0.12678087,-3.6708508,-0.0033712061839680212,nan,nan,nan,nan,nan,1.2629215717315674,2.4629215717315676,0.005813121795654297,-0.34957738156275375,0.24133160763654837,0.0,-5.0,0.8619128481738115,-0.08356175110781972,-0.19673891134695895,0.001844775572195367,nan,nan,nan,nan
11.377981185913086,-0.050055947,0.1262367,-3.9383395,-0.004476090427198352,nan,nan,nan,nan,nan,1.3733038902282715,2.5733038902282717,0.005628824234008789,-0.33800612997616447,0.21296254995061525,0.0,-5.0,0.76424683636057,-0.04606767168021012,-0.10882199217628628,0.0030545413939508073,nan,nan,nan,nan
11.468320369720459,-0.042715676,0.12106692,-4.2316184,-0.0047478838077653525,nan,nan,nan,nan,nan,1.4636423587799072,2.6636423587799074,0.00565648078918457,-0.31707951874534285,0.18792703710087272,0.0,-5.0,0.6641462834793764,-0.008936939799141251,-0.016696935698705048,0.005116086309635517,nan,nan,nan,nan
11.566877841949463,-0.028497618,0.11164846,-4.4394364,-0.003999068677329208,nan,nan,nan,nan,nan,1.562161922454834,2.762161922454834,0.0069119930267333984,-0.2832903495392618,0.15899857993369754,0.0,-5.0,0.6207607821293909,-0.005911978636899515,0.01489314798413241,0.004233946790098905,nan,nan,nan,nan
11.681164503097534,-0.0014929757,0.09058676,-4.7345996,-0.0024668498110499044,nan,nan,nan,nan,nan,1.6764566898345947,2.876456689834595,0.006319522857666016,-0.2313542262334639,0.12365077873714528,0.0,-5.0,0.5574111695130516,0.039613978163055744,0.11100353455790195,0.0024900711897244804,nan,nan,nan,nan
11.771233320236206,0.025738904,0.0715099,-4.9073477,-0.0007242498288273121,nan,nan,nan,nan,nan,1.7665126323699951,2.9665126323699953,0.0052242279052734375,-0.18236211838362618,0.0947150889866724,0.0,-5.0,0.5460158522241585,0.05837012548212752,0.15307951864586797,0.0007331521383961587,nan,nan,nan,nan
11.881928205490112,0.06441393,0.041426625,-5.0889626,0.0018698629148656623,nan,nan,nan,nan,nan,1.8772094249725342,3.0772094249725344,0.010346412658691406,-0.11475643346564854,0.058187995957185344,0.0,-5.0,0.5524425076682979,0.07897376508626577,0.1949202687979748,-0.0024085783136145807,nan,nan,nan,nan
11.982363939285278,0.09474941,0.016770346,-5.190317,0.005060658198460244,nan,nan,nan,nan,nan,1.977644443511963,3.177644443511963,0.006469011306762695,-0.048799926422455786,0.02445976608479501,0.0,-5.0,0.565948852619116,0.0853488957077556,0.21910350421967767,-0.00509613004375185,nan,nan,nan,nan
12.080400943756104,0.14263718,-0.020346165,-5.2904487,0.015077926051658197,nan,nan,nan,nan,nan,2.0756783485412598,3.27567834854126,0.006804466247558594,0.017368137179925008,-0.008686744502758463,0.0,-5.0,0.5960719850514605,0.0961252971496897,0.23473448324298962,-0.01793750085662934,nan,nan,nan,nan
12.175305843353271,0.17300767,-0.049091637,-5.341807,0.02225979837301615,nan,nan,nan,nan,nan,2.170626640319824,3.3706266403198244,0.005254268646240234,0.08088427593286963,-0.04071863506769351,0.0,-5.0,0.6156286461017952,0.09312288039239758,0.24480896605306451,-0.025458903152688565,nan,nan,nan,nan
12.284682989120483,0.22190927,-0.09836,-5.3855157,0.029186476991735086,nan,nan,nan,nan,nan,2.279963970184326,3.4799639701843263,0.0057392120361328125,0.1505296259491181,-0.07716346440747912,0.0,-5.0,0.6493664179333762,0.09385396170829499,0.2042248523178328,-0.03728249486214122,nan,nan,nan,nan
12.376713514328003,0.2495523,-0.12775323,-5.395166,0.030826985534197614,nan,nan,nan,nan,nan,2.3721249103546143,3.5721249103546144,0.005409955978393555,0.20414778128473302,-0.10723042388060813,0.0,-5.0,0.6679367852315942,0.09113742880200419,0.1923255378861123,-0.03885776203356483,nan,nan,nan,nan
12.477325439453125,0.2913466,-0.18025613,-5.394983,0.02883690895659701,nan,nan,nan,nan,nan,2.47284197807312,3.6728419780731203,0.006656169891357422,0.2552973678268469,-0.13910793820306577,0.0,-5.0,0.6933542304449019,0.09177726712113603,0.13445569393959467,-0.0393943877508844,nan,nan,nan,nan
12.577122688293457,0.31067947,-0.21777828,-5.386376,0.02196136100204287,nan,nan,nan,nan,nan,2.572510004043579,3.7725100040435793,0.006705045700073242,0.29642133718329056,-0.1693574468099246,0.0,-5.0,0.7079607998983025,0.09577376380828853,0.10802466990044904,-0.029693086246080108,nan,nan,nan,nan
12.674691200256348,0.32614514,-0.2625787,-5.3633957,0.012980279584249306,nan,nan,nan,nan,nan,2.6700122356414795,3.8700122356414797,0.005196332931518555,0.3260437065450332,-0.1974315811152928,0.0,-5.0,0.7229183736013927,0.08701317841101339,0.04795231946724317,-0.016152406775005287,nan,nan,nan,nan
12.769759178161621,0.3307743,-0.29450986,-5.345615,0.00737956592976104,nan,nan,nan,nan,nan,2.765026807785034,3.9650268077850344,0.00548100471496582,0.343803936298009,-0.2231053847023872,0.0,-5.0,0.732643295859853,0.07031117351825321,0.020436755636852308,-0.006048081689973462,nan,nan,nan,nan
12.869016647338867,0.32188594,-0.33748758,-5.3258996,0.00046903574985482366,nan,nan,nan,nan,nan,2.864288091659546,4.064288091659546,0.0051937103271484375,0.3499979087296222,-0.24791477254094132,0.0,-5.0,0.7397218007583105,0.03581501902179318,-0.057500628340827774,0.0036589016136644135,nan,nan,nan,nan
12.978632688522339,0.29696715,-0.36774373,-5.3169403,-0.005514239052998738,nan,nan,nan,nan,nan,2.973904848098755,4.173904848098755,0.006619691848754883,0.34191351518936486,-0.27265385837973394,0.0,-5.0,0.7390901609654653,0.005073897279705428,-0.11408036839982473,0.013100454836525135,nan,nan,nan,nan
13.076011419296265,0.26885155,-0.3826532,-5.3103356,-0.011320962956872755,nan,nan,nan,nan,nan,3.0713982582092285,4.271398258209229,0.005220174789428711,0.32184278135828626,-0.29209498882584495,0.0,-5.0,0.7384124003364654,-0.01497248740624361,-0.13256030732951318,0.020096911839542184,nan,nan,nan,nan
13.169419527053833,0.21815957,-0.39744425,-5.306029,-0.019306402165673878,nan,nan,nan,nan,nan,3.1646921634674072,4.364692163467407,0.00552821159362793,0.29194903867346766,-0.30827357501924024,0.0,-5.0,0.7349011368512085,-0.05159890050300785,-0.18565213154071705,0.030500626091464384,nan,nan,nan,nan
13.281689167022705,0.16412595,-0.39974737,-5.3056445,-0.02664889104570577,nan,nan,nan,nan,nan,3.2769601345062256,4.476960134506226,0.00644230842590332,0.24352810689120202,-0.32441062053132,0.0,-5.0,0.7328228306888213,-0.05898996023831292,-0.19338275795177318,0.03767408027905368,nan,nan,nan,nan
13.370120286941528,0.09955365,-0.39173195,-5.306417,-0.03567769063209295,nan,nan,nan,nan,nan,3.365389823913574,4.565389823913574,0.005639076232910156,0.19721030296535208,-0.33444186811383203,0.0,-5.0,0.7294635807799231,-0.07960926378691455,-0.21286421902690353,0.0492217967763099,nan,nan,nan,nan
13.479652166366577,0.0441191,-0.37783867,-5.3066773,-0.043708450229704966,nan,nan,nan,nan,nan,3.474968671798706,4.674968671798706,0.007178306579589844,0.13200282763069723,-0.34347750761619145,0.0,-5.0,0.7283138216005783,-0.0837086309299072,-0.20792546958357652,0.05987489304656356,nan,nan,nan,nan
13.576928853988647,-0.021476593,-0.35992354,-5.3060293,-0.049291980726281756,nan,nan,nan,nan,nan,3.5724196434020996,4.7724196434021,0.0053865909576416016,0.06895697965319007,-0.3482807319050377,0.0,-5.0,0.7281496615344392,-0.07555737017552439,-0.20538590281615685,0.06766883703783107,nan,nan,nan,nan
13.66939926147461,-0.09013256,-0.3403098,-5.299229,-0.050241453660038286,nan,nan,nan,nan,nan,3.6646883487701416,4.864688348770142,0.005364656448364258,0.006976924135302664,-0.3499826130298985,0.0,-5.0,0.7299999408887352,-0.05492080323873583,-0.18338788544036666,0.07109255727999372,nan,nan,nan,nan
13.77958631515503,-0.15661979,-0.3200793,-5.2914767,-0.04504760134193678,nan,nan,nan,nan,nan,3.7748870849609375,4.974887084960938,0.005974769592285156,-0.06716936882676876,-0.34836975710293944,0.0,-5.0,0.7327330036595555,-0.013907285628114845,-0.15986240243666955,0.0661273195087056,nan,nan,nan,nan
13.871859312057495,-0.19577262,-0.3061966,-5.287883,-0.04032598140689089,nan,nan,nan,nan,nan,3.867135524749756,5.067135524749756,0.00546717643737793,-0.12703948839675805,-0.3439808154182135,0.0,-5.0,0.7341886128190727,0.018224831602699092,-0.15358741346561844,0.05875547007760994,nan,nan,nan,nan
13.967737674713135,-0.24164726,-0.2826298,-5.2868285,-0.0364679908605118,nan,nan,nan,nan,nan,3.9630239009857178,5.163023900985718,0.006134510040283203,-0.1849751253288469,-0.336522140502783,0.0,-5.0,0.7338815069712776,0.02581800230991996,-0.10870726547956015,0.051535426579267705,nan,nan,nan,nan
14.07577919960022,-0.2728632,-0.26379052,-5.2858143,-0.033844099836253326,nan,nan,nan,nan,nan,4.071074962615967,5.271074962615967,0.0050716400146484375,-0.24257141288175266,-0.3246595519484399,0.0,-5.0,0.7338824077420705,0.04442739984631007,-0.08373261242818382,0.04809863269387917,nan,nan,nan,nan
14.17229437828064,-0.29382893,-0.24471262,-5.286449,-0.031289902076747554,nan,nan,nan,nan,nan,4.167570114135742,5.367570114135742,0.0059814453125,-0.2851588259325504,-0.31106978949563546,0.0,-5.0,0.7328670396020889,0.04497033525032607,-0.019326319815824583,0.04467047245572989,nan,nan,nan,nan
14.28511905670166,-0.30178794,-0.22978897,-5.286624,-0.02831426741727535,nan,nan,nan,nan,nan,4.28046989440918,5.48046989440918,0.010062217712402344,-0.32233743083249006,-0.29174630648251776,0.0,-5.0,0.7323186167190924,0.051141877011781516,0.016455151039420763,0.04106221972041533,nan,nan,nan,nan
14.367281675338745,-0.30047446,-0.21954551,-5.2879205,-0.025471471618623148,nan,nan,nan,nan,nan,4.36266303062439,5.56266303062439,0.006914377212524414,-0.339856019276372,-0.2754801981855137,0.0,-5.0,0.7316116332610062,0.047240328481793804,0.05318459704063018,0.03718288487348165,nan,nan,nan,nan
14.480777978897095,-0.28438592,-0.20520312,-5.2969213,-0.02149545814456343,nan,nan,nan,nan,nan,4.4760777950286865,5.676077795028687,0.00569915771484375,-0.34991466772702795,-0.25020479142523117,0.0,-5.0,0.7290354904448938,0.049372211579106484,0.07673622158022925,0.032435987974738796,nan,nan,nan,nan
14.572312593460083,-0.26325294,-0.19294102,-5.3006973,-0.020690543651702982,nan,nan,nan,nan,nan,4.5675950050354,5.767595005035401,0.005310773849487305,-0.34581231524061656,-0.2276038145299863,0.0,-5.0,0.7281769529281884,0.05108894137303392,0.08726811543606745,0.02980541248061416,nan,nan,nan,nan
14.667412757873535,-0.22073886,-0.1694376,-5.3030224,-0.019788754500717785,nan,nan,nan,nan,nan,4.662688255310059,5.862688255310059,0.008428335189819336,-0.33011683332593966,-0.2022365372454598,0.0,-5.0,0.7264794346905162,0.01940611743556371,0.13983305890482564,0.029289373806656707,nan,nan,nan,nan
14.780164957046509,-0.16534878,-0.14499368,-5.3025293,-0.01944205372378889,nan,nan,nan,nan,nan,4.775747537612915,5.975747537612915,0.006054878234863281,-0.2970465749240459,-0.1698731141749829,0.0,-5.0,0.7265045362213273,-0.0138514273571917,0.1802825198524885,0.028403925671286023,nan,nan,nan,nan
14.87295126914978,-0.115418926,-0.12567636,-5.3010645,-0.01947649229104855,nan,nan,nan,nan,nan,4.86823582649231,6.06823582649231,0.005401611328125,-0.2593890282589028,-0.1418726724864917,0.0,-5.0,0.7270430192397744,-0.02199028236544753,0.19564914786032891,0.028777593484149468,nan,nan,nan,nan
14.983055830001831,-0.04676374,-0.09912017,-5.297784,-0.019082888908079316,nan,nan,nan,nan,nan,4.9783360958099365,6.178336095809937,0.006051301956176758,-0.20389432010402844,-0.10708194350287821,0.0,-5.0,0.7279498932430215,-0.029192313268262955,0.20596985762964629,0.028472290344642947,nan,nan,nan,nan
15.07177472114563,-0.0039471914,-0.0787822,-5.2928286,-0.018182182334654625,nan,nan,nan,nan,nan,5.067056179046631,6.267056179046631,0.005356550216674805,-0.15234742699851045,-0.07814649569230901,0.0,-5.0,0.7295502884437021,-0.034178939049256535,0.20657226928457476,0.026324799912460704,nan,nan,nan,nan
15.182122707366943,0.07210848,-0.041665144,-5.284761,-0.01480726837174862,nan,nan,nan,nan,nan,5.1774187088012695,6.37741870880127,0.005755901336669922,-0.08217050872804631,-0.04137537939471394,0.0,-5.0,0.7316161662792158,-0.050782136737046506,0.20269912836118806,0.022415520572752975,nan,nan,nan,nan
15.279792070388794,0.14837137,-0.0014123956,-5.276409,-0.009843673177306271,nan,nan,nan,nan,nan,5.275069713592529,6.4750697135925295,0.0053255558013916016,-0.01686256601344407,-0.008433731823728002,0.0,-5.0,0.7331502257441331,-0.06837963198018633,0.18245963367014018,0.016533136559455347,nan,nan,nan,nan
15.37069034576416,0.18862662,0.022552898,-5.2718167,-0.007123886474404559,nan,nan,nan,nan,nan,5.365964412689209,6.565964412689209,0.007886886596679688,0.044513979957413886,0.022302313661775045,0.0,-5.0,0.7343465634922242,-0.06175631050574867,0.16815171793025036,0.010866060261166065,nan,nan,nan,nan
15.48496961593628,0.24142766,0.064279534,-5.2634974,-0.0031034350465891985,nan,nan,nan,nan,nan,5.48025918006897,6.68025918006897,0.007699728012084961,0.11951858204002772,0.06067811169363817,0.0,-5.0,0.7356964056787059,-0.05502230955374303,0.1172928010820342,0.00394615803608668,nan,nan,nan,nan
15.577601671218872,0.28182635,0.09820329,-5.2633176,-0.002492500408130505,nan,nan,nan,nan,nan,5.57292366027832,6.7729236602783205,0.0051691532135009766,0.17622349240543234,0.09126959340029243,0.0,-5.0,0.7348355562418518,-0.04445408800986101,0.06573652573337503,0.0011654783375568804,nan,nan,nan,nan
15.667572021484375,0.30026096,0.12120723,-5.260708,-0.0022127774106162302,nan,nan,nan,nan,nan,5.66285252571106,6.86285252571106,0.00716400146484375,0.22587703943671192,0.1202605140476358,0.0,-5.0,0.7343400361798808,-0.034043479356954814,0.06362221502083198,-0.0003693124673638339,nan,nan,nan,nan
15.779362916946411,0.31896296,0.16068314,-5.253031,-0.0008097117283477496,nan,nan,nan,nan,nan,5.774827003479004,6.974827003479004,0.006113529205322266,0.27803109898385714,0.1550645717196328,0.0,-5.0,0.7347144822588864,-0.025095413221696426,-0.0023764856478914373,-0.002497647517776456,nan,nan,nan,nan
15.877233743667603,0.32067284,0.18487155,-5.2469506,0.001010991558125996,nan,nan,nan,nan,nan,5.872560977935791,7.072560977935791,0.005921840667724609,0.31301451448279344,0.18397260630329504,0.0,-5.0,0.7353857267288626,-0.017157003097143117,-0.02216415320158123,-0.005237419402178267,nan,nan,nan,nan
15.973304271697998,0.3153435,0.20135778,-5.2423577,0.0028438469040817883,nan,nan,nan,nan,nan,5.968583583831787,7.168583583831787,0.00515294075012207,0.33653990092749975,0.21077790318593367,0.0,-5.0,0.7362205814537026,-0.012219870292081473,-0.0304185128035554,-0.008532826606560873,nan,nan,nan,nan
16.068322896957397,0.29328325,0.22529273,-5.230522,0.006286241463478842,nan,nan,nan,nan,nan,6.063614368438721,7.263614368438721,0.006953239440917969,0.34843803882342583,0.23552043781029197,0.0,-5.0,0.7367648679966528,-0.008469993197966078,-0.08732716203084771,-0.013272162013177605,nan,nan,nan,nan
16.169715642929077,0.2659266,0.24141893,-5.228494,0.009218809045721896,nan,nan,nan,nan,nan,6.165007829666138,7.365007829666138,0.00757908821105957,0.3481982014944258,0.2597248207739696,0.0,-5.0,0.7366307747746362,-0.006591608503650365,-0.10927025421654316,-0.017341611909316556,nan,nan,nan,nan
16.28251552581787,0.22184229,0.25765306,-5.230067,0.01194742246422309,nan,nan,nan,nan,nan,6.277828216552734,7.4778282165527346,0.0062427520751953125,0.33227343747469484,0.28371731582768434,0.0,-5.0,0.7342325307675011,-0.006246703439533304,-0.1136214817193404,-0.020569931991497214,nan,nan,nan,nan
16.376661777496338,0.18279381,0.26831618,-5.231344,0.01328109398004263,nan,nan,nan,nan,nan,6.37193489074707,7.5719348907470705,0.0052950382232666016,0.30689136867011424,0.3011623404764457,0.0,-5.0,0.7325667686442981,-0.009647852872338747,-0.13299217661502102,-0.023026328299968292,nan,nan,nan,nan
16.482877016067505,0.11338175,0.28200975,-5.2380037,0.01450896664148425,nan,nan,nan,nan,nan,6.478166103363037,7.678166103363037,0.006687641143798828,0.2661240242676885,0.3178559326000703,0.0,-5.0,0.7291259289052342,-0.013611803735530052,-0.16987964941146813,-0.024273433774014332,nan,nan,nan,nan
16.575802326202393,0.06553167,0.2892683,-5.243281,0.015329002761262322,nan,nan,nan,nan,nan,6.5710790157318115,7.771079015731812,0.005243778228759766,0.22122708525658744,0.3297164657553362,0.0,-5.0,0.7277057579488435,-0.02380382512727463,-0.17313873489169182,-0.024763250989158932,nan,nan,nan,nan
16.667471170425415,0.010467608,0.29482564,-5.248603,0.015731911953244086,nan,nan,nan,nan,nan,6.662785768508911,7.862785768508911,0.008079290390014648,0.16992517344652439,0.3388170287927156,0.0,-5.0,0.7262237093765121,-0.029643689819073237,-0.1752987335133315,-0.024796759424854823,nan,nan,nan,nan
16.776543378829956,-0.080389276,0.29811147,-5.261981,0.015895572900227535,nan,nan,nan,nan,nan,6.771830797195435,7.971830797195435,0.005210161209106445,0.1021339999950434,0.34617069062267614,0.0,-5.0,0.7252311994702484,-0.0215987367414354,-0.17726805741718812,-0.023930837597996725,nan,nan,nan,nan
16.873424768447876,-0.123286895,0.29789993,-5.2712345,0.015649442260082462,nan,nan,nan,nan,nan,6.868695259094238,8.068695259094238,0.005418300628662109,0.03802344965221949,0.3494817327208894,0.0,-5.0,0.7228072100152947,-0.025243395802653737,-0.1832667076463749,-0.023677994716567844,nan,nan,nan,nan
16.98187518119812,-0.1961059,0.2955828,-5.2915144,0.015510112793855876,nan,nan,nan,nan,nan,6.9772255420684814,8.17722554206848,0.00588536262512207,-0.035278439516588773,0.34955409253130715,0.0,-5.0,0.7199001951019607,-0.02324020055991075,-0.17961519834180317,-0.022700824188656283,nan,nan,nan,nan
17.075183629989624,-0.25883818,0.29037923,-5.3052077,0.015475023288138608,nan,nan,nan,nan,nan,7.070487976074219,8.270487976074218,0.005282163619995117,-0.09715163081693196,0.34654451222326277,0.0,-5.0,0.7191693538894883,-0.008520026871574767,-0.14398334258459283,-0.021550793164392144,nan,nan,nan,nan
17.1682870388031,-0.28489906,0.284969,-5.3094563,0.015692239920169476,nan,nan,nan,nan,nan,7.163592338562012,8.363592338562011,0.00716400146484375,-0.1557792721266083,0.3407325953874016,0.0,-5.0,0.7207544705841017,-0.014827345006734754,-0.13106484497363768,-0.02149352770960314,nan,nan,nan,nan
17.280945777893066,-0.3169456,0.26864576,-5.3117948,0.01714373646612738,nan,nan,nan,nan,nan,7.276279449462891,8.47627944946289,0.005161285400390625,-0.21983914357196566,0.3300152091503831,0.0,-5.0,0.7238051020350599,-0.01010688987689558,-0.07405206600644283,-0.022980616118224592,nan,nan,nan,nan
17.373135089874268,-0.33667204,0.24531634,-5.310354,0.018579701782923386,nan,nan,nan,nan,nan,7.368432283401489,8.568432283401489,0.00531768798828125,-0.2646233041515833,0.3183359873001146,0.0,-5.0,0.7266395757722095,0.01839287396283048,0.0007656411435695502,-0.024934197788991325,nan,nan,nan,nan
17.48428726196289,-0.3483837,0.21947053,-5.313831,0.018780133159873574,nan,nan,nan,nan,nan,7.479590654373169,8.679590654373168,0.006841897964477539,-0.3073863402752911,0.3008990386212984,0.0,-5.0,0.7274603612255208,0.032874839945232485,0.035516735829366555,-0.02637330858463289,nan,nan,nan,nan
17.578145265579224,-0.3440924,0.19960104,-5.317137,0.01859317373054255,nan,nan,nan,nan,nan,7.5734946727752686,8.773494672775268,0.005020618438720703,-0.33255361277325535,0.28345500152807696,0.0,-5.0,0.7275110533891604,0.03194821379315809,0.04252307276339001,-0.026861408733200334,nan,nan,nan,nan
17.671735048294067,-0.32306185,0.16959248,-5.3207183,0.017827640307268553,nan,nan,nan,nan,nan,7.667016506195068,8.867016506195068,0.006653547286987305,-0.3467556043985429,0.26376204955979254,0.0,-5.0,0.7262400822824272,0.043281014278536145,0.08771200524258328,-0.02620087123941178,nan,nan,nan,nan
17.783910512924194,-0.27962422,0.13453807,-5.3266916,0.016971029368646917,nan,nan,nan,nan,nan,7.779250860214233,8.979250860214233,0.005847454071044922,-0.34886046907529783,0.2373004116635019,0.0,-5.0,0.7256534357193162,0.03619543577753868,0.12065976440829164,-0.025842389174917633,nan,nan,nan,nan
17.87721085548401,-0.23673028,0.10684312,-5.332588,0.016140697246921486,nan,nan,nan,nan,nan,7.872482538223267,9.072482538223266,0.005318164825439453,-0.33814994907516277,0.21318300647994604,0.0,-5.0,0.723935943505171,0.028528487769052386,0.1531201903901402,-0.02536004777160441,nan,nan,nan,nan
17.970177173614502,-0.19142291,0.079063505,-5.337126,0.01569785477596696,nan,nan,nan,nan,nan,7.965447425842285,9.165447425842284,0.006558656692504883,-0.3165604447857708,0.18741155013566693,0.0,-5.0,0.7232308091285221,0.01984932190359103,0.16539522828782083,-0.024942066049238872,nan,nan,nan,nan
18.084672927856445,-0.13337381,0.05414098,-5.3398037,0.01577328869356555,nan,nan,nan,nan,nan,8.079962730407715,9.279962730407714,0.006788015365600586,-0.27605054628200176,0.15361014530348305,0.0,-5.0,0.7233492689099109,0.008963832613751103,0.17623993026083584,-0.024661732922051108,nan,nan,nan,nan
18.181086778640747,-0.072900735,0.02847762,-5.3401504,0.01531234736359792,nan,nan,nan,nan,nan,8.1765456199646,9.376545619964599,0.005619525909423828,-0.23130906925527303,0.12362263115353632,0.0,-5.0,0.7243084984987407,-0.00657527732016892,0.17603852959518906,-0.024421835878226154,nan,nan,nan,nan
18.27746343612671,-0.007147382,-0.0012539009,-5.3385663,0.013249580818258933,nan,nan,nan,nan,nan,8.272736072540283,9.472736072540282,0.005208730697631836,-0.17875468621355659,0.0926864023215001,0.0,-5.0,0.7259422256641073,0.005715540988190809,0.1712227510043748,-0.021770835916226795,nan,nan,nan,nan
18.38178277015686,0.05460292,-0.028485784,-5.336398,0.011011527870962127,nan,nan,nan,nan,nan,8.377083539962769,9.577083539962768,0.0052492618560791016,-0.11483690156844246,0.05822999290847494,0.0,-5.0,0.7270869961114634,0.004586442891763359,0.16560833443803455,-0.01822965117762216,nan,nan,nan,nan
18.473931074142456,0.119164355,-0.05730806,-5.3276706,0.009138625836465606,nan,nan,nan,nan,nan,8.469207048416138,9.669207048416137,0.0058062076568603516,-0.0544465868175728,0.027306526434564885,0.0,-5.0,0.7294505062340844,0.016002789627134598,0.15312357225960954,-0.015123670513809981,nan,nan,nan,nan
18.563410758972168,0.16018283,-0.07791164,-5.3197293,0.008262098970365927,nan,nan,nan,nan,nan,8.558928489685059,9.758928489685058,0.0064122676849365234,0.006041169013317365,-0.0030206970095023565,0.0,-5.0,0.7319726721485453,0.0185945270330775,0.145018337663323,-0.012083344724475255,nan,nan,nan,nan
18.682831048965454,0.22519048,-0.11457207,-5.3056254,0.007050173612280177,nan,nan,nan,nan,nan,8.67812466621399,9.878124666213989,0.00542140007019043,0.0858118114390139,-0.04323709004130962,0.0,-5.0,0.7350481006093075,0.025480634992164974,0.12470861600241519,-0.009641180239472488,nan,nan,nan,nan
18.775964975357056,0.26744998,-0.14276846,-5.2974863,0.005986224792171568,nan,nan,nan,nan,nan,8.771265268325806,9.971265268325805,0.005278110504150391,0.14519479283422304,-0.07429019291707321,0.0,-5.0,0.73647508957851,0.03390519544163918,0.09262791628974135,-0.007284669736658961,nan,nan,nan,nan
18.884977340698242,0.29839656,-0.17187558,-5.294678,0.005442831788261132,nan,nan,nan,nan,nan,8.880330562591553,10.080330562591552,0.005970954895019531,0.20863192928617919,-0.10986970131166371,0.0,-5.0,0.7355821208037439,0.02941165733655689,0.05559954529103348,-0.005069487146736073,nan,nan,nan,nan
18.97279453277588,0.31198335,-0.19250043,-5.2972736,0.004858531724564216,nan,nan,nan,nan,nan,8.96811294555664,10.16811294555664,0.0056476593017578125,0.25309778679890205,-0.13763833698180866,0.0,-5.0,0.7340222590236662,0.031623392000062936,0.044676858575511326,-0.0032562483467732006,nan,nan,nan,nan
19.082985162734985,0.3266979,-0.22979759,-5.2999234,0.0037194715553949898,nan,nan,nan,nan,nan,9.078301906585693,10.278301906585693,0.005418539047241211,0.29848658522139254,-0.17106965264087842,0.0,-5.0,0.7317494844038976,0.041868129916350756,0.026047165300357524,-0.0008764614212431961,nan,nan,nan,nan
19.17638087272644,0.32788816,-0.25586903,-5.3000617,0.0028476365584382494,nan,nan,nan,nan,nan,9.171651124954224,10.371651124954223,0.0053446292877197266,0.32644529046263854,-0.19788917280061494,0.0,-5.0,0.7308871753840073,0.048623385440982575,0.006979717708794117,0.0010114285650587404,nan,nan,nan,nan
19.26995825767517,0.32059222,-0.2806136,-5.2989674,0.0019257096459943373,nan,nan,nan,nan,nan,9.265285015106201,10.4652850151062,0.006173133850097656,0.3438366231115825,-0.22317268687104996,0.0,-5.0,0.7305118800725726,0.05072797095508333,-0.041631589585485504,0.002968509011692479,nan,nan,nan,nan
19.382787227630615,0.29924753,-0.3121014,-5.303702,0.0005996273789617267,nan,nan,nan,nan,nan,9.378101110458374,10.578101110458373,0.006114482879638672,0.3498408124264058,-0.2511913770179156,0.0,-5.0,0.729901174367002,0.05009738858761344,-0.0594079571347115,0.005311848679144073,nan,nan,nan,nan
19.472674131393433,0.26204157,-0.3367352,-5.304564,-0.0006861603581233035,nan,nan,nan,nan,nan,9.46796464920044,10.667964649200439,0.006253719329833984,0.34274996997138824,-0.27138925549197296,0.0,-5.0,0.7284854345050863,0.0370040726860305,-0.11615749911949128,0.006739686023560617,nan,nan,nan,nan
19.582728385925293,0.20558561,-0.35573104,-5.297504,-0.002038964896973229,nan,nan,nan,nan,nan,9.578080892562866,10.778080892562866,0.006070852279663086,0.3200390307990876,-0.29333446676180996,0.0,-5.0,0.7297071727278545,0.023636689053057523,-0.14278676741589463,0.008440930074775524,nan,nan,nan,nan
19.67339277267456,0.16297784,-0.36501178,-5.29189,-0.00287897437381094,nan,nan,nan,nan,nan,9.668959617614746,10.868959617614745,0.005950450897216797,0.2903464708497922,-0.30895461651501693,0.0,-5.0,0.7314230046586385,0.011360615101812254,-0.16528620851578307,0.009677329818051115,nan,nan,nan,nan
19.76712965965271,0.09467315,-0.37470603,-5.2847443,-0.004111932478248197,nan,nan,nan,nan,nan,9.762504577636719,10.962504577636718,0.005970478057861328,0.2504574726387788,-0.3225433443962616,0.0,-5.0,0.7321939725293394,-0.0088308520532741,-0.20313436938532428,0.01029752833717631,nan,nan,nan,nan
19.87768793106079,0.017602544,-0.37971583,-5.2771235,-0.005050571936543402,nan,nan,nan,nan,nan,9.872956991195679,11.072956991195678,0.005579233169555664,0.19295921761869336,-0.3351877401632188,0.0,-5.0,0.7330066831897423,-0.018781838040416846,-0.20235131657486552,0.010445472421106123,nan,nan,nan,nan
19.975890636444092,-0.025237039,-0.37694618,-5.272221,-0.005659379716545957,nan,nan,nan,nan,nan,9.971175193786621,11.17117519378662,0.005602836608886719,0.13437655809704613,-0.3432285795908265,0.0,-5.0,0.7338565794020621,-0.01696015586393499,-0.18780956027663523,0.01101923787193447,nan,nan,nan,nan
20.06882095336914,-0.089639835,-0.36888185,-5.2666173,-0.007080357752825089,nan,nan,nan,nan,nan,10.064111709594727,11.264111709594726,0.006662130355834961,0.07445923202118347,-0.3479912467793681,0.0,-5.0,0.7342828298464751,-0.031347902782271016,-0.15773956373011125,0.010770826965650173,nan,nan,nan,nan
20.183598279953003,-0.15497755,-0.35757637,-5.261679,-0.009205823277913257,nan,nan,nan,nan,nan,10.17890477180481,11.378904771804809,0.005471944808959961,-0.0026421415789198207,-0.34999750677269786,0.0,-5.0,0.7341019407891852,-0.03403494179029365,-0.1262073163938751,0.012726645627028247,nan,nan,nan,nan
20.274702310562134,-0.19727759,-0.3485922,-5.258468,-0.01033998029376944,nan,nan,nan,nan,nan,10.269980192184448,11.469980192184448,0.0055980682373046875,-0.0639078595080999,-0.34852588261927,0.0,-5.0,0.7341420021636187,-0.0225511531789821,-0.11016330451359536,0.01447171313136544,nan,nan,nan,nan
20.37062358856201,-0.22174719,-0.33961192,-5.255539,-0.011269980080707025,nan,nan,nan,nan,nan,10.365960597991943,11.565960597991943,0.005951881408691406,-0.1262983656146657,-0.34405399757690763,0.0,-5.0,0.7342012981571439,-0.005479840697987207,-0.09332215365756785,0.01577783946554398,nan,nan,nan,nan
20.478128671646118,-0.25255448,-0.32185048,-5.2537346,-0.012153007382542928,nan,nan,nan,nan,nan,10.473400354385376,11.673400354385375,0.005218982696533203,-0.1908980653878268,-0.33554039316805684,0.0,-5.0,0.7337264144361464,0.003648199531964421,-0.05551382890807274,0.016902316730446953,nan,nan,nan,nan
20.56926918029785,-0.27362853,-0.30416313,-5.25895,-0.012417026891077054,nan,nan,nan,nan,nan,10.564597606658936,11.764597606658935,0.006161928176879883,-0.23939293120259802,-0.3254718618715867,0.0,-5.0,0.7322197770557307,0.00560498815779861,-0.02777378249978078,0.017329041220309926,nan,nan,nan,nan
20.67963433265686,-0.28509587,-0.2866644,-5.265632,-0.012139334479711772,nan,nan,nan,nan,nan,10.674903392791748,11.874903392791747,0.0051190853118896484,-0.2880072140229153,-0.30992479695023323,0.0,-5.0,0.7286763248751884,0.009652454023232804,-0.008773447661966815,0.017486966236821607,nan,nan,nan,nan
20.77238130569458,-0.28477862,-0.27658978,-5.266804,-0.011714024802432789,nan,nan,nan,nan,nan,10.767651557922363,11.967651557922363,0.006709098815917969,-0.31885918256803036,-0.2941195999789534,0.0,-5.0,0.7288250530898891,0.02522307727811388,0.002670085366594007,0.01735437368410359,nan,nan,nan,nan
20.86910343170166,-0.2763452,-0.2632195,-5.272299,-0.010548747984989752,nan,nan,nan,nan,nan,10.864518880844116,12.064518880844116,0.0055081844329833984,-0.3401539704570242,-0.2750924510406956,0.0,-5.0,0.7277947235502141,0.029073520095847145,0.04339442278547353,0.01641004533078,nan,nan,nan,nan
20.97965717315674,-0.25644702,-0.24171603,-5.2759213,-0.00944709058007266,nan,nan,nan,nan,nan,10.974928855895996,12.174928855895995,0.005204439163208008,-0.3498966383827431,-0.2504764487352922,0.0,-5.0,0.7272818374045176,0.029063950761243035,0.0611729652561359,0.015328524827389603,nan,nan,nan,nan
21.068737745285034,-0.24142037,-0.22783019,-5.2773986,-0.008908348512955296,nan,nan,nan,nan,nan,11.064005613327026,12.264005613327026,0.005594730377197266,-0.3461785711222917,-0.22852498506732863,0.0,-5.0,0.7277244920051692,0.025735262898150053,0.062111962715883894,0.014371870239732725,nan,nan,nan,nan
21.18516492843628,-0.20873986,-0.19983663,-5.281246,-0.008258400805360232,nan,nan,nan,nan,nan,11.180485248565674,12.380485248565673,0.005617380142211914,-0.3259211581362551,-0.19729258125232071,0.0,-5.0,0.7281617613041622,0.008992134610768431,0.07576401152084379,0.013959330826883875,nan,nan,nan,nan
21.277513027191162,-0.1738307,-0.16929245,-5.289254,-0.0077790015198917085,nan,nan,nan,nan,nan,11.272793769836426,12.472793769836425,0.005645751953125,-0.29809875673614855,-0.1707461577166337,0.0,-5.0,0.725602809770506,-0.02933751314737161,0.10837701821338473,0.013860485726695541,nan,nan,nan,nan
21.374837398529053,-0.12558576,-0.124281034,-5.3063493,-0.006196648614905029,nan,nan,nan,nan,nan,11.370139360427856,12.570139360427856,0.006025075912475586,-0.25852251526079695,-0.14128370011177255,0.0,-5.0,0.722110335737611,-0.058775149218592816,0.12709695120027645,0.01271072564518159,nan,nan,nan,nan
21.470183610916138,-0.088700056,-0.09086911,-5.315152,-0.004869459071695857,nan,nan,nan,nan,nan,11.46552562713623,12.66552562713623,0.007171630859375,-0.21087651834119292,-0.11119990582471853,0.0,-5.0,0.7200529534568717,-0.07266311533495011,0.13705155462421803,0.010616101817257322,nan,nan,nan,nan
21.57137179374695,-0.0298627,-0.04212582,-5.3296003,-0.00347722083262696,nan,nan,nan,nan,nan,11.566941261291504,12.766941261291503,0.0062007904052734375,-0.152417429512837,-0.07818439329896089,0.0,-5.0,0.7194173699353851,-0.0828504768811178,0.14964253972230315,0.008412378357393507,nan,nan,nan,nan
21.671911239624023,0.010441627,-0.0102482,-5.3391805,-0.0032137955854542296,nan,nan,nan,nan,nan,11.667210817337036,12.867210817337035,0.006501913070678711,-0.08886819560196257,-0.044802681439792984,0.0,-5.0,0.7175866027291741,-0.07040405146195217,0.16141716251539365,0.007075685761664913,nan,nan,nan,nan
21.77156925201416,0.065716095,0.043796267,-5.346991,-0.0025646515706936445,nan,nan,nan,nan,nan,11.766839265823364,12.966839265823364,0.005995273590087891,-0.02242286782128542,-0.011217196244720999,0.0,-5.0,0.7183230809567895,-0.06315247174321341,0.15565369952851887,0.0061044612435299265,nan,nan,nan,nan
21.885496377944946,0.110730365,0.08273684,-5.3553166,-0.003508884227744557,nan,nan,nan,nan,nan,11.880780696868896,13.080780696868896,0.005377292633056641,0.05443839558779282,0.027302392989432135,0.0,-5.0,0.7196797890755725,-0.03907395316220259,0.13999796122057295,0.005494486010052139,nan,nan,nan,nan
21.977714776992798,0.1438074,0.10777425,-5.3599477,-0.004261284313054109,nan,nan,nan,nan,nan,11.972984075546265,13.172984075546264,0.005589723587036133,0.11488011988580801,0.05825255000595335,0.0,-5.0,0.7206016165085004,-0.018538624753590163,0.13904203298830903,0.005351243063357808,nan,nan,nan,nan
22.07404637336731,0.18749772,0.14010358,-5.3635464,-0.004722539545505194,nan,nan,nan,nan,nan,12.069329023361206,13.269329023361205,0.006493330001831055,0.17411774046213208,0.09009496589127544,0.0,-5.0,0.7226399975874227,0.002563473116959079,0.10755538008696205,0.005503702830436634,nan,nan,nan,nan
22.17031455039978,0.22002275,0.16477628,-5.3630786,-0.004411255885720359,nan,nan,nan,nan,nan,12.165596723556519,13.365596723556518,0.007059335708618164,0.22729226751871895,0.12113199459498811,0.0,-5.0,0.7240985397952038,0.010721251516470322,0.10097649927197667,0.004162473367374984,nan,nan,nan,nan
22.268632411956787,0.24048027,0.18144469,-5.357861,-0.004241829945747638,nan,nan,nan,nan,nan,12.264010667800903,13.464010667800903,0.0052416324615478516,0.2735249422444691,0.15177546348506638,0.0,-5.0,0.7270201137469631,0.017139729454322118,0.09734266583167442,0.0027592171746740495,nan,nan,nan,nan
22.377515077590942,0.2597395,0.20277385,-5.353194,-0.003880671158011402,nan,nan,nan,nan,nan,12.372852087020874,13.572852087020873,0.005668163299560547,0.3131025960577986,0.1840563850524939,0.0,-5.0,0.7303970763182711,0.015184617511917376,0.06304374596863868,0.001289102676386627,nan,nan,nan,nan
22.47224497795105,0.26584685,0.21901613,-5.3465858,-0.003591071028459162,nan,nan,nan,nan,nan,12.467523336410522,13.667523336410522,0.009301185607910156,0.33634215119203587,0.21049142534080179,0.0,-5.0,0.7321532067594901,0.006885878765920898,0.035372649881886195,0.00016265351586604605,nan,nan,nan,nan
22.570309162139893,0.26274636,0.23959202,-5.3358483,-0.0031064010171059564,nan,nan,nan,nan,nan,12.56568431854248,13.76568431854248,0.006484031677246094,0.3485674253118898,0.23603800373522602,0.0,-5.0,0.7346630247886812,-0.00964685018039154,-0.030367342921802563,-0.0009405165295256902,nan,nan,nan,nan
22.664436101913452,0.2508276,0.25702074,-5.3268814,-0.002675218252599388,nan,nan,nan,nan,nan,12.659725666046143,13.859725666046142,0.006716728210449219,0.3485422416360108,0.2585235157648537,0.0,-5.0,0.7357939545618233,-0.025594860602851696,-0.05783620668993954,-0.001811770596469503,nan,nan,nan,nan
22.78319001197815,0.22022732,0.2753826,-5.313496,-0.0023289097671216766,nan,nan,nan,nan,nan,12.77852988243103,13.97852988243103,0.005256175994873047,0.33212394913902776,0.28385626012662046,0.0,-5.0,0.736779811669076,-0.036970199200836794,-0.1035801189833551,-0.0024019747902040804,nan,nan,nan,nan
22.877681732177734,0.20086922,0.2825994,-5.308457,-0.002311231530802105,nan,nan,nan,nan,nan,12.872956991195679,14.072956991195678,0.00572514533996582,0.30655824881168675,0.30133838381953054,0.0,-5.0,0.7371304164828585,-0.040763527912067686,-0.11829449008119844,-0.0027030950027788895,nan,nan,nan,nan
22.975074291229248,0.15527026,0.29640576,-5.2952495,-0.002087693983872774,nan,nan,nan,nan,nan,12.970401287078857,14.170401287078857,0.007283449172973633,0.26950647333634487,0.3167472507153804,0.0,-5.0,0.7367988287999716,-0.03531170236961569,-0.14878382828789607,-0.0021321736046231304,nan,nan,nan,nan
23.071127891540527,0.121549465,0.30348513,-5.2880335,-0.0017805252326425266,nan,nan,nan,nan,nan,13.066498041152954,14.266498041152953,0.006063699722290039,0.22362036714951145,0.32919328657500574,0.0,-5.0,0.7375267886182856,-0.03771513514729341,-0.15741794968598055,-0.002377190126219081,nan,nan,nan,nan
23.18316149711609,0.051135324,0.31033483,-5.282904,-0.0005784023044976029,nan,nan,nan,nan,nan,13.178455114364624,14.378455114364623,0.005283355712890625,0.1605793842926038,0.34010748895282134,0.0,-5.0,0.7356242031723388,-0.02849430574986502,-0.1881640480185488,-0.0029241135068142853,nan,nan,nan,nan
23.278538465499878,-0.02388449,0.31468993,-5.278637,0.0008489888025460003,nan,nan,nan,nan,nan,13.273805856704712,14.473805856704711,0.005499362945556641,0.10085499985749705,0.34626863422050075,0.0,-5.0,0.7338117941788642,-0.015124892821156812,-0.21849867689244645,-0.0035855274095945,nan,nan,nan,nan
23.37580108642578,-0.08097937,0.31177345,-5.277183,0.0023745136501304616,nan,nan,nan,nan,nan,13.371076107025146,14.571076107025146,0.007031917572021484,0.03642158502999599,0.3495246262316798,0.0,-5.0,0.7328732732352631,-0.005797972335485966,-0.22343774444704523,-0.004770205685732877,nan,nan,nan,nan
23.473995208740234,-0.13384372,0.30593285,-5.276833,0.0038361586018596378,nan,nan,nan,nan,nan,13.469547748565674,14.669547748565673,0.008016586303710938,-0.03010601670279211,0.3496755442459348,0.0,-5.0,0.7326937263480194,-0.00785396272827965,-0.22103700187900494,-0.006395632382169923,nan,nan,nan,nan
23.576492071151733,-0.2102045,0.29079193,-5.277432,0.0064721790630281675,nan,nan,nan,nan,nan,13.571768283843994,14.771768283843993,0.005809783935546875,-0.0979836102874103,0.3464835298861161,0.0,-5.0,0.7320393403907441,0.019117486522356265,-0.1932504955149742,-0.008289242270612385,nan,nan,nan,nan
23.674086093902588,-0.25471058,0.2776085,-5.277795,0.008655961402133209,nan,nan,nan,nan,nan,13.669361352920532,14.869361352920532,0.006499290466308594,-0.15926514864340469,0.34028112776298647,0.0,-5.0,0.7324223386140021,0.020663247501688763,-0.1831773273348898,-0.011604944052911601,nan,nan,nan,nan
23.77006983757019,-0.3136355,0.2563913,-5.275113,0.01177893066308797,nan,nan,nan,nan,nan,13.765411138534546,14.965411138534545,0.005517482757568359,-0.2140686820725726,0.33122169710628446,0.0,-5.0,0.7332399338908512,0.0366477301289588,-0.1209058257694756,-0.015054689116501896,nan,nan,nan,nan
23.8837673664093,-0.3457186,0.23502721,-5.277861,0.013768185165101634,nan,nan,nan,nan,nan,13.879090070724487,15.079090070724487,0.0053539276123046875,-0.2692867532009638,0.3168204229130018,0.0,-5.0,0.7334061902903775,0.02862207721817412,-0.061405118670223614,-0.018502487186607918,nan,nan,nan,nan
23.975763082504272,-0.35523012,0.22037975,-5.2762966,0.014470500663096072,nan,nan,nan,nan,nan,13.971036434173584,15.171036434173583,0.006961822509765625,-0.30457646068939564,0.30236698786569516,0.0,-5.0,0.7335125465865541,0.006748545056463124,-0.04729615228276878,-0.020210395027764637,nan,nan,nan,nan
24.06945276260376,-0.3575565,0.1930582,-5.2731566,0.015045814633937503,nan,nan,nan,nan,nan,14.064889192581177,15.264889192581176,0.00503993034362793,-0.33069218920754123,0.28515305432161264,0.0,-5.0,0.733656018649668,0.012090792631549477,0.0459121042183914,-0.021524022770958467,nan,nan,nan,nan
24.180909156799316,-0.34133905,0.1667948,-5.2776246,0.015352794072440234,nan,nan,nan,nan,nan,14.176188945770264,15.376188945770263,0.0053653717041015625,-0.34754415986998904,0.2617118474730896,0.0,-5.0,0.7315372306192015,0.0059679704558574295,0.11078412223973523,-0.022767485675292513,nan,nan,nan,nan
24.27690601348877,-0.32217237,0.1478016,-5.2884846,0.015280665318591057,nan,nan,nan,nan,nan,14.272194147109985,15.472194147109985,0.005917787551879883,-0.34921298924310856,0.23904980920814162,0.0,-5.0,0.7288991556172444,-0.00861595630281099,0.12071759008333331,-0.02302988241253092,nan,nan,nan,nan
24.377254724502563,-0.27470312,0.11661605,-5.305598,0.014615152000191933,nan,nan,nan,nan,nan,14.372532367706299,15.572532367706298,0.00577855110168457,-0.338141248201483,0.21316963573150213,0.0,-5.0,0.7227465299201485,0.0028128454459241553,0.17004521750654739,-0.023188588494832112,nan,nan,nan,nan
24.472699880599976,-0.22785601,0.08957331,-5.3134747,0.013447707009119458,nan,nan,nan,nan,nan,14.467993259429932,15.667993259429931,0.006796121597290039,-0.31582180101864593,0.186683547249788,0.0,-5.0,0.7208339537600745,-0.00043804802063978184,0.17613603251069407,-0.022021666098132008,nan,nan,nan,nan
24.573638439178467,-0.1794003,0.063118875,-5.316698,0.011739121420308007,nan,nan,nan,nan,nan,14.569167137145996,15.769167137145995,0.007544040679931641,-0.28048081091014954,0.156883579768935,0.0,-5.0,0.7208160542030021,0.025814941848410808,0.20227702645478884,-0.019805883562546922,nan,nan,nan,nan
24.673490524291992,-0.10771111,0.030953543,-5.317684,0.010130758211979977,nan,nan,nan,nan,nan,14.668781042098999,15.868781042098998,0.005926370620727539,-0.23522585970955798,0.12607675936195897,0.0,-5.0,0.7223104636028507,0.02708109772953019,0.20979275106533052,-0.017481133257807306,nan,nan,nan,nan
24.78291130065918,-0.02641376,-0.013235884,-5.3152537,0.006643567054337352,nan,nan,nan,nan,nan,14.778184413909912,15.978184413909911,0.005155086517333984,-0.17557528101050732,0.09090762236043375,0.0,-5.0,0.7251505629876306,0.04291079520962762,0.20443000951806695,-0.013520888992527942,nan,nan,nan,nan
24.879217386245728,0.024225043,-0.04160273,-5.3140993,0.005118501702873212,nan,nan,nan,nan,nan,14.874497652053833,16.074497652053832,0.005635976791381836,-0.11648833874813772,0.059092488615544836,0.0,-5.0,0.7270149766228163,0.041649048890544146,0.18485589885278408,-0.01006474292425916,nan,nan,nan,nan
24.974507570266724,0.09195986,-0.0799704,-5.310925,0.003766673731293579,nan,nan,nan,nan,nan,14.969793558120728,16.169793558120727,0.006689310073852539,-0.054054521011850196,0.02710869578597588,0.0,-5.0,0.7289658129756418,0.044339334138542824,0.15270243540928588,-0.0074914560725568655,nan,nan,nan,nan
25.070538997650146,0.14080401,-0.10999986,-5.30559,0.0029819376795284154,nan,nan,nan,nan,nan,15.065959453582764,16.265959453582763,0.005423307418823242,0.010797262518793836,-0.005399273748546292,0.0,-5.0,0.7301528824020348,0.03298692128241833,0.14125504304420783,-0.005435611777370961,nan,nan,nan,nan
25.18359088897705,0.18710631,-0.14556663,-5.2917366,0.001954977815436695,nan,nan,nan,nan,nan,15.178871393203735,16.378871393203735,0.005218982696533203,0.08630157347384587,-0.04348778030733627,0.0,-5.0,0.7338330022949002,0.02917675490719491,0.12033271175316305,-0.002985499024934839,nan,nan,nan,nan
25.280829191207886,0.23473145,-0.18485053,-5.290995,0.0008105954357583971,nan,nan,nan,nan,nan,15.276138305664062,16.476138305664062,0.005289793014526367,0.14818853670548854,-0.07590046779227949,0.0,-5.0,0.7346033010134699,0.03156609765155912,0.07552895297905449,-0.0005367760625887436,nan,nan,nan,nan
25.380141258239746,0.26071805,-0.20889151,-5.2987223,0.00020878904919470996,nan,nan,nan,nan,nan,15.375410318374634,16.575410318374633,0.005574464797973633,0.20594939082994312,-0.10828796624443819,0.0,-5.0,0.7323278011558617,0.024561113214678583,0.06223132565715477,0.0017412811409151234,nan,nan,nan,nan
25.47090768814087,0.28410855,-0.23609664,-5.3075175,-0.00016664573008702728,nan,nan,nan,nan,nan,15.466216325759888,16.666216325759887,0.005049467086791992,0.2522096715376505,-0.13704813077809067,0.0,-5.0,0.7284447376622649,0.01827724613210412,0.031540876494127526,0.0033363528524259192,nan,nan,nan,nan
25.580587148666382,0.29346195,-0.2615593,-5.3146343,-3.1848884939228786e-05,nan,nan,nan,nan,nan,15.575873851776123,16.775873851776122,0.0055310726165771484,0.29762534254963574,-0.170352519265503,0.0,-5.0,0.7270198891216222,0.0031344201988025315,-0.001998990720799523,0.004069047788120526,nan,nan,nan,nan
25.675419092178345,0.28998578,-0.2805688,-5.3202906,-0.00014651118263328544,nan,nan,nan,nan,nan,15.670691967010498,16.870691967010497,0.0064487457275390625,0.3262106614547629,-0.19762142803609606,0.0,-5.0,0.7261204453917445,0.00323641269254128,-0.013531596033046121,0.004749368675473416,nan,nan,nan,nan
25.76710319519043,0.27174488,-0.30357262,-5.3218274,-0.0005090539172868495,nan,nan,nan,nan,nan,15.762377977371216,16.962377977371215,0.005423545837402344,0.3434636713223462,-0.22241416075280313,0.0,-5.0,0.7258015721567059,0.008806017763742468,-0.05947630247364115,0.005622707442832579,nan,nan,nan,nan
25.88229250907898,0.24583545,-0.32511163,-5.3218193,-0.0008981356636004294,nan,nan,nan,nan,nan,15.877562999725342,17.07756299972534,0.0052776336669921875,0.349851603619598,-0.25106456560637913,0.0,-5.0,0.7270054019749781,0.016133677884788748,-0.09919411964861719,0.0064523304480975305,nan,nan,nan,nan
25.974454402923584,0.22368592,-0.33854413,-5.321004,-0.0010071640685454936,nan,nan,nan,nan,nan,15.969764232635498,17.169764232635497,0.005767107009887695,0.34250133381964176,-0.27177331367416874,0.0,-5.0,0.7282042500780108,0.020996514877814322,-0.0964067725871213,0.0068437250968970435,nan,nan,nan,nan
26.081340789794922,0.1784538,-0.3600891,-5.318184,-0.0008370906736470309,nan,nan,nan,nan,nan,16.076608657836914,17.276608657836913,0.005732297897338867,0.32044100913931084,-0.29306244989578517,0.0,-5.0,0.729036058550326,0.03186689841398425,-0.12013981895796894,0.006603546680374956,nan,nan,nan,nan
26.176926851272583,0.12209007,-0.37780783,-5.3082747,-0.0002493671156580633,nan,nan,nan,nan,nan,16.17224621772766,17.37224621772766,0.006213188171386719,0.2890987687398011,-0.30947554082741224,0.0,-5.0,0.7310613157356602,0.034234778607362314,-0.1500827969991101,0.00526750296609628,nan,nan,nan,nan
26.269148111343384,0.079526715,-0.38710532,-5.3063765,0.00039201625711016846,nan,nan,nan,nan,nan,16.26443886756897,17.46443886756897,0.007157087326049805,0.24954147656778589,-0.32279686134916635,0.0,-5.0,0.7320118245137045,0.040598201279851684,-0.15249346426044189,0.004797437106528511,nan,nan,nan,nan
26.36718440055847,0.0121580595,-0.3974251,-5.3003764,0.0010482050192871586,nan,nan,nan,nan,nan,16.36245584487915,17.56245584487915,0.005205869674682617,0.19884724940972337,-0.334147858635806,0.0,-5.0,0.7317772645405588,0.027788574453285062,-0.17796947714199626,0.0023243059900809357,nan,nan,nan,nan
26.47821807861328,-0.05339094,-0.40063596,-5.2968287,0.0006454540325699851,nan,nan,nan,nan,nan,16.473529815673828,17.673529815673827,0.005761861801147461,0.13290401996665885,-0.34338363337319516,0.0,-5.0,0.7328117796590488,0.012899165773528525,-0.17729850215740905,0.0013060187573702686,nan,nan,nan,nan
26.58475971221924,-0.1012689,-0.3975705,-5.299439,-0.0007041434140856555,nan,nan,nan,nan,nan,16.580023288726807,17.780023288726806,0.005246162414550781,0.06390554374286676,-0.34852599059068945,0.0,-5.0,0.7309667663041072,-0.010024834532261,-0.15822959776951107,0.0026042869967829287,nan,nan,nan,nan
26.674442291259766,-0.14590658,-0.3947628,-5.305234,-0.0017911634265601294,nan,nan,nan,nan,nan,16.66971755027771,17.86971755027771,0.00565791130065918,0.0035743113051578644,-0.3499954371008204,0.0,-5.0,0.7294679078146328,-0.008052993709767878,-0.14946019576347824,0.003972083781671393,nan,nan,nan,nan
26.767877340316772,-0.20122874,-0.3910518,-5.304638,-0.0025052880344731826,nan,nan,nan,nan,nan,16.763285398483276,17.963285398483276,0.005179166793823242,-0.05944875105858155,-0.348726246945621,0.0,-5.0,0.728707446262441,-0.01650889023932531,-0.12068111731899063,0.004342678456328426,nan,nan,nan,nan
26.8776216506958,-0.24827269,-0.38334197,-5.3061132,-0.002509927576685434,nan,nan,nan,nan,nan,16.87291121482849,18.07291121482849,0.007038593292236328,-0.13067308713472467,-0.34361461774409424,0.0,-5.0,0.7298280513022604,-0.007149806525337843,-0.10059600458502926,0.004321684487639231,nan,nan,nan,nan
26.971056938171387,-0.27805945,-0.3721163,-5.308057,-0.002360351909530406,nan,nan,nan,nan,nan,16.96635389328003,18.16635389328003,0.005101203918457031,-0.18688413033105097,-0.336210764446368,0.0,-5.0,0.7298185025113436,0.003531978680382617,-0.09259568033409743,0.004468798572763213,nan,nan,nan,nan
27.077640056610107,-0.30680093,-0.35089186,-5.3091154,-0.0022517581367278196,nan,nan,nan,nan,nan,17.072906970977783,18.272906970977782,0.006253719329833984,-0.24346351236177627,-0.32442749370421226,0.0,-5.0,0.7297613503094585,-0.009619536426894351,-0.056830812918025796,0.0039209138596463106,nan,nan,nan,nan
27.16903257369995,-0.31933576,-0.33472863,-5.3090787,-0.0022666821057959786,nan,nan,nan,nan,nan,17.164304971694946,18.364304971694946,0.005277156829833984,-0.2838721055470269,-0.31157457159984087,0.0,-5.0,0.7304664199818937,-0.012140696472388354,-0.04660398896221505,0.004595456300221941,nan,nan,nan,nan
27.282679557800293,-0.32791403,-0.30530202,-5.3137703,-0.0025395791155554993,nan,nan,nan,nan,nan,17.277945518493652,18.47794551849365,0.005366325378417969,-0.3216680298623328,-0.29221724396725,0.0,-5.0,0.7299629657740371,-0.024619467619653456,-0.01759949032525675,0.00533329017767037,nan,nan,nan,nan
27.371176719665527,-0.32805333,-0.27703655,-5.319761,-0.0028216629332206474,nan,nan,nan,nan,nan,17.36647915840149,18.56647915840149,0.005332231521606445,-0.3404639317487978,-0.27468192423272086,0.0,-5.0,0.7282920497611785,-0.03546047910628897,0.014760892835688343,0.005980662025668938,nan,nan,nan,nan
27.466208934783936,-0.31993222,-0.24713857,-5.3264785,-0.002846833313892008,nan,nan,nan,nan,nan,17.461485147476196,18.661485147476196,0.00540924072265625,-0.349557429714059,-0.2536320583262238,0.0,-5.0,0.7268387631127824,-0.03388221570174537,0.04645146062284386,0.006515343104518313,nan,nan,nan,nan
27.57753300666809,-0.30084324,-0.2152151,-5.3340225,-0.00235697792105383,nan,nan,nan,nan,nan,17.572855710983276,18.772855710983276,0.006441354751586914,-0.34524543819002124,-0.2262487753363631,0.0,-5.0,0.726164323539105,-0.01691594467461627,0.05170323757158831,0.006934790646916832,nan,nan,nan,nan
27.668930530548096,-0.27473545,-0.18593265,-5.347233,-0.0013635969067156521,nan,nan,nan,nan,nan,17.664198398590088,18.864198398590087,0.005082845687866211,-0.329775919531718,-0.20181932699711164,0.0,-5.0,0.72304818995018,-0.019274923988953648,0.09526250486709935,0.00586032915037903,nan,nan,nan,nan
27.780784606933594,-0.22636218,-0.14200512,-5.3567634,8.500937943946296e-05,nan,nan,nan,nan,nan,17.776077032089233,18.976077032089233,0.006341695785522461,-0.29692860227366996,-0.16977563968225162,0.0,-5.0,0.721782829152788,-0.01540945979265865,0.11924719726489381,0.004572311035982298,nan,nan,nan,nan
27.87517547607422,-0.19709967,-0.11881291,-5.3586383,0.000624502548719038,nan,nan,nan,nan,nan,17.87050223350525,19.07050223350525,0.005852937698364258,-0.2583569331018693,-0.14117136921733447,0.0,-5.0,0.7222721917853941,-0.010745065582838255,0.1320605401468364,0.0033311983033284904,nan,nan,nan,nan
27.981498956680298,-0.13908368,-0.077920586,-5.357532,0.0012103560240191843,nan,nan,nan,nan,nan,17.976778507232666,19.176778507232665,0.005990266799926758,-0.2047500302724144,-0.10758352436073468,0.0,-5.0,0.7233913763943481,-0.022038619079271328,0.16872821496253548,0.0021401565989474106,nan,nan,nan,nan
28.079658031463623,-0.08278347,-0.04354345,-5.352948,0.001522156981922364,nan,nan,nan,nan,nan,18.074926376342773,19.274926376342773,0.007491111755371094,-0.14753556444063606,-0.07554879060469515,0.0,-5.0,0.7255402190320676,-0.030360546782869584,0.1954562872100032,0.0014839151205677617,nan,nan,nan,nan
28.174952030181885,-0.00951557,-0.008019554,-5.347228,0.0012433572940003736,nan,nan,nan,nan,nan,18.170286893844604,19.370286893844604,0.005586385726928711,-0.08685341905520841,-0.043770331972253496,0.0,-5.0,0.7273932248191012,-0.023498326566945973,0.20930507119473227,0.0009165378888945386,nan,nan,nan,nan
28.26837968826294,0.05114683,0.020292966,-5.3418365,-1.7824254905373987e-05,nan,nan,nan,nan,nan,18.263651371002197,19.463651371002197,0.005215167999267578,-0.024575088383453847,-0.012295132896265859,0.0,-5.0,0.7290715635241083,-0.012676766444068873,0.21248861941598737,0.00059791514115445,nan,nan,nan,nan
28.369911670684814,0.09326807,0.042128697,-5.337671,-0.0010740783890588437,nan,nan,nan,nan,nan,18.36517834663391,19.56517834663391,0.005157470703125,0.043986355931757294,0.022036901632372277,0.0,-5.0,0.7305918663913598,0.0004915687570516618,0.20955175435228773,0.0010855344223041881,nan,nan,nan,nan
28.481065273284912,0.15018514,0.07764015,-5.3324375,-0.0020406880250479964,nan,nan,nan,nan,nan,18.476330995559692,19.67633099555969,0.005716562271118164,0.11701692771088094,0.05936879745201759,0.0,-5.0,0.7322425356176857,-0.005532290903310774,0.16908643991524425,0.001592198649977559,nan,nan,nan,nan
28.571438789367676,0.19428214,0.11195714,-5.329609,-0.002481261680191232,nan,nan,nan,nan,nan,18.56674861907959,19.76674861907959,0.005439281463623047,0.17260093913228197,0.08925108991211532,0.0,-5.0,0.7325745901430979,-0.017889953248898895,0.11088585382341705,0.0017243853721407836,nan,nan,nan,nan
28.66894030570984,0.21300012,0.13641773,-5.32719,-0.0025525188157410764,nan,nan,nan,nan,nan,18.664217472076416,19.864217472076415,0.0050907135009765625,0.22658176195689453,0.12069408902715158,0.0,-5.0,0.7329072041346893,-0.023664153773275628,0.08124009310203872,0.0004564311059566614,nan,nan,nan,nan
28.7769513130188,0.23302187,0.16983205,-5.3241253,-0.002531750260112238,nan,nan,nan,nan,nan,18.772247076034546,19.972247076034545,0.007020235061645508,0.2769672516324737,0.1542815750138636,0.0,-5.0,0.7330399002566254,-0.034745312669344386,0.025397543497814628,-0.0006014725948387344,nan,nan,nan,nan
28.869967937469482,0.23772651,0.19906847,-5.3220754,-0.0023477664336483007,nan,nan,nan,nan,nan,18.86525249481201,20.06525249481201,0.005229949951171875,0.31077075356442607,0.18186452984026866,0.0,-5.0,0.732463692117847,-0.040825955373418696,-0.02645766266050674,-0.0009787289274871096,nan,nan,nan,nan
28.980144500732422,0.22511004,0.2278549,-5.321616,-0.0019665352532856504,nan,nan,nan,nan,nan,18.975476503372192,20.17547650337219,0.006081819534301758,0.33779100414390034,0.21263495158071472,0.0,-5.0,0.7322733897982094,-0.040687955276171583,-0.05902271589856581,-0.0022626902557719196,nan,nan,nan,nan
29.072205543518066,0.20878449,0.24441995,-5.3235173,-0.001685272231204087,nan,nan,nan,nan,nan,19.06758403778076,20.26758403778076,0.005058765411376953,0.348681258826674,0.2365121739192696,0.0,-5.0,0.7312196321291542,-0.03834726569601899,-0.07302644096656813,-0.003251261099588928,nan,nan,nan,nan
29.18249011039734,0.1658288,0.2699411,-5.318039,-0.0011186115731248968,nan,nan,nan,nan,nan,19.17776656150818,20.377766561508178,0.0059206485748291016,0.34721749311709305,0.2625985057469562,0.0,-5.0,0.7307210979089899,-0.02945717249581036,-0.1237716934072586,-0.003850903903242878,nan,nan,nan,nan
29.276273012161255,0.13460556,0.2817772,-5.3121176,-0.0006529614840810986,nan,nan,nan,nan,nan,19.271562576293945,20.471562576293945,0.00629425048828125,0.33358117868431214,0.2824708109442645,0.0,-5.0,0.7322506751023891,-0.02577403148166647,-0.1321449252876398,-0.004340296185051937,nan,nan,nan,nan
29.36843180656433,0.08215767,0.29489034,-5.3016796,0.00019733955784355384,nan,nan,nan,nan,nan,19.363697290420532,20.56369729042053,0.0053369998931884766,0.30953228480355344,0.2997328046085517,0.0,-5.0,0.7338711722884674,-0.013009087088212645,-0.15783720390476985,-0.004723054732230169,nan,nan,nan,nan
29.480550050735474,0.031420328,0.30090377,-5.2909436,0.0009086881043331475,nan,nan,nan,nan,nan,19.475831270217896,20.675831270217895,0.006529092788696289,0.2671474463075252,0.3175244385759625,0.0,-5.0,0.7356944593555566,0.003114084603705162,-0.1549313356246107,-0.005064027395197344,nan,nan,nan,nan
29.582636833190918,-0.027900973,0.30476308,-5.2765827,0.0018634090919288897,nan,nan,nan,nan,nan,19.5781307220459,20.778130722045898,0.005177497863769531,0.2175091484966995,0.33050917991632767,0.0,-5.0,0.7374306235663931,0.0008011993778604055,-0.1390711490284555,-0.005423994997749862,nan,nan,nan,nan
29.68397283554077,-0.06460771,0.3058688,-5.272112,0.0022724267539687027,nan,nan,nan,nan,nan,19.679312467575073,20.879312467575073,0.005330801010131836,0.16006369614043828,0.3401758480749783,0.0,-5.0,0.7381361075783515,0.004425599665661991,-0.13516618221452395,-0.005645906373583267,nan,nan,nan,nan
29.783637762069702,-0.12066278,0.30480722,-5.2718754,0.002849169351523434,nan,nan,nan,nan,nan,19.778925895690918,20.978925895690917,0.005689382553100586,0.09753258736662053,0.34651666022059957,0.0,-5.0,0.7361050615723876,0.0030808552444001607,-0.13173483276294135,-0.005529528943646283,nan,nan,nan,nan
29.87956690788269,-0.15938799,0.3002855,-5.274425,0.003407159545384158,nan,nan,nan,nan,nan,19.87484312057495,21.07484312057495,0.007088184356689453,0.03388552778256746,0.3495887110767417,0.0,-5.0,0.7336892688361814,-0.0091927662664045,-0.13207094397731672,-0.005768646543917219,nan,nan,nan,nan
