time,x,y,z,yaw,platform,trajectory,traj_double,traj_short,traj_spin,traj_time,ref_time,comptime,x_ref,y_ref,yaw_ref,z_ref,throttle_input,p_input,q_input,r_input,cbf_term_pitch_cbf,cbf_term_roll_cbf,cbf_term_thrust_cbf,cbf_term_yaw_cbf
10.00510549545288,-0.05948455,-0.0109040635,-2.905011,-0.004550775694452804,SIM,HELIX,DblSpd,Not Short,Spin,1.430511474609375e-06,1.2000014305114746,0.007310152053833008,-0.5952690911487382,0.0751977999874684,0.3769915678392091,-2.48000057220459,0.7473278998660753,0.0,0.0,0.0,nan,nan,nan,nan
10.144856452941895,-0.06404889,-0.0033652,-2.9169743,-0.004071482405298894,nan,nan,nan,nan,nan,0.13984274864196777,1.3398427486419677,0.0067555904388427734,-0.5847692592102898,-0.13433135703419707,0.42092401360991616,-2.535937099456787,0.7229850567965119,-0.40508199544374984,-0.3463419388889089,0.5562419357129478,nan,nan,nan,nan
10.207705736160278,-0.06475409,-0.00084174116,-2.9190953,-0.003192270422290554,nan,nan,nan,nan,nan,0.20262813568115234,1.4026281356811523,0.005955696105957031,-0.55639480523236,-0.22455471651792186,0.44064862467742555,-2.561051254272461,0.7311496787357282,-0.21998301665623052,-0.5847356974763032,0.7999999999998849,nan,nan,nan,nan
10.317643165588379,-0.06583785,0.009036307,-2.9249382,0.004944806355901017,nan,nan,nan,nan,nan,0.31255102157592773,1.5125510215759277,0.010915756225585938,-0.4740458472411577,-0.3678050226864948,0.4751819177562671,-2.605020408630371,0.7388175679263528,-0.0995740868132495,-0.5749894444293776,0.7999999999999983,nan,nan,nan,nan
10.408493995666504,-0.07049777,0.014484546,-2.9266536,0.011449431757951921,nan,nan,nan,nan,nan,0.40344667434692383,1.6034466743469238,0.005890607833862305,-0.3784353810903006,-0.46560354631278195,0.5037376292551281,-2.6413786697387693,0.7482399278064694,0.0035982330127359297,-0.5445657717786615,0.7999999999998035,nan,nan,nan,nan
10.52301287651062,-0.07589845,0.019592933,-2.9305282,0.025163553582916026,nan,nan,nan,nan,nan,0.5179398059844971,1.717939805984497,0.005879402160644531,-0.23073832670992123,-0.5538590295256597,0.539706707379037,-2.687175922393799,0.759005729257524,0.1300996183960807,-0.48034238577537475,0.7999999999999999,nan,nan,nan,nan
10.606947422027588,-0.071059614,0.023358159,-2.9368553,0.0347579733881197,nan,nan,nan,nan,nan,0.6018524169921875,1.8018524169921875,0.005827903747558594,-0.10968367963155247,-0.58988938829452,0.5660686316075668,-2.720740966796875,0.7665301773859063,0.22828045360968116,-0.41678540737471587,0.7999999999999977,nan,nan,nan,nan
10.718437671661377,-0.062480442,0.028148128,-2.9510825,0.05165718641359936,nan,nan,nan,nan,nan,0.7133643627166748,1.9133643627166748,0.0065343379974365234,0.0577624973430491,-0.5972131059351379,0.6011011425551221,-2.76534574508667,0.7723595643757251,0.32156922567152096,-0.2858946878581913,0.7999999999999304,nan,nan,nan,nan
10.822213649749756,-0.046412215,0.038362198,-2.9916384,0.09560907306327897,nan,nan,nan,nan,nan,0.8171024322509766,2.0171024322509767,0.0058917999267578125,0.2097590086629727,-0.5621398031492939,0.6336914182697772,-2.8068409729003907,0.7590516741066267,0.20451671961559295,0.11973845014816063,0.7999999999999223,nan,nan,nan,nan
10.906736612319946,-0.033187546,0.046752345,-3.017169,0.12346426941043442,nan,nan,nan,nan,nan,0.9016225337982178,2.101622533798218,0.0052607059478759766,0.32355923500916506,-0.5052815269137433,0.6602441912799248,-2.8406490135192874,0.7491608078249967,0.10220404029991068,0.33614774013952486,0.7999999999999999,nan,nan,nan,nan
11.022523880004883,0.010048146,0.075054675,-3.0906649,0.20927199660140552,nan,nan,nan,nan,nan,1.0174212455749512,2.2174212455749513,0.0061190128326416016,0.4549397292206832,-0.39119028972689424,0.6966234295012196,-2.886968498229981,0.7336396042505735,-0.024014742561314365,0.49446047673863636,0.7999999999999999,nan,nan,nan,nan
11.094872951507568,0.025612867,0.08807624,-3.114928,0.24222966184536876,nan,nan,nan,nan,nan,1.0902938842773438,2.290293884277344,0.0069887638092041016,0.5185770981104727,-0.30179097619929107,0.7195170441407336,-2.916117553710938,0.7280601458351004,-0.08336941708618702,0.5451948536888317,0.799999999999977,nan,nan,nan,nan
11.219840288162231,0.065043904,0.13762158,-3.1782024,0.3486449512354731,nan,nan,nan,nan,nan,1.2148308753967285,2.4148308753967287,0.006979703903198242,0.5863067521740857,-0.1274534909489547,0.7586414937808172,-2.9659323501586914,0.7218559028032274,-0.1998860224016776,0.4606671515426924,0.7999999999999994,nan,nan,nan,nan
11.31032109260559,0.0836241,0.18122452,-3.2248292,0.43215579115244984,nan,nan,nan,nan,nan,1.3053834438323975,2.5053834438323976,0.006238698959350586,0.5999450819989169,0.008117794362560249,0.7870894221569357,-3.002153377532959,0.7234164981996658,-0.26153642919678965,0.34603014356558354,0.7999999992533207,nan,nan,nan,nan
11.411322116851807,0.08814567,0.23044834,-3.2698162,0.5155437771513267,nan,nan,nan,nan,nan,1.4064087867736816,2.606408786773682,0.007698535919189453,0.5786712219582909,0.15855477563699685,0.8188274696780085,-3.0425635147094727,0.7278465036530526,-0.3123094425544803,0.23524705601205606,0.744899108043497,nan,nan,nan,nan
11.509117603302002,0.081655726,0.2705043,-3.305509,0.5842881192451932,nan,nan,nan,nan,nan,1.5040483474731445,2.7040483474731447,0.005580425262451172,0.5228158511664397,0.29438679618677055,0.8495018423373252,-3.081619338989258,0.7339220049404676,-0.3585877447678105,0.12419870647258024,0.5929446027019564,nan,nan,nan,nan
11.61497163772583,0.051543437,0.31808096,-3.3593614,0.6773797279749383,nan,nan,nan,nan,nan,1.6099965572357178,2.809996557235718,0.008457183837890625,0.42692505416344395,0.42158628787893526,0.8827864540824342,-3.123998622894287,0.7329319211916056,-0.3688383826926172,-0.039119649052118774,0.5609621618886332,nan,nan,nan,nan
11.724042415618896,-0.00038946723,0.34025085,-3.412578,0.7623058953526707,nan,nan,nan,nan,nan,1.7189536094665527,2.918953609466553,0.0056078433990478516,0.29700846113977314,0.5213309639867786,0.9170163215669532,-3.1675814437866214,0.7305920137113878,-0.34598122160344064,-0.1805107381716256,0.489260918277816,nan,nan,nan,nan
11.807406425476074,-0.047505528,0.34192482,-3.4509053,0.8231722965035271,nan,nan,nan,nan,nan,1.8022916316986084,3.0022916316986086,0.006323099136352539,0.18212057437495507,0.5716923091920482,0.9431977334078462,-3.2009166526794437,0.729237423966552,-0.32678966700115747,-0.27036154836937276,0.43997132956749085,nan,nan,nan,nan
11.913413047790527,-0.10563265,0.3274209,-3.489618,0.8895192976759863,nan,nan,nan,nan,nan,1.9083380699157715,3.1083380699157717,0.0065457820892333984,0.02511825590296767,0.5994739971178008,0.9765132045320865,-3.2433352279663086,0.7301618510435584,-0.2985357962101444,-0.3556501405338328,0.3160014898063515,nan,nan,nan,nan
12.022629976272583,-0.19026342,0.27763036,-3.547343,0.9798431470251804,nan,nan,nan,nan,nan,2.0175981521606445,3.2175981521606447,0.005530595779418945,-0.1383776800812061,0.5838249888925133,1.0108382717031974,-3.287039260864258,0.7251821275037362,-0.18725419954103042,-0.44488717869319755,0.32666987832435407,nan,nan,nan,nan
12.10971450805664,-0.23609519,0.22871439,-3.5851555,1.0303785207668286,nan,nan,nan,nan,nan,2.104612112045288,3.3046121120452883,0.006466388702392578,-0.26174325419856204,0.5398985727722818,1.0381745134165328,-3.3218448448181155,0.7255357720531028,-0.1333301811710949,-0.4786003867685761,0.2743002270475983,nan,nan,nan,nan
12.218924045562744,-0.27826118,0.15453446,-3.6308365,1.0879734378546964,nan,nan,nan,nan,nan,2.214155673980713,3.414155673980713,0.006282329559326172,-0.3986564790201534,0.4484116543258594,1.0725886383589718,-3.3656622695922853,0.726622659514884,-0.04033392099509317,-0.5032381628335713,0.1575115947091458,nan,nan,nan,nan
12.304864883422852,-0.30606797,0.05553165,-3.6896093,1.1453118448409187,nan,nan,nan,nan,nan,2.300203561782837,3.500203561782837,0.009321451187133789,-0.48559056196615025,0.35242276619054896,1.0996213795765788,-3.400081424713135,0.7259371958398063,0.04575905232180773,-0.5082564603404998,0.12757153911878866,nan,nan,nan,nan
12.417883157730103,-0.31339154,-0.04417066,-3.7418041,1.1910963622690953,nan,nan,nan,nan,nan,2.4128470420837402,3.6128470420837404,0.0082550048828125,-0.5647055173612459,0.202750286465316,1.1350093725953894,-3.4451388168334964,0.72612095543024,0.14728380069564137,-0.501898054340782,0.10012888136730506,nan,nan,nan,nan
12.507118701934814,-0.30205864,-0.13658145,-3.788697,1.2284424185248948,nan,nan,nan,nan,nan,2.5020220279693604,3.7020220279693605,0.005737781524658203,-0.5956432918798035,0.07217387919871866,1.163024520649613,-3.480808811187744,0.726050550848105,0.24481968967082574,-0.4582936112240498,0.07809447081285253,nan,nan,nan,nan
12.62543511390686,-0.248731,-0.27158654,-3.8580596,1.2802698802199242,nan,nan,nan,nan,nan,2.620361566543579,3.8203615665435793,0.007459878921508789,-0.5906429290898092,-0.10555060547533833,1.2002019831510102,-3.528144626617432,0.7242620059353574,0.3663855239404496,-0.34277136227743743,0.12422452824869316,nan,nan,nan,nan
12.722798585891724,-0.2052193,-0.33408353,-3.8912456,1.3043561577374372,nan,nan,nan,nan,nan,2.71768856048584,3.91768856048584,0.006156206130981445,-0.5474986946481801,-0.24544893431941966,1.2307781600675087,-3.567075424194336,0.7272233964215156,0.42330821193218665,-0.26632178706512816,0.14400006953387753,nan,nan,nan,nan
12.824790716171265,-0.12088532,-0.42103267,-3.9305525,1.3370970087742557,nan,nan,nan,nan,nan,2.8196887969970703,4.0196887969970705,0.0056803226470947266,-0.46737180297572833,-0.3762493824356619,1.262822479436319,-3.6078755187988283,0.7331659221388694,0.4590101179748166,-0.12518034758718521,0.1387886697574074,nan,nan,nan,nan
12.912421941757202,-0.04556133,-0.4609635,-3.9596925,1.3571648930673765,nan,nan,nan,nan,nan,2.9075467586517334,4.107546758651734,0.011543750762939453,-0.37361749903494,-0.46947839611091435,1.2904238721256853,-3.6430187034606933,0.7373715322586282,0.45547176431774067,-0.013796694716038857,0.1630668220993939,nan,nan,nan,nan
13.014399528503418,0.049892142,-0.48344383,-3.9957006,1.3765841094914748,nan,nan,nan,nan,nan,3.0093510150909424,4.209351015090943,0.006490230560302734,-0.2426392367455928,-0.5487496704249727,1.3224066225390443,-3.683740406036377,0.7397805317909012,0.42666721281699505,0.12059968946498632,0.21769668048004376,nan,nan,nan,nan
13.118003368377686,0.14087069,-0.4783442,-4.027017,1.3932944484198222,nan,nan,nan,nan,nan,3.113001823425293,4.313001823425293,0.008554935455322266,-0.0931131892993171,-0.5927309119478328,1.3549694843392284,-3.7252007293701173,0.7414693174641812,0.3968641476876984,0.22502663331717834,0.19112939648252553,nan,nan,nan,nan
13.210975170135498,0.23702282,-0.44235143,-4.055274,1.413775281412906,nan,nan,nan,nan,nan,3.2063181400299072,4.406318140029907,0.006833553314208984,0.047177892737807585,-0.5981423295811958,1.3842856698097399,-3.762527256011963,0.7416956081051322,0.3397132721300906,0.34348006567063766,0.22824687363398355,nan,nan,nan,nan
13.316136360168457,0.30509683,-0.3892785,-4.0758862,1.4331465859857422,nan,nan,nan,nan,nan,3.311129331588745,4.511129331588745,0.00773167610168457,0.20129682545232855,-0.5652252542684331,1.4172130767512636,-3.8044517326354983,0.745825393828536,0.2866572554269529,0.4344241914116722,0.10780756108991221,nan,nan,nan,nan
13.420739889144897,0.37227595,-0.308985,-4.1011224,1.4581172616406572,nan,nan,nan,nan,nan,3.4157192707061768,4.615719270706177,0.0070362091064453125,0.3412540448705799,-0.49350347198319505,1.4500709751883363,-3.8462877082824707,0.7494409043194638,0.2487173910264411,0.4966100637702966,0.11750038175740421,nan,nan,nan,nan
13.522942304611206,0.43012607,-0.19020745,-4.13212,1.4892810006063382,nan,nan,nan,nan,nan,3.517848014831543,4.717848014831543,0.006224393844604492,0.45535905350957306,-0.390702101845979,1.4821556664147966,-3.8871392059326175,0.7446217375037082,0.08287632400098952,0.5499972161136689,0.21788293861268263,nan,nan,nan,nan
13.625208139419556,0.4504933,-0.10462912,-4.154122,1.5095358043516458,nan,nan,nan,nan,nan,3.620117425918579,4.820117425918579,0.007636070251464844,0.53972052932469,-0.2621101871837044,1.5142845494705952,-3.928046970367432,0.7503465070085031,0.012771559033481735,0.5610733772034109,0.131148867831434,nan,nan,nan,nan
13.72243070602417,0.45037243,0.009362871,-4.188355,1.5370592923056396,nan,nan,nan,nan,nan,3.7173588275909424,4.917358827590943,0.016033172607421875,0.5871046809940308,-0.12372588069962284,1.5448338367824623,-3.966943531036377,0.7503902815718788,-0.10563577414989286,0.5324209721117308,0.14018921793115258,nan,nan,nan,nan
13.807991981506348,0.43602112,0.09688328,-4.2211614,1.5576503514017983,nan,nan,nan,nan,nan,3.8031396865844727,5.003139686584473,0.006734371185302734,0.5999813202390045,0.004734486694575744,1.571782688425732,-4.001255874633789,0.7528656595775949,-0.14694198813399845,0.5266634014749505,0.1459210499923929,nan,nan,nan,nan
13.905908346176147,0.40313467,0.19681484,-4.2653837,1.5819320560789694,nan,nan,nan,nan,nan,3.9008610248565674,5.100861024856568,0.0062634944915771484,0.5808256385283037,0.15047118537510182,1.6024827522671896,-4.040344409942628,0.7466066741307192,-0.31529401248276184,0.4245502428621327,0.15403491080298382,nan,nan,nan,nan
14.024018287658691,0.3224015,0.32448077,-4.336119,1.6174530570035852,nan,nan,nan,nan,nan,4.018939733505249,5.218939733505249,0.005796670913696289,0.5114345476658321,0.31374305323599705,1.6395782726307964,-4.0875758934021,0.7365442262378005,-0.4279364950486323,0.3025593205605563,0.24143211122722805,nan,nan,nan,nan
14.110352993011475,0.25513905,0.38002822,-4.3771076,1.6393413660814575,nan,nan,nan,nan,nan,4.105265378952026,5.3052653789520265,0.008865118026733398,0.431907731235457,0.4164801456240624,1.6666982739859957,-4.122106151580811,0.736272387829656,-0.4688618799514456,0.22525778398914467,0.24933320427314687,nan,nan,nan,nan
14.216424942016602,0.16561212,0.41975245,-4.423606,1.6643728187552633,nan,nan,nan,nan,nan,4.211364269256592,5.411364269256592,0.008386373519897461,0.3068977458205911,0.5155713079780913,1.7000302234194808,-4.164545707702637,0.7357490432293223,-0.4903520460934256,0.1145856177215417,0.2776595072297609,nan,nan,nan,nan
14.311660289764404,0.08060664,0.4269876,-4.463658,1.6895017390247484,nan,nan,nan,nan,nan,4.30662989616394,5.506629896163941,0.012922048568725586,0.1758765697405673,0.5736439943172867,1.729958802782656,-4.202651958465577,0.7352354114661372,-0.4912132353697037,-0.01995430188090802,0.2685213669391951,nan,nan,nan,nan
14.412794351577759,0.01728387,0.41462612,-4.4904265,1.709494451983279,nan,nan,nan,nan,nan,4.4081995487213135,5.608199548721314,0.008124113082885742,0.025326956293097096,0.5994652160759018,1.7618678502128473,-4.243279819488525,0.740876729557287,-0.5054801381943572,-0.08048848110119085,0.18473134905386782,nan,nan,nan,nan
14.519246339797974,-0.06374273,0.37433398,-4.5241947,1.738539376682041,nan,nan,nan,nan,nan,4.514206409454346,5.714206409454346,0.008010149002075195,-0.13339596719688357,0.5849833467164753,1.7951708877037482,-4.285682563781738,0.7402052420552062,-0.4820784076288081,-0.2513566551630147,0.1782974293835955,nan,nan,nan,nan
14.608568668365479,-0.13903782,0.30546698,-4.5595937,1.7717152463641683,nan,nan,nan,nan,nan,4.603731870651245,5.803731870651245,0.014585018157958984,-0.260548203569622,0.5404763025486342,1.82329614082429,-4.321492748260498,0.7336073829270282,-0.4054128486554059,-0.4186077655416294,0.16429492067972898,nan,nan,nan,nan
14.70236086845398,-0.20108078,0.22337423,-4.591821,1.80390906156059,nan,nan,nan,nan,nan,4.6976637840271,5.8976637840271,0.006706953048706055,-0.3797333521357485,0.4645455642622665,1.8528057217242118,-4.35906551361084,0.7303388941589203,-0.34694565388330645,-0.48554024053712125,0.2920107393475325,nan,nan,nan,nan
14.806632280349731,-0.26183766,0.099015154,-4.6336083,1.8470950251623521,nan,nan,nan,nan,nan,4.801530361175537,6.001530361175537,0.013811588287353516,-0.486763052682308,0.35080155436286287,1.8854363692965166,-4.400612144470215,0.7375269227489983,-0.2954622571075522,-0.4974124782710693,0.15728816352435704,nan,nan,nan,nan
14.922181129455566,-0.29548216,-0.055726845,-4.6835237,1.8985416938882205,nan,nan,nan,nan,nan,4.917172431945801,6.117172431945801,0.0069522857666015625,-0.5668761830310666,0.19659957556446733,1.9217663972942938,-4.44686897277832,0.7388890757915626,-0.11582970565528443,-0.46963666133540544,0.23004284144418238,nan,nan,nan,nan
15.020966291427612,-0.29102495,-0.18817386,-4.7344074,1.9408328869324047,nan,nan,nan,nan,nan,5.015941381454468,6.215941381454468,0.01058816909790039,-0.597803203452501,0.05129649054202123,1.9527955779122146,-4.486376552581787,0.7416642033382532,0.01661839235437496,-0.41072344183411735,0.2513426292874297,nan,nan,nan,nan
15.0963613986969,-0.28032485,-0.24150826,-4.759026,1.9575702816853433,nan,nan,nan,nan,nan,5.091563701629639,6.291563701629639,0.011711359024047852,-0.5967293471263022,-0.06256265881671812,1.9765530304631878,-4.5166254806518555,0.7460891206774378,0.0911972301574991,-0.36013124891182235,0.13447938146125094,nan,nan,nan,nan
15.222713232040405,-0.21890111,-0.37284383,-4.829022,2.0008969732723605,nan,nan,nan,nan,nan,5.2176878452301025,6.417687845230103,0.007532835006713867,-0.5474991358745808,-0.24544795011689802,2.0161760987607398,-4.567075138092041,0.7339942627407138,0.3072687764037124,-0.2567585954881284,0.19667138758555716,nan,nan,nan,nan
15.325071573257446,-0.15984917,-0.4345599,-4.8722534,2.0233067478439546,nan,nan,nan,nan,nan,5.31998085975647,6.51998085975647,0.006838798522949219,-0.46709549733456623,-0.37659234773130246,2.048312397055699,-4.6079923439025885,0.7312654017913482,0.41107191659145137,-0.19711567228436702,0.13405995725248865,nan,nan,nan,nan
15.425408601760864,-0.05598898,-0.5037738,-4.9329042,2.0530594809740963,nan,nan,nan,nan,nan,5.420315265655518,6.620315265655518,0.006642818450927734,-0.3583618047759307,-0.48122428957580443,2.079833380303173,-4.6481261062622075,0.7164933883292369,0.529693155399686,-0.13867510148469062,0.16998869855398552,nan,nan,nan,nan
15.526327848434448,0.020059735,-0.53590083,-4.9688416,2.070614188379735,nan,nan,nan,nan,nan,5.521450519561768,6.721450519561768,0.015306949615478516,-0.22584249666378117,-0.5558733369218837,2.1116059573722548,-4.688580207824708,0.7153178987171214,0.575465640016621,-0.12802372812105664,0.14327410826755055,nan,nan,nan,nan
15.610785961151123,0.1032651,-0.56085527,-5.0004544,2.0861246823740864,nan,nan,nan,nan,nan,5.605985403060913,6.805985403060913,0.016198158264160156,-0.10355049869263314,-0.590996864814448,2.138163374269553,-4.722394161224366,0.7099167363454083,0.6140307155201796,-0.104089747196634,0.14552633067866488,nan,nan,nan,nan
15.707608699798584,0.22177912,-0.58082485,-5.042513,2.1075967001231,nan,nan,nan,nan,nan,5.702558517456055,6.902558517456055,0.007222414016723633,0.04152404654722587,-0.5985614033316413,2.1685027129413594,-4.761023406982422,0.7040596440921424,0.538918058952929,-0.05870329480613786,0.21831546309597696,nan,nan,nan,nan
15.813502550125122,0.3051947,-0.5890632,-5.06991,2.1233545763575474,nan,nan,nan,nan,nan,5.808535575866699,7.008535575866699,0.007451295852661133,0.1976079733046215,-0.5665254529908078,2.2017963877565534,-4.80341423034668,0.708445646705792,0.4495950506841631,-0.044539122516395406,0.19098595100040458,nan,nan,nan,nan
15.908650636672974,0.37033188,-0.5897616,-5.0905886,2.1371272984797534,nan,nan,nan,nan,nan,5.9035563468933105,7.103556346893311,0.007300615310668945,0.326011174355377,-0.5037030019718246,2.231648043376117,-4.841422538757325,0.7124460941221891,0.3573830035076383,-0.05597492293920573,0.1915665733585023,nan,nan,nan,nan
16.01411724090576,0.4432931,-0.57912976,-5.115343,2.1573648503215104,nan,nan,nan,nan,nan,6.009168863296509,7.209168863296509,0.0067501068115234375,0.4467289823391128,-0.4005411543627703,2.2648271939420592,-4.883667545318604,0.7135230134877815,0.1622321318684166,-0.026799938504382673,0.23175396456128078,nan,nan,nan,nan
16.1065514087677,0.47261566,-0.5697565,-5.1315813,2.1723210489063476,nan,nan,nan,nan,nan,6.10152006149292,7.30152006149292,0.009113788604736328,0.5268844436138597,-0.2870414309428406,2.293840178522465,-4.920608024597168,0.7120582902737048,0.02581348768283185,-0.010421745841991506,0.23709344841708108,nan,nan,nan,nan
16.21094512939453,0.4763935,-0.5542627,-5.1440277,2.192537910295997,nan,nan,nan,nan,nan,6.205865859985352,7.405865859985352,0.007991552352905273,0.5832864525801081,-0.14063041718103925,2.3266213779201435,-4.962346343994141,0.7059642808827884,-0.15849248309214772,0.03569225262139659,0.22776524056634623,nan,nan,nan,nan
16.305009365081787,0.45407376,-0.53396064,-5.1468916,2.2118795899785955,nan,nan,nan,nan,nan,6.299989461898804,7.499989461898804,0.0065267086029052734,0.5999999997895612,-1.589108222149051e-05,2.3561911795502146,-4.9999957847595216,0.7007658304674871,-0.29393697940904556,0.07057668277757807,0.23163536433629864,nan,nan,nan,nan
16.41404676437378,0.39601913,-0.50373274,-5.142105,2.2389243653513846,nan,nan,nan,nan,nan,6.408968925476074,7.608968925476074,0.008612394332885742,0.5776390565638149,-0.1622748296319114,2.3904280877668658,-4.95641242980957,0.6960982398587747,-0.4297949711207653,0.15692304695892362,0.23095467320970212,nan,nan,nan,nan
16.52206516265869,0.32371476,-0.47477892,-5.1299996,2.263590638270437,nan,nan,nan,nan,nan,6.517092227935791,7.717092227935791,0.006342649459838867,0.5128858284803162,-0.3113649417388857,2.424396025035797,-4.9131631088256835,0.6916441204647571,-0.5086940460460717,0.19738391916511688,0.29650328073385107,nan,nan,nan,nan
16.61276650428772,0.24969816,-0.44281057,-5.109905,2.2833869845836556,nan,nan,nan,nan,nan,6.6076884269714355,7.807688426971436,0.005315065383911133,0.42936346410702203,-0.41910263145203225,2.452857660369151,-4.876924629211426,0.6915168882081444,-0.5365007303461058,0.265156442027549,0.30815443465072717,nan,nan,nan,nan
16.71123194694519,0.13534181,-0.38384175,-5.0771875,2.3092015947425373,nan,nan,nan,nan,nan,6.7061192989349365,7.906119298934937,0.005486488342285156,0.31366717094775637,-0.5114810904321204,2.483780630793848,-4.837552280426025,0.6992818988142315,-0.45652730872831465,0.37195041869837403,0.2209063423646732,nan,nan,nan,nan
16.808974266052246,0.051863573,-0.3332341,-5.0493455,2.3254330421802454,nan,nan,nan,nan,nan,6.803934812545776,8.003934812545776,0.006208181381225586,0.17975807379774214,-0.5724395469431908,2.5145102806905406,-4.798426074981689,0.7022933372438525,-0.41558902869069436,0.40992483731312984,0.3310173389373815,nan,nan,nan,nan
16.911841869354248,-0.06874236,-0.24609615,-4.999305,2.3462750895428384,nan,nan,nan,nan,nan,6.906729221343994,8.106729221343993,0.005429267883300781,0.02754200356900898,-0.5993675316860304,2.5468040966415995,-4.757308311462403,0.7156291291764283,-0.20052971479200124,0.44375053594111297,0.23127640996435497,nan,nan,nan,nan
17.0102756023407,-0.14267732,-0.18065481,-4.960464,2.357827994414299,nan,nan,nan,nan,nan,7.005171298980713,8.205171298980712,0.0056743621826171875,-0.12007908627596925,-0.5878613893079969,2.5777305874323626,-4.7179314804077155,0.7220086225735834,-0.11456738522841235,0.4514426546336303,0.36470230558404115,nan,nan,nan,nan
17.11673402786255,-0.22604363,-0.07053227,-4.9009247,2.372340458746444,nan,nan,nan,nan,nan,7.111756324768066,8.311756324768066,0.007021665573120117,-0.27139461799589987,-0.5351121016411977,2.6112152608319854,-4.675297470092774,0.7326624624537806,0.09582467833519144,0.39904947739926594,0.2932343860174236,nan,nan,nan,nan
17.219289541244507,-0.27929002,0.049890034,-4.836721,2.3909209120345603,nan,nan,nan,nan,nan,7.214256763458252,8.414256763458251,0.006449460983276367,-0.398770392114077,-0.44831035496984145,2.6434167233498673,-4.634297294616699,0.7398188553330496,0.25716183514379576,0.30199077328245005,0.31549870077858333,nan,nan,nan,nan
17.32251000404358,-0.29294524,0.12810583,-4.798227,2.4070335704900967,nan,nan,nan,nan,nan,7.317431211471558,8.517431211471557,0.007502079010009766,-0.5003898301006082,-0.33107403693416426,2.6758299321415455,-4.593027515411377,0.7423225258417998,0.31718564733092103,0.2383232529658099,0.4223282718275821,nan,nan,nan,nan
17.423627138137817,-0.28184152,0.23880625,-4.7448945,2.437382409575309,nan,nan,nan,nan,nan,7.418566942214966,8.618566942214965,0.006594419479370117,-0.5675617395568037,-0.1946115921296955,2.707602659013438,-4.552573223114014,0.7413944542635897,0.38488107119823345,0.0719066683702342,0.3485794290725219,nan,nan,nan,nan
17.523932933807373,-0.24735694,0.3178127,-4.7024736,2.4665913557452557,nan,nan,nan,nan,nan,7.519192695617676,8.719192695617675,0.009997367858886719,-0.5982024068807943,-0.046409917065478576,2.7392151717786275,-4.51232292175293,0.7394916642612192,0.3995609853248947,-0.03194953843694002,0.33794512984435093,nan,nan,nan,nan
17.62063765525818,-0.2034356,0.37309608,-4.6639814,2.4926850141535226,nan,nan,nan,nan,nan,7.615603923797607,8.815603923797607,0.007286548614501953,-0.5918627716889211,0.0984807569462585,2.7695036523959917,-4.473758430480958,0.7393951899265269,0.3951031130286063,-0.12055125913997937,0.4366217107566224,nan,nan,nan,nan
17.70610523223877,-0.13947393,0.41678447,-4.6249485,2.5219368537054008,nan,nan,nan,nan,nan,7.701001167297363,8.901001167297363,0.009370565414428711,-0.5573083593756158,0.22227773745937626,2.7963319876775565,-4.439599533081055,0.7386525484047721,0.37450497603599536,-0.2047436334111576,0.4396281706659553,nan,nan,nan,nan
17.810590505599976,-0.03902099,0.44773197,-4.5773787,2.5575924056752677,nan,nan,nan,nan,nan,7.805478811264038,9.005478811264037,0.005486488342285156,-0.4805081372344908,0.3593214856523886,2.829154607552564,-4.397808475494385,0.7359702918871045,0.28408687465422205,-0.3436207532808236,0.3423917828624876,nan,nan,nan,nan
17.910506010055542,0.039762087,0.45398775,-4.543783,2.581335883363633,nan,nan,nan,nan,nan,7.905428886413574,9.105428886413574,0.006438493728637695,-0.37611113110885996,0.4674830660633751,2.8605548497341173,-4.357828445434571,0.7343928270868739,0.2376746299944282,-0.3981627807032206,0.42890612861191313,nan,nan,nan,nan
18.01614475250244,0.16335362,0.43100238,-4.4966135,2.6129526414849,nan,nan,nan,nan,nan,8.011187553405762,9.211187553405761,0.005339860916137695,-0.24010378389463854,0.5498637767297249,2.893779914861728,-4.315524978637695,0.732802188617912,0.04746935614876485,-0.4762162042836783,0.2839900185960949,nan,nan,nan,nan
18.122735738754272,0.2846889,0.37315685,-4.4530525,2.6413571050963336,nan,nan,nan,nan,nan,8.118038892745972,9.318038892745971,0.006777524948120117,-0.08560223018126455,0.5938621541974146,2.927348253131471,-4.272784442901612,0.7312710776116154,-0.05909481508652706,-0.48602260500595296,0.3308129132576855,nan,nan,nan,nan
18.225340604782104,0.36929828,0.30072093,-4.4149513,2.663395186868002,nan,nan,nan,nan,nan,8.220305919647217,9.420305919647216,0.00641942024230957,0.06817217961996014,0.5961145476549485,2.9594763871732135,-4.231877632141114,0.7321221563624717,-0.2057532587850176,-0.4462772335172103,0.3461201362622104,nan,nan,nan,nan
18.31312870979309,0.41531366,0.24308753,-4.3879685,2.6789781869155185,nan,nan,nan,nan,nan,8.308064699172974,9.508064699172973,0.00864553451538086,0.19693738494887808,0.5667589138332959,2.987046620877826,-4.196774120330811,0.7323370652060196,-0.24237064214644108,-0.4313485430469064,0.4463223929018008,nan,nan,nan,nan
18.418203592300415,0.4766472,0.116857186,-4.334108,2.7108407362806552,nan,nan,nan,nan,nan,8.413253784179688,9.613253784179687,0.0070002079010009766,0.3381895467053487,0.495608545627727,3.020092746547318,-4.154698486328125,0.7343947676728164,-0.37551150286384943,-0.3176989237337386,0.38841803862197954,nan,nan,nan,nan
18.509504556655884,0.50139034,0.025832333,-4.2977715,2.734978895586548,nan,nan,nan,nan,nan,8.504401206970215,9.704401206970214,0.006386756896972656,0.4418975719676383,0.4058651695934327,3.0487275539305547,-4.118239517211914,0.7354759435157583,-0.4468034735364884,-0.20107223516160136,0.30450154988172434,nan,nan,nan,nan
18.610881567001343,0.50399536,-0.0929625,-4.250416,2.7694186253972437,nan,nan,nan,nan,nan,8.605823993682861,9.80582399368286,0.005901336669921875,0.5299584749511743,0.28132546068108655,3.08059046209486,-4.077670402526856,0.7376146575662345,-0.47893828916264297,-0.11351915954830515,0.46255994031095854,nan,nan,nan,nan
18.6993989944458,0.48389864,-0.18046598,-4.2131686,2.797972857212121,nan,nan,nan,nan,nan,8.694880723953247,9.894880723953246,0.008277416229248047,0.5791820412673238,0.15667853418198693,3.1085684590518774,-4.042047710418702,0.7389041523504603,-0.47936785741957,0.014149452582930957,0.45478987095426254,nan,nan,nan,nan
18.810386180877686,0.41395625,-0.30477074,-4.1531453,2.84428004495949,nan,nan,nan,nan,nan,8.805315732955933,10.005315732955932,0.006265401840209961,0.5999464547654668,-0.008015697995039688,3.1432626403500734,-3.997873706817627,0.73928290881853,-0.4190817365114233,0.20711460247451877,0.3389888274404639,nan,nan,nan,nan
18.908958673477173,0.35293588,-0.36715394,-4.1176386,2.87197964133761,nan,nan,nan,nan,nan,8.903854370117188,10.103854370117187,0.0071315765380859375,0.5796772034410402,-0.15483649379514777,3.174219466210128,-3.9584582519531253,0.7390403256663957,-0.3612558556650452,0.29702040765428667,0.44259581496915834,nan,nan,nan,nan
19.0219624042511,0.22674371,-0.43350354,-4.065774,2.9107775434442864,nan,nan,nan,nan,nan,9.016925573348999,10.216925573348998,0.008209943771362305,0.5130161982764029,-0.3111500928909173,3.20974183235069,-3.9132297706604007,0.7360121667501403,-0.19527301557233268,0.429306496853798,0.3008630769710494,nan,nan,nan,nan
19.124334573745728,0.13783573,-0.45555413,-4.040107,2.9318676828206236,nan,nan,nan,nan,nan,9.119305849075317,10.319305849075317,0.006933689117431641,0.4169453367701523,-0.4314586725813079,3.2419055445601197,-3.872277660369873,0.7334778206174054,-0.1091757100515574,0.47064487377091185,0.4336354378329126,nan,nan,nan,nan
19.223501205444336,0.00054852304,-0.4558344,-3.9996367,2.9601610283118194,nan,nan,nan,nan,nan,9.218403100967407,10.418403100967407,0.007249355316162109,0.29772947908097225,-0.5209195305286345,3.273037864413632,-3.8326387596130376,0.7297725679453734,0.07446148795170321,0.49308817337503397,0.3250446267118724,nan,nan,nan,nan
19.304787635803223,-0.08720153,-0.43506777,-3.9704084,2.9785214795237858,nan,nan,nan,nan,nan,9.29973292350769,10.49973292350769,0.008046150207519531,0.18579318509955225,-0.5705093271547482,3.298588381714664,-3.800106830596924,0.7289346519242976,0.1774883974854548,0.47228597945278056,0.3299580434175297,nan,nan,nan,nan
19.412353992462158,-0.18185402,-0.38977167,-3.9327807,3.00124258980298,nan,nan,nan,nan,nan,9.40725302696228,10.60725302696228,0.006066560745239258,0.026752932290820274,-0.5994032704397289,3.332366818427279,-3.757098789215088,0.7299419727048279,0.2801310221778228,0.4137814829479424,0.43731411889440364,nan,nan,nan,nan
19.512264013290405,-0.2865576,-0.2981908,-3.890098,3.0328053477859997,nan,nan,nan,nan,nan,9.507197141647339,10.707197141647338,0.005967855453491211,-0.12307061198048945,-0.5872423898755502,3.3637651880736907,-3.717121143341065,0.7299120661212408,0.40472734334501903,0.290153067268503,0.341085548105137,nan,nan,nan,nan
19.60857844352722,-0.33862457,-0.21183848,-3.8595498,3.0589068885484396,nan,nan,nan,nan,nan,9.603543043136597,10.803543043136596,0.0066814422607421875,-0.26029167753188925,-0.5405998914239948,3.3940331457059045,-3.6785827827453614,0.729100709810606,0.44765353547713066,0.21088555950167132,0.34792018997725926,nan,nan,nan,nan
19.71264123916626,-0.3685957,-0.115833804,-3.8245177,3.0875721071405984,nan,nan,nan,nan,nan,9.707557916641235,10.907557916641235,0.005604267120361328,-0.3911664635132957,-0.4549602156480294,3.426710381952529,-3.636976833343506,0.7291356350242277,0.4725857358489683,0.11360568347127116,0.4506952113839942,nan,nan,nan,nan
19.816224336624146,-0.37195542,0.022575067,-3.77208,3.1293426519442207,nan,nan,nan,nan,nan,9.811116933822632,11.011116933822631,0.005582571029663086,-0.4950730595740355,-0.3389729571573571,3.4592444067115347,-3.5955532264709475,0.7309412293613227,0.4742052603477532,-0.08394285752602432,0.3438920116505181,nan,nan,nan,nan
19.919508934020996,-0.35526088,0.111489646,-3.736886,3.157544368711922,nan,nan,nan,nan,nan,9.914555072784424,11.114555072784423,0.005765199661254883,-0.5655706677477089,-0.20032428655410361,3.491740456457871,-3.5541779708862307,0.7318836090991646,0.44943440075241337,-0.1733702252107933,0.44875402817818844,nan,nan,nan,nan
20.019972801208496,-0.31013858,0.23100741,-3.6818209,3.19844925106703,nan,nan,nan,nan,nan,10.014917850494385,11.214917850494384,0.0060117244720458984,-0.5976692698695674,-0.052834116379270504,3.5232703529726193,-3.5140328598022466,0.7356400740725082,0.3295681490832242,-0.315199956349355,0.3958333250050166,nan,nan,nan,nan
20.123502731323242,-0.24087596,0.32157037,-3.6231794,3.2329874212007486,nan,nan,nan,nan,nan,10.11842656135559,11.31842656135559,0.010019063949584961,-0.5911492560637404,0.10267695484034547,3.5557885735350307,-3.472629375457764,0.7378404429058294,0.2556117644393119,-0.35047123910944566,0.43421264631862105,nan,nan,nan,nan
20.224024057388306,-0.18495515,0.36964443,-3.5815465,3.2528154970675,nan,nan,nan,nan,nan,10.219039916992188,11.419039916992187,0.010671854019165039,-0.5466619131239906,0.24730700099192213,3.5873971914271254,-3.4323840332031255,0.742617294483041,0.08185561027775932,-0.4065043932924723,0.38411923783831914,nan,nan,nan,nan
20.309380054473877,-0.108332574,0.41388804,-3.5310984,3.275418710492467,nan,nan,nan,nan,nan,10.304306030273438,11.504306030273437,0.0072002410888671875,-0.48156515571204317,0.35790361943410903,3.6141843309355783,-3.3982775878906253,0.7449730680810553,0.010355411024849884,-0.41687627896478185,0.422611150865758,nan,nan,nan,nan
20.4202778339386,0.008157656,0.43793365,-3.4732676,3.3015309099390087,nan,nan,nan,nan,nan,10.415250301361084,11.615250301361083,0.006356000900268555,-0.36445841831162157,0.47662360550206817,3.649038501636261,-3.3538998794555663,0.7451629751923006,-0.12258197493620772,-0.42508633121743844,0.4297397901641836,nan,nan,nan,nan
20.517233848571777,0.12634282,0.43113706,-3.4124331,3.3293725937412795,nan,nan,nan,nan,nan,10.512168169021606,11.712168169021606,0.005440950393676758,-0.2387478860788138,0.5504538553710907,3.6794861477406493,-3.3151327323913575,0.744903891883951,-0.2581645814354589,-0.38759156814624746,0.35945151756465443,nan,nan,nan,nan
20.614919424057007,0.19828786,0.4074157,-3.3708472,3.3486944240720904,nan,nan,nan,nan,nan,10.609838962554932,11.809838962554931,0.005591392517089844,-0.09782189669552709,0.5919720234326024,3.7101703324841075,-3.276064414978028,0.7450235867361696,-0.31162016147617333,-0.35530428347803816,0.43788359177162056,nan,nan,nan,nan
20.71037769317627,0.30611092,0.34039518,-3.305624,3.3847080641505585,nan,nan,nan,nan,nan,10.705302238464355,11.905302238464355,0.006308555603027344,0.04565054022727926,0.5982608362386406,3.7401610051125735,-3.237879104614258,0.7461724942981617,-0.40346199821413586,-0.23892266482914556,0.36168275938803107,nan,nan,nan,nan
20.813228368759155,0.37120113,0.2720142,-3.2615738,3.414435741595857,nan,nan,nan,nan,nan,10.808117628097534,12.008117628097533,0.006017208099365234,0.1970127762520141,0.5667327112435577,3.7724614123873303,-3.1967529487609863,0.7455829611210388,-0.45107574309852355,-0.15125949348305748,0.43536538745601977,nan,nan,nan,nan
20.913737297058105,0.43055514,0.16036087,-3.2050939,3.457899851341833,nan,nan,nan,nan,nan,10.908621788024902,12.108621788024902,0.005715370178222656,0.3323971458637551,0.4995118991792183,3.8040357254356336,-3.156551284790039,0.7435993103771676,-0.46897464925985693,-0.003622521123593959,0.3362667312264102,nan,nan,nan,nan
21.014918327331543,0.45799476,0.079370715,-3.173983,3.4877899195707505,nan,nan,nan,nan,nan,11.00990629196167,12.20990629196167,0.005242109298706055,0.4474705617763712,0.39971251712141664,3.835855190784657,-3.116037483215332,0.7420154646114699,-0.4579172755955418,0.07719143203054632,0.43111099938084163,nan,nan,nan,nan
21.11726975440979,0.46418357,-0.040750664,-3.1314392,3.5313921139056457,nan,nan,nan,nan,nan,11.112429141998291,12.31242914199829,0.005655050277709961,0.5345553965384895,0.27248950077310913,3.868063694034671,-3.0750283432006835,0.7384361607456346,-0.37695827695246464,0.21668865585182506,0.32089059091511635,nan,nan,nan,nan
21.222052097320557,0.45131895,-0.108714916,-3.1037717,3.5557584320242954,nan,nan,nan,nan,nan,11.217101573944092,12.417101573944091,0.007472038269042969,0.5870245634510071,0.12410544671832338,3.9009475083581013,-3.0331593704223634,0.7362829022220403,-0.29714529406151946,0.2955277999719312,0.4081758084793476,nan,nan,nan,nan
21.306013822555542,0.4132143,-0.19726613,-3.061094,3.5873561000454024,nan,nan,nan,nan,nan,11.30093240737915,12.50093240737915,0.007535219192504883,0.5999983525502408,-0.001406035915919413,3.9272837414044903,-2.99962703704834,0.7357617166949162,-0.223704562171484,0.3459813888100238,0.4068399489719497,nan,nan,nan,nan
21.40662145614624,0.35023156,-0.2647396,-3.027649,3.6129071052442208,nan,nan,nan,nan,nan,11.401527404785156,12.601527404785156,0.007247209548950195,0.5805728156021581,-0.15144373801442745,3.9588865918883496,-2.959389038085938,0.7341084142474169,0.004108139562950277,0.4264807296678501,0.2948568406613372,nan,nan,nan,nan
21.509232759475708,0.27409163,-0.3098127,-2.9967136,3.6360655683702485,nan,nan,nan,nan,nan,11.504143238067627,12.704143238067626,0.006997346878051758,0.5227456291476347,-0.29451147211448925,3.99112430668657,-2.9183427047729493,0.7307249500740132,0.09184263818652286,0.4394656035019128,0.39663039272689743,nan,nan,nan,nan
21.611228466033936,0.16356696,-0.3394527,-2.9588983,3.6641275195035132,nan,nan,nan,nan,nan,11.60620641708374,12.80620641708374,0.007987737655639648,0.43092151249844907,-0.41750047912074184,4.023188400026474,-2.877517433166504,0.7270284941867466,0.2557082365500062,0.40213937495007573,0.30823754371387757,nan,nan,nan,nan
21.720104694366455,0.07605711,-0.3412023,-2.9306695,3.6860073400370186,nan,nan,nan,nan,nan,11.715043544769287,12.915043544769286,0.005360841751098633,0.30211719053486935,-0.5183871171077822,4.057380592103947,-2.8339825820922853,0.7247213565061409,0.32026140005036513,0.3703445728412085,0.41077146929991715,nan,nan,nan,nan
21.82164692878723,-0.028286401,-0.3197336,-2.8959522,3.7146218224283998,nan,nan,nan,nan,nan,11.816587686538696,13.016587686538696,0.006699562072753906,0.16146660110692118,-0.5778655005509313,4.089281625083733,-2.793364925384522,0.7234835690619569,0.3850248168544418,0.31423523152575,0.4230059419190359,nan,nan,nan,nan
21.922714233398438,-0.1328203,-0.27221403,-2.8557694,3.7493438136125805,nan,nan,nan,nan,nan,11.91802716255188,13.11802716255188,0.007353544235229492,0.010514252955488449,-0.5999078683304528,4.121149776346434,-2.752789134979248,0.7256015847787363,0.457124871510196,0.1515472392926401,0.3370718968945573,nan,nan,nan,nan
22.021923065185547,-0.19625464,-0.2215667,-2.825793,3.7760094394382575,nan,nan,nan,nan,nan,12.016834020614624,13.216834020614623,0.006358623504638672,-0.13725620601927704,-0.5840896625597767,4.152190866287855,-2.7132663917541504,0.7254560435547873,0.4695486028418241,0.08672123678640577,0.4154972677645088,nan,nan,nan,nan
22.120304822921753,-0.26225656,-0.14706095,-2.785199,3.8094776983518983,nan,nan,nan,nan,nan,12.115346431732178,13.315346431732177,0.006403923034667969,-0.27621178026585363,-0.5326415797160111,4.183139452993287,-2.6738614273071293,0.7275020410726292,0.4521803569103536,-0.026521157774049543,0.41423056953622356,nan,nan,nan,nan
22.222416162490845,-0.3213537,-0.03710775,-2.7287235,3.851095871951742,nan,nan,nan,nan,nan,12.217325925827026,13.417325925827026,0.006396293640136719,-0.40221660193083003,-0.44522107444641057,4.215177255939805,-2.6330696296691896,0.7334752757895164,0.36079576101426375,-0.1925914040500201,0.31242551511506295,nan,nan,nan,nan
22.308073043823242,-0.34508425,0.047579005,-2.6865168,3.8800748340831186,nan,nan,nan,nan,nan,12.303285360336304,13.503285360336303,0.007784843444824219,-0.4883056260429149,-0.34865113734912284,4.242182208735914,-2.5986858558654786,0.7362772747028916,0.28230608339998986,-0.2528254830837066,0.2944023693133512,nan,nan,nan,nan
22.408798217773438,-0.35165226,0.12573989,-2.6477518,3.904364379625627,nan,nan,nan,nan,nan,12.403724908828735,13.603724908828735,0.006775856018066406,-0.5599091820608612,-0.2156425464604272,4.273736223503283,-2.558510036468506,0.7394380680422363,0.2007252859419066,-0.27520059079159004,0.3884696815585589,nan,nan,nan,nan
22.51157855987549,-0.33292586,0.23169452,-2.5902987,3.9380877707749553,nan,nan,nan,nan,nan,12.506654500961304,13.706654500961303,0.006505727767944336,-0.5964432000537155,-0.06523426331065119,4.30607250855135,-2.5173381996154784,0.7422913423444369,0.013955492380084667,-0.314752735018549,0.3086665838229431,nan,nan,nan,nan
22.608407258987427,-0.30131686,0.29541442,-2.5518064,3.959346740976157,nan,nan,nan,nan,nan,12.603384971618652,13.803384971618652,0.006616353988647461,-0.5946075342041133,0.08026132485639804,4.336461282150891,-2.4786460113525393,0.7433956013146465,-0.1010306987295481,-0.29672000491212464,0.37421535244804294,nan,nan,nan,nan
22.713160276412964,-0.23055045,0.37783566,-2.4945064,3.9910710639383398,nan,nan,nan,nan,nan,12.708081245422363,13.908081245422363,0.005677938461303711,-0.5532650899563067,0.23215886852679088,4.3693525866148875,-2.4367675018310546,0.7433483449030537,-0.27559744176158146,-0.28026516969017956,0.31677277228872597,nan,nan,nan,nan
22.825149536132812,-0.1448842,0.43519187,-2.4438415,4.022026644391044,nan,nan,nan,nan,nan,12.820091009140015,14.020091009140014,0.00696110725402832,-0.46699122527050263,0.3767216419590924,4.404541491697458,-2.3919635963439942,0.7432239208303404,-0.3894969869211885,-0.22781850816504798,0.3299941870967203,nan,nan,nan,nan
22.92067313194275,-0.06697464,0.46614832,-2.4102442,4.047830735847372,nan,nan,nan,nan,nan,12.915635347366333,14.115635347366332,0.0061016082763671875,-0.3639970065950335,0.47697607821551713,4.434557630803848,-2.3537458610534667,0.7413153148131508,-0.4482654812851669,-0.1822858159233781,0.36682272426687135,nan,nan,nan,nan
23.017719268798828,0.009453137,0.4794908,-2.3838847,4.072585350063411,nan,nan,nan,nan,nan,13.012606382369995,14.212606382369994,0.00524449348449707,-0.23814149890251285,0.5507164665238043,4.465021979921698,-2.3149574470520022,0.7393639523934226,-0.48853034827490655,-0.13192047564172663,0.36893675710390705,nan,nan,nan,nan
23.11461114883423,0.1225457,0.48203322,-2.3481922,4.111512800492053,nan,nan,nan,nan,nan,13.109499216079712,14.309499216079711,0.00571894645690918,-0.09832733169091191,0.591888279865842,4.495461761378492,-2.2762003135681153,0.7398413410193232,-0.4813407372787217,-0.051765463350832944,0.32534560063770435,nan,nan,nan,nan
23.211368083953857,0.2064584,0.47348213,-2.323454,4.143228922751485,nan,nan,nan,nan,nan,13.206481695175171,14.40648169517517,0.0059223175048828125,0.04742376048164001,0.5981228861544925,4.525929705763814,-2.2374073219299317,0.7418832394217075,-0.462869085404215,-0.007589580029887276,0.3618838665082784,nan,nan,nan,nan
23.311955213546753,0.28527194,0.4593087,-2.3010557,4.1772957327084725,nan,nan,nan,nan,nan,13.306897401809692,14.506897401809692,0.0068438053131103516,0.19527381752436845,0.567334236750665,4.557476230390619,-2.1972410392761232,0.7468118387439863,-0.3825496305046669,0.03229559297335898,0.35229561430797984,nan,nan,nan,nan
23.412388563156128,0.33318418,0.4436836,-2.2828524,4.205297269027256,nan,nan,nan,nan,nan,13.407275438308716,14.607275438308715,0.006480216979980469,0.3307050248193003,0.5006337848759969,4.589010920595329,-2.157089824676514,0.7536975522481612,-0.274447626830988,0.04254045498436732,0.3458949292947828,nan,nan,nan,nan
23.508185386657715,0.36425528,0.43172795,-2.265286,4.230435294848142,nan,nan,nan,nan,nan,13.503135442733765,14.703135442733764,0.006443977355957031,0.4406041947693161,0.4072688836035507,4.61912622916281,-2.118745822906494,0.7614428117619982,-0.1560862625599537,0.03470642752516072,0.3345258950121842,nan,nan,nan,nan
23.61923909187317,0.38598934,0.41774854,-2.2424486,4.265526043081525,nan,nan,nan,nan,nan,13.614125728607178,14.814125728607177,0.0053157806396484375,0.5357124252415271,0.2702076931581358,4.653994855834785,-2.074349708557129,0.7703191965291877,0.02590336402645979,-0.004536086587898412,0.3152561510445164,nan,nan,nan,nan
23.720421314239502,0.3783271,0.40672293,-2.2220664,4.303403322484938,nan,nan,nan,nan,nan,13.715457916259766,14.915457916259765,0.006713151931762695,0.5865068812485619,0.1265293572578526,4.68582930146494,-2.0338168334960938,0.7727839473917293,0.21493186701662026,-0.04031070107452642,0.30066765349470204,nan,nan,nan,nan
23.820484399795532,0.35368696,0.4028817,-2.2105887,4.3288455734267455,nan,nan,nan,nan,nan,13.815511226654053,15.015511226654052,0.005551815032958984,0.5995441328901085,0.02338445460231688,4.717261975955143,-2.006204490661621,0.7786328923811069,0.3076642790452285,-0.1086371975993826,0.2894157255145801,nan,nan,nan,nan
23.917102098464966,0.29523018,0.40649146,-2.207328,4.36483911122432,nan,nan,nan,nan,nan,13.91198992729187,15.11198992729187,0.0055391788482666016,0.5763903299166967,0.16665589572085815,4.747571653670309,-2.0447959709167476,0.7709880529790403,0.42631363316088755,-0.1296313989221499,0.30804426354935033,nan,nan,nan,nan
24.01555562019348,0.23496255,0.41403633,-2.2111742,4.390432404106971,nan,nan,nan,nan,nan,14.010481119155884,15.210481119155883,0.006125211715698242,0.5179882874866073,0.3028004855126421,4.7785135741506375,-2.0841924476623532,0.7708879146700872,0.46013778094715335,-0.17695613978524705,0.28835043518840836,nan,nan,nan,nan
24.117019176483154,0.13021648,0.41807094,-2.229313,4.428172668150758,nan,nan,nan,nan,nan,14.111968755722046,15.311968755722045,0.005446195602416992,0.42483015185787076,0.42369722924798375,4.810396855497283,-2.124787502288818,0.7583261269616243,0.504423957597007,-0.13740904656948885,0.3465869564341119,nan,nan,nan,nan
24.2160382270813,0.056258254,0.41111,-2.2493174,4.452937914621577,nan,nan,nan,nan,nan,14.210930585861206,15.410930585861205,0.005612611770629883,0.30745951822060175,0.5152364939089189,4.841486631352381,-2.1643722343444822,0.7571421371694159,0.5010207458210293,-0.10693405599641308,0.2999839898986704,nan,nan,nan,nan
24.315794229507446,-0.060235474,0.38628253,-2.2852583,4.489899315454188,nan,nan,nan,nan,nan,14.31069016456604,15.51069016456604,0.005869388580322266,0.1700137252553549,0.5754088400648679,4.872827027310813,-2.2042760658264156,0.751286103306897,0.43790639391128855,-0.0004974595909938157,0.36080514407975756,nan,nan,nan,nan
24.413135290145874,-0.13149373,0.3589965,-2.3152246,4.515144720597203,nan,nan,nan,nan,nan,14.40802001953125,15.60802001953125,0.0065691471099853516,0.025597436048663023,0.5994537273782978,4.9034041030441795,-2.2432080078124996,0.7520085684925931,0.39601392716270944,0.06938084017141047,0.2980644527246745,nan,nan,nan,nan
24.506768941879272,-0.21260905,0.30765867,-2.3608875,4.549301642106964,nan,nan,nan,nan,nan,14.501715898513794,15.701715898513793,0.006558656692504883,-0.11496941742006868,0.5888820196423813,4.932839531552499,-2.280686359405517,0.7460310063393618,0.30080688996631705,0.17192452562618546,0.3473024368535036,nan,nan,nan,nan
24.619826078414917,-0.27613527,0.24607192,-2.4087155,4.582388802316688,nan,nan,nan,nan,nan,14.614723443984985,15.814723443984985,0.005496025085449219,-0.2753774643489624,0.5330734021959227,4.96834189901775,-2.325889377593994,0.7409249977377078,0.19384175380690302,0.2796802732091324,0.3138609824642252,nan,nan,nan,nan
24.71614718437195,-0.3390134,0.15543611,-2.4729712,4.625992662303503,nan,nan,nan,nan,nan,14.711045980453491,15.91104598045349,0.00693821907043457,-0.39513977255872373,0.4515136322883729,4.998602516312209,-2.3644183921813964,0.7341466084443092,0.0969329385586107,0.35822069714334825,0.2967457802240206,nan,nan,nan,nan
24.814604997634888,-0.36088446,0.10168716,-2.5062656,4.649973104104729,nan,nan,nan,nan,nan,14.80951452255249,16.00951452255249,0.006438732147216797,-0.4937039030645726,0.3409640099758435,5.029537321159,-2.4038058090209957,0.7344595451554046,0.05128428668729639,0.4060835493875771,0.21531162392489123,nan,nan,nan,nan
24.915183544158936,-0.36971134,-0.006048205,-2.5704002,4.695290420233783,nan,nan,nan,nan,nan,14.910107135772705,16.110107135772704,0.005964756011962891,-0.5632959736294376,0.20663408744169928,5.061139422628803,-2.4440428543090817,0.7268118662904932,-0.07273476111877757,0.4271182618009267,0.2859931133354786,nan,nan,nan,nan
25.018049240112305,-0.35010454,-0.091720656,-2.623632,4.731139663831273,nan,nan,nan,nan,nan,15.012933731079102,16.2129337310791,0.006281614303588867,-0.5973983754880665,0.055813806215121435,5.0934433502696255,-2.4851734924316404,0.7282338485743488,-0.1435728618845459,0.4400596589714266,0.17228897114910552,nan,nan,nan,nan
25.119812488555908,-0.30846393,-0.17127551,-2.6768994,4.765399033364439,nan,nan,nan,nan,nan,15.114978551864624,16.314978551864623,0.012740850448608398,-0.5920168258426894,-0.09755038656584983,5.125501676201294,-2.525991420745849,0.7272089754545609,-0.21989693291786272,0.43235535602247466,0.16169505652889285,nan,nan,nan,nan
25.206846237182617,-0.2238086,-0.25507063,-2.7399771,4.804897374419431,nan,nan,nan,nan,nan,15.202138662338257,16.402138662338256,0.011499404907226562,-0.5566706270295537,-0.22387008063277106,5.152883832476298,-2.5608554649353024,0.7198635787695661,-0.34735191311934566,0.34588615454369326,0.2870292044020322,nan,nan,nan,nan
25.323359966278076,-0.12965609,-0.3077955,-2.78927,4.835696673874711,nan,nan,nan,nan,nan,15.318731784820557,16.518731784820556,0.00786733627319336,-0.46827541797973155,-0.3751241566680393,5.189512642181247,-2.6074927139282225,0.7201151621246971,-0.45692569868243943,0.24517017578176592,0.3079147724178272,nan,nan,nan,nan
25.422401666641235,-0.048202664,-0.33149227,-2.8235574,4.85767012094634,nan,nan,nan,nan,nan,15.417554378509521,16.61755437850952,0.007443666458129883,-0.3616923018045951,-0.47872609999382076,5.220558675615441,-2.647021751403808,0.7258855075221704,-0.5166183119641876,0.17659923054019264,0.17649220270831237,nan,nan,nan,nan
25.52397108078003,0.07502799,-0.3372556,-2.8749804,4.887918121840851,nan,nan,nan,nan,nan,15.519219160079956,16.719219160079955,0.007081270217895508,-0.22895627667880808,-0.5545980737158912,5.25249760870649,-2.6876876640319822,0.7257657412045315,-0.5334214117479955,0.03436389569623061,0.2710110178716193,nan,nan,nan,nan
25.62157964706421,0.13864113,-0.3256477,-2.9023135,4.903484907971591,nan,nan,nan,nan,nan,15.616494178771973,16.816494178771972,0.006178379058837891,-0.0879071241842465,-0.593525346988362,5.283057457116555,-2.726597671508789,0.7327250918783007,-0.5211676133650505,-0.034969898397766874,0.2046959481640294,nan,nan,nan,nan
25.72417378425598,0.26564154,-0.2610061,-2.961731,4.9399467167108595,nan,nan,nan,nan,nan,15.719498634338379,16.919498634338378,0.011129617691040039,0.06696256587471738,-0.5962516371226784,5.315417261205998,-2.767799453735351,0.731527094266497,-0.4381217124599474,-0.1809611290859164,0.2917181947352412,nan,nan,nan,nan
25.824599981307983,0.33257487,-0.1925268,-2.9971554,4.9667715722983,nan,nan,nan,nan,nan,15.819795370101929,17.019795370101928,0.011386632919311523,0.21355878876473017,-0.5607072709902569,5.346926410031379,-2.807918148040771,0.7404755185261112,-0.4385789945582075,-0.20847728280375605,0.22276389742689282,nan,nan,nan,nan
25.906118869781494,0.3697169,-0.14441063,-3.0149884,4.983460480991148,nan,nan,nan,nan,nan,15.901268005371094,17.101268005371093,0.005921602249145508,0.32310888708258156,-0.5055696263505706,5.3725217932744,-2.840507202148437,0.742221831951751,-0.35570910718906956,-0.31869880971215253,0.219230508950616,nan,nan,nan,nan
26.00547432899475,0.42303485,-0.031080157,-3.0594394,5.022959479405339,nan,nan,nan,nan,nan,16.000869512557983,17.200869512557983,0.0056493282318115234,0.43827770544178596,-0.4097714642488945,5.403812529600881,-2.880347805023193,0.7378839492518958,-0.203380309367879,-0.45145142165777596,0.2670413097851175,nan,nan,nan,nan
26.110097885131836,0.43802884,0.049580224,-3.092967,5.051064186976196,nan,nan,nan,nan,nan,16.105116605758667,17.305116605758666,0.008162260055541992,0.5294574804550529,-0.282267207429746,5.436562719816616,-2.922046642303467,0.7421352313766957,-0.15855807565260274,-0.4854489014124893,0.16744213659367135,nan,nan,nan,nan
26.206679582595825,0.4298405,0.17351888,-3.147136,5.09373501849655,nan,nan,nan,nan,nan,16.20187282562256,17.401872825622558,0.006086826324462891,0.5818457950334155,-0.14647686097787802,5.466959582767968,-2.9607491302490234,0.7360399565646816,-0.025959431859208657,-0.4959246935147292,0.21551647657703943,nan,nan,nan,nan
26.32467484474182,0.38746357,0.27320904,-3.190147,5.12964246363304,nan,nan,nan,nan,nan,16.319709062576294,17.519709062576293,0.0070531368255615234,0.5992640571188285,0.029708413715334704,5.50397892840202,-3.007883625030517,0.7380861287538616,0.07241339588912586,-0.4929715355727965,0.15956231756323278,nan,nan,nan,nan
26.418850660324097,0.33535066,0.33674455,-3.2226672,5.155786926309833,nan,nan,nan,nan,nan,16.413750410079956,17.613750410079955,0.00573277473449707,0.5756473087232005,0.16920453882723205,5.5335228890471395,-3.0455001640319823,0.740812880566642,0.1524375858183567,-0.47797141143581223,0.09838239621777556,nan,nan,nan,nan
26.517118453979492,0.23884708,0.40651238,-3.2649174,5.18958821006756,nan,nan,nan,nan,nan,16.51202702522278,17.712027025222778,0.006123065948486328,0.5168079144188804,0.30481072749167987,5.564397398262376,-3.084810810089111,0.7356434032884516,0.3101754368189115,-0.3919336508868397,0.17755618743923912,nan,nan,nan,nan
26.616560220718384,0.15744732,0.44026414,-3.292867,5.211083850236244,nan,nan,nan,nan,nan,16.61144709587097,17.81144709587097,0.005789041519165039,0.4253852850830465,0.4231398814042648,5.59563113461915,-3.1245788383483886,0.7395891742651642,0.39435106696425215,-0.3468669388803731,0.0972095831975364,nan,nan,nan,nan
26.71101665496826,0.0348394,0.45652503,-3.3355832,5.238981645226248,nan,nan,nan,nan,nan,16.705952405929565,17.905952405929565,0.007273197174072266,0.3138816830035043,0.511349478414604,5.62532085339968,-3.162380962371826,0.735236478547829,0.48397979232618815,-0.20534407820070175,0.21627940452203406,nan,nan,nan,nan
26.824413776397705,-0.0868746,0.4362381,-3.3758266,5.260979786559092,nan,nan,nan,nan,nan,16.819419145584106,18.019419145584106,0.00538945198059082,0.15735032203598645,0.5789998930528151,5.6609674809722295,-3.2077676582336423,0.7373153209795529,0.5143134657120525,-0.10595966987863843,0.2269922512534105,nan,nan,nan,nan
26.921846866607666,-0.17011926,0.39921272,-3.409093,5.276092074031995,nan,nan,nan,nan,nan,16.91676950454712,18.11676950454712,0.005323648452758789,0.012410409652471874,0.5998716377128176,5.691550998226482,-3.2467078018188475,0.7406880253863816,0.5206020133617806,-0.029925392310221573,0.1733740753530016,nan,nan,nan,nan
27.017691373825073,-0.2727392,0.3213546,-3.455036,5.298122404257853,nan,nan,nan,nan,nan,17.01258087158203,18.21258087158203,0.005818843841552734,-0.131004956619843,0.5855234421789046,5.72165102690721,-3.285032348632812,0.7366400547869305,0.4934513692732143,0.10457053318562766,0.26339373284298945,nan,nan,nan,nan
27.121164798736572,-0.34370112,0.23472106,-3.493649,5.319273157495379,nan,nan,nan,nan,nan,17.11605930328369,18.31605930328369,0.005558013916015625,-0.27716563926286514,0.5321458525742799,5.754159734991103,-3.326423721313476,0.7413003209365617,0.47457976959118714,0.17625355511448854,0.2169514076928281,nan,nan,nan,nan
27.220097541809082,-0.3997186,0.12757486,-3.5356414,5.3453214326031055,nan,nan,nan,nan,nan,17.21504783630371,18.41504783630371,0.005517721176147461,-0.39966092637003897,0.4475166409565596,5.785257899803635,-3.3660191345214843,0.7380157113498849,0.3805221825976421,0.3074109462687296,0.2729516110600066,nan,nan,nan,nan
27.31623673439026,-0.42546558,0.042695247,-3.5637918,5.3679402861807475,nan,nan,nan,nan,nan,17.311127185821533,18.511127185821532,0.006218671798706055,-0.49508179341523095,0.33896020095102397,5.815442117664323,-3.4044508743286133,0.7430398990120622,0.33022943941132915,0.3596833735851957,0.22038400668555744,nan,nan,nan,nan
27.41200351715088,-0.42880422,-0.06624148,-3.6035054,5.400492340854987,nan,nan,nan,nan,nan,17.406906604766846,18.606906604766845,0.00733494758605957,-0.561615642506188,0.21115840047784412,5.845532109556692,-3.442762641906738,0.7420216170186831,0.2222673439602161,0.4159447371217816,0.2925704837189555,nan,nan,nan,nan
27.509562730789185,-0.40810165,-0.15209964,-3.6400523,5.4299699026166595,nan,nan,nan,nan,nan,17.504580974578857,18.704580974578857,0.0059108734130859375,-0.5960951445498962,0.0683416318508593,5.876217417821235,-3.481832389831543,0.7452335956190905,0.14259187331183268,0.44924581260671587,0.1887898182908695,nan,nan,nan,nan
27.623364686965942,-0.35864902,-0.23975506,-3.6861994,5.466341405997449,nan,nan,nan,nan,nan,17.61864995956421,18.81864995956421,0.008125782012939453,-0.5910915137910497,-0.10300884585415566,5.9120532463444775,-3.5274599838256835,0.7414316553109834,-0.01510822572572877,0.47157698599824227,0.14923000689870344,nan,nan,nan,nan
27.711894035339355,-0.29148206,-0.30419824,-3.7260141,5.496956647105304,nan,nan,nan,nan,nan,17.706892251968384,18.906892251968383,0.008722066879272461,-0.55395637123478,-0.2305045309064325,5.939775380099765,-3.5627569007873534,0.7395109261363565,-0.10164763492231574,0.48182175888281054,0.12746979016145127,nan,nan,nan,nan
27.811508893966675,-0.18403335,-0.36679354,-3.7825708,5.536630719884318,nan,nan,nan,nan,nan,17.806406021118164,19.006406021118163,0.010793209075927734,-0.4796694947575304,-0.3604402527452442,5.971038552708963,-3.6025624084472656,0.7320455842225198,-0.23290702362297258,0.45817205066081024,0.1788599940045466,nan,nan,nan,nan
27.91124939918518,-0.10108391,-0.39073822,-3.8185024,5.561049169277005,nan,nan,nan,nan,nan,17.906261205673218,19.106261205673217,0.00659489631652832,-0.3751324061291829,-0.4682688094158415,6.002408984131065,-3.642504482269287,0.734042501969782,-0.2867105797538346,0.4370392026694165,0.08883445025220078,nan,nan,nan,nan
28.011924743652344,0.027759317,-0.39838177,-3.8691266,5.593276654045878,nan,nan,nan,nan,nan,18.006860733032227,19.206860733032226,0.007292747497558594,-0.24606895528152128,-0.5472203114346731,6.0340132577416306,-3.6827442932128904,0.7300868604131062,-0.37858099760138464,0.3472862817314013,0.1709362272901739,nan,nan,nan,nan
28.11128520965576,0.10956044,-0.38446036,-3.9011116,5.6117714547421755,nan,nan,nan,nan,nan,18.10659384727478,19.30659384727478,0.008527278900146484,-0.1026466331923666,-0.5911545218420237,6.065345339644034,-3.722637538909912,0.7354708391089949,-0.4171707108847504,0.2860058337160257,0.11249149374398028,nan,nan,nan,nan
28.217124223709106,0.2216074,-0.3352265,-3.9448597,5.635795126659266,nan,nan,nan,nan,nan,18.21206545829773,19.41206545829773,0.00595402717590332,0.055812589124399216,-0.5973984891973121,6.098480223479233,-3.7648261833190917,0.7352361238283084,-0.4546328545861605,0.14111211777990493,0.22408222953571633,nan,nan,nan,nan
28.313754320144653,0.28970748,-0.28838274,-3.9758503,5.650695692801854,nan,nan,nan,nan,nan,18.30866837501526,19.508668375015258,0.006960630416870117,0.1977970462058675,-0.5664594676693416,6.128828924826746,-3.803467350006103,0.7399811422836728,-0.4689506938907177,0.052234136160572424,0.18078282108017107,nan,nan,nan,nan
28.410669326782227,0.36738348,-0.20322897,-4.0239124,5.671870789783968,nan,nan,nan,nan,nan,18.40559220314026,19.605592203140258,0.006237506866455078,0.32858417502218434,-0.5020283258193611,6.159278443466276,-3.8422368812561034,0.736982471641183,-0.46013514031649644,-0.07180007583367959,0.28552006927928286,nan,nan,nan,nan
