time,x,y,z,yaw,platform,trajectory,traj_double,traj_short,traj_spin,traj_time,ref_time,comptime,x_ref,y_ref,yaw_ref,z_ref,throttle_input,p_input,q_input,r_input,cbf_term_pitch_cbf,cbf_term_roll_cbf,cbf_term_thrust_cbf,cbf_term_yaw_cbf
10.004537105560303,0.02750607,-0.021031993,-2.9387412,0.0006893304090520901,SIM,HELIX,NormSpd,Not Short,Spin,1.1920928955078125e-06,1.2000011920928955,0.006491661071777344,-0.5952690460892638,0.07519815667938841,0.37699149293780343,-2.480000476837158,0.7378013835355421,0.0,0.0,0.0,nan,nan,nan,nan
10.12428617477417,0.024102874,-0.022125524,-2.953097,0.0004437870037269304,nan,nan,nan,nan,nan,0.11989974975585938,1.3198997497558593,0.005408763885498047,-0.5907650408686858,-0.10486499171515719,0.4146587357308014,-2.527959899902344,0.6867522413397981,-0.037069337622420616,-0.18187072548968536,0.2750340437272262,nan,nan,nan,nan
10.222075700759888,0.019533621,-0.022756465,-2.960171,0.0006526182426974557,nan,nan,nan,nan,nan,0.2175602912902832,1.4175602912902832,0.00537419319152832,-0.5475777929568507,-0.24527242132067012,0.4453396997138161,-2.567024116516113,0.688613908093846,0.015525738270470936,-0.2442877712432531,0.2994814167627416,nan,nan,nan,nan
10.32119107246399,0.008351428,-0.024147993,-2.9705298,0.0018849454418290615,nan,nan,nan,nan,nan,0.3166618347167969,1.5166618347167968,0.005792856216430664,-0.4702206002974473,-0.37268295782864586,0.4764733677926306,-2.606664733886719,0.6893460066715519,0.06106516340147236,-0.23737133569433597,0.3127698686144872,nan,nan,nan,nan
10.416723489761353,0.002542504,-0.022821335,-2.9776497,0.005045319724113338,nan,nan,nan,nan,nan,0.41219568252563477,1.6121956825256347,0.010558128356933594,-0.3681067266846205,-0.47381160577758547,0.5064862112371716,-2.644878273010254,0.6901860140919586,0.09260389050458286,-0.20773598820809513,0.3241600206379045,nan,nan,nan,nan
10.514989376068115,-0.0022708229,-0.020829389,-2.9878135,-0.006332932185647347,nan,nan,nan,nan,nan,0.5105538368225098,1.7105538368225097,0.0069768428802490234,-0.24097924894445655,-0.5494806653360659,0.5373863367331431,-2.6842215347290037,0.6907661621036058,0.1298703609479753,-0.1762601490676431,0.3359557752895661,nan,nan,nan,nan
10.611457109451294,-0.0035309116,-0.014929012,-2.9988327,-0.002755568962489004,nan,nan,nan,nan,nan,0.6069681644439697,1.8069681644439697,0.005298614501953125,-0.10209045234522794,-0.5912508262488491,0.5676757910687809,-2.722787265777588,0.6911858908972299,0.16179508191976452,-0.1373530466177083,0.3555197693748541,nan,nan,nan,nan
10.724218845367432,-0.00097128685,-0.0054277168,-3.0051515,0.006351701291428611,nan,nan,nan,nan,nan,0.7196938991546631,1.919693899154663,0.005499124526977539,0.06725517068116976,-0.5962187031758117,0.6030896250725435,-2.767877559661865,0.6939319047237384,0.15863877897679485,-0.05385991436529848,0.3674290258420314,nan,nan,nan,nan
10.821278095245361,0.0019454707,0.002818699,-3.002441,0.01604977577242013,nan,nan,nan,nan,nan,0.8167614936828613,2.0167614936828615,0.005600929260253906,0.20927724981348034,-0.5623193333956303,0.6335843092596856,-2.8067045974731446,0.6976742982268934,0.12187286561742787,0.0321005049450219,0.37423162957647627,nan,nan,nan,nan
10.912309646606445,0.014446149,0.012792228,-2.9908922,0.03544588438923083,nan,nan,nan,nan,nan,0.9078044891357422,2.1078044891357424,0.0064432621002197266,0.33137039987369793,-0.5001936205986093,0.6621863098272435,-2.843121795654297,0.702595550844232,0.034106793224800425,0.11899734432203188,0.3764084643498083,nan,nan,nan,nan
11.0064697265625,0.01996226,0.02585359,-2.9765055,0.05375239159509964,nan,nan,nan,nan,nan,1.0019710063934326,2.201971006393433,0.005442380905151367,0.4394104178312057,-0.4085565869024818,0.6917695937103332,-2.880788402557373,0.7062037148310434,-0.026551238939796454,0.17317035220649837,0.376675718968097,nan,nan,nan,nan
11.119059085845947,0.029915702,0.056736547,-2.9428265,0.08987238146551281,nan,nan,nan,nan,nan,1.1146140098571777,2.314614009857178,0.0064983367919921875,0.5360436164997175,-0.26955007180467183,0.7271574369263323,-2.925845603942871,0.7109457052818198,-0.11328215917718089,0.19474633540882497,0.3711699594554648,nan,nan,nan,nan
11.2121741771698,0.03736418,0.09259973,-2.90422,0.12487128926500343,nan,nan,nan,nan,nan,1.2080090045928955,2.4080090045928957,0.006186723709106445,0.5840354666931395,-0.13748663078469356,0.7564983398607111,-2.9632036018371584,0.715111193768336,-0.17107691716117618,0.17471448153312533,0.3644244408471516,nan,nan,nan,nan
11.30741024017334,0.039215118,0.12226726,-2.8724887,0.15202275355913242,nan,nan,nan,nan,nan,1.3028781414031982,2.5028781414031984,0.005194664001464844,0.5999843027586959,0.004340097137338542,0.7863023581862764,-3.0011512565612795,0.7184703508937017,-0.21496351976593572,0.15371916620339102,0.35647189941291585,nan,nan,nan,nan
11.423189640045166,0.03819634,0.16916193,-2.8136995,0.1982478301492591,nan,nan,nan,nan,nan,1.4186561107635498,2.61865611076355,0.0054395198822021484,0.5735174236220236,0.17628886749297654,0.8226750799852788,-3.04746244430542,0.7227471181678709,-0.2366145155479233,0.09240930879250242,0.3444389308743181,nan,nan,nan,nan
11.516361951828003,0.03308736,0.20101513,-2.7629855,0.23026068466173816,nan,nan,nan,nan,nan,1.5118398666381836,2.7118398666381838,0.011974096298217773,0.516951234361858,0.3045675972452608,0.8519496202742443,-3.0847359466552735,0.7259391688460785,-0.22805095513997053,0.034413598626701236,0.33505579103713956,nan,nan,nan,nan
11.620126247406006,0.019667454,0.23646966,-2.6958063,0.27105060590063307,nan,nan,nan,nan,nan,1.6156024932861328,2.815602493286133,0.0066034793853759766,0.4209430412593549,0.4275593011680661,0.884547610833682,-3.1262409973144534,0.7298445802938048,-0.17795179433478062,-0.04569648481433976,0.3227376852097366,nan,nan,nan,nan
11.719459295272827,0.005997204,0.25447133,-2.654703,0.2967391889463564,nan,nan,nan,nan,nan,1.7151472568511963,2.9151472568511965,0.006433248519897461,0.30198205909853537,0.5184658484245694,0.9158205206256157,-3.166058902740479,0.7321344028595513,-0.14727060611076292,-0.096721012898812,0.31745863606498226,nan,nan,nan,nan
11.817365884780884,-0.023776975,0.27581725,-2.5973604,0.33370995598123665,nan,nan,nan,nan,nan,1.8128948211669922,3.0128948211669924,0.007622718811035156,0.16682284520998558,0.5763420324044093,0.9465288236216957,-3.205157928466797,0.7345837637301593,-0.0803798985082498,-0.1544233501278022,0.3090740577594698,nan,nan,nan,nan
11.91375184059143,-0.048556764,0.28203902,-2.5599625,0.358730580473416,nan,nan,nan,nan,nan,1.9093742370605469,3.109374237060547,0.00638580322265625,0.023557039054006006,0.5995373765754792,0.9768387260410782,-3.243749694824219,0.7362772126222079,-0.05313125487349765,-0.19232829453908776,0.3027589786809584,nan,nan,nan,nan
12.00920033454895,-0.09011905,0.2760365,-2.5022924,0.408084650654982,nan,nan,nan,nan,nan,2.0046656131744385,3.2046656131744387,0.005038738250732422,-0.11933186055587543,0.5880135262528177,1.0067753947560647,-3.2818662452697756,0.7380502928133181,0.002440615808281535,-0.2168970268139928,0.2913661431243831,nan,nan,nan,nan
12.121415853500366,-0.12434586,0.25286967,-2.4569309,0.46001969199422454,nan,nan,nan,nan,nan,2.1168763637542725,3.3168763637542726,0.006031990051269531,-0.27825781399073546,0.5315755721937354,1.0420274417236048,-3.3267505455017092,0.7394011247008124,0.053854359452489294,-0.22252780625977076,0.27445693963600853,nan,nan,nan,nan
12.21497106552124,-0.14074469,0.23414104,-2.4334621,0.4886439050329345,nan,nan,nan,nan,nan,2.210545539855957,3.410545539855957,0.00781559944152832,-0.39457157142428384,0.4520102598656044,1.071454481274491,-3.364218215942383,0.7400940169201057,0.07805149530045977,-0.22761585454351158,0.2661384164767271,nan,nan,nan,nan
12.31489109992981,-0.16852248,0.17862892,-2.3808234,0.5437626348232264,nan,nan,nan,nan,nan,2.310410737991333,3.510410737991333,0.006161212921142578,-0.49447064931527795,0.339851109996315,1.1028280585556296,-3.404164295196533,0.7409270348510909,0.13296268882810275,-0.18816733833477303,0.24712677614647977,nan,nan,nan,nan
12.415848016738892,-0.17891452,0.13788833,-2.3538525,0.5747961253836913,nan,nan,nan,nan,nan,2.411438226699829,3.6114382266998293,0.0066165924072265625,-0.5639840931582715,0.20474848635445916,1.1345667801893533,-3.4445752906799316,0.7415993450889872,0.15857849097106919,-0.17722299001134134,0.23879324339387736,nan,nan,nan,nan
12.513363599777222,-0.18264936,0.07391628,-2.3152173,0.6183951746598211,nan,nan,nan,nan,nan,2.508910655975342,3.708910655975342,0.005791187286376953,-0.5968035096570161,0.061851199350278656,1.1651886469633035,-3.483564262390137,0.7419301454926243,0.18184741359605838,-0.12717205368570433,0.22671143888852105,nan,nan,nan,nan
12.608010292053223,-0.17797574,0.03984546,-2.295719,0.6395734277194167,nan,nan,nan,nan,nan,2.603472948074341,3.803472948074341,0.005093812942504883,-0.5945897731720993,-0.08039279594062784,1.1948962671797863,-3.5213891792297365,0.7423278798629274,0.19393219146920607,-0.1044468242225258,0.2202034442759604,nan,nan,nan,nan
12.72085165977478,-0.15560013,-0.018276708,-2.2644343,0.6778048458515826,nan,nan,nan,nan,nan,2.7163641452789307,3.916364145278931,0.007048130035400391,-0.5483126659369891,-0.2436251636696664,1.2303620827590758,-3.5665456581115724,0.7426381333947274,0.20713873675271183,-0.05929170605173478,0.21298983204466784,nan,nan,nan,nan
12.813931703567505,-0.11916572,-0.07036659,-2.240429,0.7164078822041118,nan,nan,nan,nan,nan,2.809455633163452,4.009455633163452,0.0053577423095703125,-0.47689283455130244,-0.36410606195671075,1.2596076362040514,-3.603782253265381,0.7424270395218883,0.1970227234976627,0.0020464495433226903,0.2045553100214422,nan,nan,nan,nan
12.909635066986084,-0.086434774,-0.09370248,-2.2253761,0.7402404312839848,nan,nan,nan,nan,nan,2.905116558074951,4.105116558074951,0.005087375640869141,-0.37647797385076814,-0.46718768734334204,1.2896604020978084,-3.6420466232299806,0.7424710677217662,0.19390960828946532,0.039843631888478226,0.19838303278402977,nan,nan,nan,nan
13.020963191986084,-0.03262543,-0.11965711,-2.211266,0.7753515347696741,nan,nan,nan,nan,nan,3.016451597213745,4.216451597213745,0.00627589225769043,-0.23280829386920066,-0.5529921322276763,1.3246373362023651,-3.686580638885498,0.7422863501831756,0.17320052813872974,0.09599006090097667,0.19021174895774068,nan,nan,nan,nan
13.116084575653076,0.034803793,-0.13363022,-2.2013502,0.8111447838676866,nan,nan,nan,nan,nan,3.1116485595703125,4.311648559570313,0.007152557373046875,-0.09512859761749616,-0.5924107949010792,1.3545443439607108,-3.724659423828125,0.7416166566651221,0.1379772772677074,0.13956326643653413,0.18366537662807694,nan,nan,nan,nan
13.208618879318237,0.07759561,-0.13505472,-2.1941216,0.8326693098911109,nan,nan,nan,nan,nan,3.2040810585021973,4.404081058502197,0.005315065383911133,0.043814169874846834,-0.5983981271011617,1.3835828699204464,-3.761632423400879,0.7415697362934703,0.12659366619929746,0.16848270718851538,0.17791323934596118,nan,nan,nan,nan
13.323318481445312,0.13154873,-0.12359178,-2.1808317,0.8631971113272403,nan,nan,nan,nan,nan,3.3187856674194336,4.518785667419434,0.005509138107299805,0.2121352184609364,-0.561247404527211,1.4196183855911744,-3.8075142669677735,0.7415723786005781,0.09599137040496405,0.19644038569065608,0.17370591213426653,nan,nan,nan,nan
13.41748595237732,0.17716329,-0.10225442,-2.1728344,0.8935343370824731,nan,nan,nan,nan,nan,3.413041591644287,4.613041591644287,0.006344318389892578,0.3379251915759059,-0.49578883095365034,1.449229757501386,-3.845216636657715,0.7412218626523098,0.03862368454575035,0.198426177848553,0.17015117842903324,nan,nan,nan,nan
13.50849723815918,0.20050499,-0.084415704,-2.1723878,0.9091295634190837,nan,nan,nan,nan,nan,3.503960609436035,4.703960609436035,0.00520634651184082,0.4414478694271672,-0.40635425256568286,1.4777928093380015,-3.881584243774414,0.7411202690445516,0.011149840146463025,0.20258542574026744,0.16961025139858232,nan,nan,nan,nan
13.620959043502808,0.23590408,-0.043499485,-2.1763005,0.9339850988498446,nan,nan,nan,nan,nan,3.616536855697632,4.816536855697632,0.0061342716217041016,0.5373399900606004,-0.26695642918213036,1.5131596801604161,-3.9266147422790527,0.7403399465105603,-0.05026755867512417,0.1861175202099036,0.17174549234899328,nan,nan,nan,nan
13.721454620361328,0.25368345,-0.012909996,-2.18084,0.9489690931849437,nan,nan,nan,nan,nan,3.7169690132141113,4.9169690132141115,0.006272077560424805,0.5869831837220452,-0.12430101378320212,1.5447113729842108,-3.966787605285645,0.7397929325547938,-0.0864529728346527,0.17709440951597027,0.1727824852055179,nan,nan,nan,nan
13.81753134727478,0.27518064,0.035020765,-2.188906,0.9695923095363582,nan,nan,nan,nan,nan,3.813021421432495,5.013021421432495,0.007334470748901367,0.5996787234688137,0.01963233605086581,1.574887126986059,-4.005208568572998,0.7393364607715803,-0.11762280787051511,0.16538084042142426,0.17552213608315215,nan,nan,nan,nan
13.908573627471924,0.2819549,0.06449177,-2.1971116,0.9809700471958109,nan,nan,nan,nan,nan,3.9040398597717285,5.104039859771729,0.005292177200317383,0.5796049577934096,0.15510671455904132,1.6034814127088342,-4.041615943908692,0.7390253343219073,-0.14231401381775766,0.1541376987354225,0.17775596930614515,nan,nan,nan,nan
14.005088567733765,0.2782434,0.11288206,-2.218637,0.999940826821557,nan,nan,nan,nan,nan,4.000556468963623,5.200556468963623,0.00664830207824707,0.5253792373745492,0.2897872615139199,1.6338029997474994,-4.08022258758545,0.7381661734320539,-0.16933821042025854,0.1067388081706435,0.18259489603181658,nan,nan,nan,nan
14.120437622070312,0.26049155,0.15456484,-2.2434433,1.0161986067460582,nan,nan,nan,nan,nan,4.115949869155884,5.315949869155884,0.006337642669677734,0.4205695998984295,0.42792664282710285,1.6700549055791747,-4.126379947662354,0.7370693859627594,-0.19405021774565778,0.061613209310727855,0.18564087733150034,nan,nan,nan,nan
14.213488578796387,0.23099256,0.19332635,-2.2674944,1.0321835984160095,nan,nan,nan,nan,nan,4.209431886672974,5.409431886672974,0.007708072662353516,0.3093980439392726,0.5140747517691876,1.6994231475266188,-4.16377275466919,0.736481303627146,-0.21735607533435186,0.035401991432372514,0.18823129528064858,nan,nan,nan,nan
14.314012289047241,0.20623715,0.21376938,-2.2857149,1.0442875121116995,nan,nan,nan,nan,nan,4.309586763381958,5.509586763381958,0.005597114562988281,0.17160876429670485,0.5749351546188126,1.7308877300156325,-4.203834705352784,0.7357026067331396,-0.22965503094065587,-0.01103785958170662,0.1911012027868637,nan,nan,nan,nan
14.410220384597778,0.15889272,0.24170223,-2.312243,1.0644089646313364,nan,nan,nan,nan,nan,4.405680894851685,5.605680894851685,0.005280256271362305,0.02912107886916414,0.5992928856289685,1.761076591763471,-4.242272357940674,0.7347683041212554,-0.21551092243557893,-0.0723173301859468,0.19443079760591037,nan,nan,nan,nan
14.522866010665894,0.11455245,0.24877888,-2.3311565,1.083530653695407,nan,nan,nan,nan,nan,4.51836371421814,5.71836371421814,0.006572723388671875,-0.1395007418237291,0.5835576604163716,1.7964769435142152,-4.287345485687256,0.7340062304543452,-0.18684896382364627,-0.1250916429532043,0.19562234991104588,nan,nan,nan,nan
14.616812705993652,0.07845674,0.24450895,-2.344103,1.1003226861292428,nan,nan,nan,nan,nan,4.612358093261719,5.812358093261719,0.0062046051025390625,-0.27220361575239443,0.5347010300825339,1.8260061485824193,-4.324943237304688,0.7337672577080019,-0.1749258509796583,-0.1598135172279391,0.19519429870368835,nan,nan,nan,nan
14.718415260314941,0.025595015,0.23011725,-2.3628597,1.1252394485737263,nan,nan,nan,nan,nan,4.713913679122925,5.913913679122925,0.0067043304443359375,-0.39838368159878546,0.44865403401262033,1.8579107768296765,-4.3655654716491705,0.7332053959160367,-0.1343940331748056,-0.18985038432786047,0.19478588238360062,nan,nan,nan,nan
14.81101393699646,-0.0139927985,0.19814585,-2.385699,1.1527714748412268,nan,nan,nan,nan,nan,4.806479215621948,6.006479215621948,0.0051152706146240234,-0.4910884989870186,0.3447203013497711,1.8869910977737696,-4.40259168624878,0.7324190685462593,-0.08205697925680887,-0.20534292278578153,0.19373460920209815,nan,nan,nan,nan
14.909799337387085,-0.033103462,0.17305292,-2.4050517,1.1725432244565643,nan,nan,nan,nan,nan,4.905269145965576,6.105269145965576,0.005251884460449219,-0.5607418914427746,0.21346786920091626,1.9180268697153886,-4.442107658386231,0.7318002025621066,-0.05035340323964589,-0.21264275278832057,0.1909863648590656,nan,nan,nan,nan
15.022098779678345,-0.05283652,0.1271467,-2.4363632,1.2028555038407533,nan,nan,nan,nan,nan,5.017630100250244,6.217630100250244,0.007307529449462891,-0.598015531833803,0.04875883187212108,1.9533261045684935,-4.487052040100098,0.7307699499397579,0.005430032645045304,-0.19723902994737072,0.1893054602184568,nan,nan,nan,nan
15.11635136604309,-0.056281637,0.075663656,-2.470718,1.2318439231361973,nan,nan,nan,nan,nan,5.111826419830322,6.311826419830322,0.0057184696197509766,-0.5927710510579584,-0.09285731542341383,1.9829187511272905,-4.524730567932129,0.7294432693900045,0.07166749681798738,-0.16016951025765147,0.18682554275555943,nan,nan,nan,nan
15.211430311203003,-0.046229016,0.039340563,-2.4957674,1.2532103086122475,nan,nan,nan,nan,nan,5.206894636154175,6.406894636154175,0.0051877498626708984,-0.5539549900157648,-0.23050785027116533,2.0127853121265806,-4.56275785446167,0.7284161664580998,0.11549472725867423,-0.12935322518431883,0.18578390750347598,nan,nan,nan,nan
15.307217121124268,-0.016178716,-0.0077951835,-2.529595,1.2824537575211998,nan,nan,nan,nan,nan,5.302835702896118,6.502835702896118,0.006066799163818359,-0.4828844387375013,-0.3561216348737722,2.0429260871719865,-4.601134281158448,0.7270390518227894,0.17709929440536823,-0.06686872009233046,0.1826392384361811,nan,nan,nan,nan
15.422040700912476,0.03203235,-0.05497538,-2.5581954,1.3112299147529507,nan,nan,nan,nan,nan,5.417557954788208,6.617557954788208,0.0066051483154296875,-0.3616879989190456,-0.4787293509259031,2.078967145546733,-4.647023181915284,0.7260129526016815,0.2246454674225504,-0.017019670938022157,0.18024779032010688,nan,nan,nan,nan
15.518835067749023,0.07480015,-0.08458163,-2.579992,1.3320788252519153,nan,nan,nan,nan,nan,5.514349699020386,6.714349699020386,0.0064046382904052734,-0.2357262937370861,-0.5517545780879185,2.1093751688075284,-4.685739879608154,0.7254576462760619,0.2585932052194748,0.01224669607870236,0.1807427458459735,nan,nan,nan,nan
15.613017082214355,0.14742684,-0.12181199,-2.6134365,1.3639668253173962,nan,nan,nan,nan,nan,5.608610153198242,6.808610153198242,0.005235910415649414,-0.09964963506210094,-0.5916670940926072,2.1389879638444476,-4.723444061279297,0.7243823854282347,0.2754032783476708,0.05389993569799345,0.17465967834832657,nan,nan,nan,nan
15.710605144500732,0.18975365,-0.13965115,-2.6297107,1.3816108685018917,nan,nan,nan,nan,nan,5.706073522567749,6.906073522567749,0.005192279815673828,0.04681015148109654,-0.5981712210716232,2.1696069843649823,-4.7624294090271,0.7237839370457898,0.3055788256209773,0.07376936401343509,0.17595391504441815,nan,nan,nan,nan
15.808563470840454,0.2677739,-0.16233037,-2.6563983,1.4135884101322522,nan,nan,nan,nan,nan,5.80403470993042,7.00403470993042,0.006100654602050781,0.1911869823463599,-0.5687244831913716,2.2003823990205325,-4.801613883972168,0.723188943386351,0.2825414150802137,0.08932716851112982,0.16971780587624938,nan,nan,nan,nan
15.922958612442017,0.3346341,-0.17798974,-2.6785066,1.441433377679156,nan,nan,nan,nan,nan,5.918508052825928,7.118508052825928,0.0063931941986083984,0.34470458738219606,-0.4910995290546204,2.236345260327772,-4.847403221130372,0.7228606522159604,0.2512269156022737,0.08792510885527723,0.1674379190622636,nan,nan,nan,nan
16.01815128326416,0.3754249,-0.18662603,-2.694191,1.4599190601495518,nan,nan,nan,nan,nan,6.0137083530426025,7.213708353042603,0.00688624382019043,0.45126957617176505,-0.3954184740521812,2.2662533167057965,-4.885483341217041,0.7227676412063387,0.22556391404790088,0.07350963940604323,0.16845959952931447,nan,nan,nan,nan
16.111162900924683,0.41935945,-0.19526401,-2.7182238,1.4834340392361036,nan,nan,nan,nan,nan,6.106624364852905,7.3066243648529055,0.005750417709350586,0.5305233032086518,-0.2802588531207907,2.2954437427162078,-4.922649745941162,0.7225318137855962,0.13871071352729078,0.03885361664655468,0.1661949507476082,nan,nan,nan,nan
16.2097487449646,0.43816984,-0.19919902,-2.7362452,1.4983255715133446,nan,nan,nan,nan,nan,6.205214977264404,7.4052149772644045,0.0060024261474609375,0.5830556224434303,-0.1415843958107814,2.326416897082696,-4.962085990905762,0.7221989165915383,0.08940460601133121,0.007784469570249449,0.1705507796888429,nan,nan,nan,nan
16.308261156082153,0.4491428,-0.20199898,-2.7530897,1.5158941031214879,nan,nan,nan,nan,nan,6.303720235824585,7.503720235824585,0.006249904632568359,0.5999737735957381,-0.0056099017183899305,2.3573632367459587,-4.998511905670166,0.7220761933175734,-0.02691634329900983,-0.03318277471441769,0.1700540876141821,nan,nan,nan,nan
16.419361352920532,0.4395884,-0.2068483,-2.7603407,1.5336980820227977,nan,nan,nan,nan,nan,6.414853811264038,7.614853811264038,0.006477832794189453,0.5751758663523681,-0.17080024228847798,2.392276879162734,-4.954058475494385,0.7223890520577828,-0.12134361579938507,-0.0686295982058539,0.1732452120413989,nan,nan,nan,nan
16.519494771957397,0.41985404,-0.21001945,-2.7603612,1.5462291629732197,nan,nan,nan,nan,nan,6.515199422836304,7.715199422836304,0.006617307662963867,0.5143612255283416,-0.30892155909386193,2.4238013827762743,-4.913920230865479,0.7225897822486467,-0.17105394137145294,-0.10105367527380581,0.1816121436643133,nan,nan,nan,nan
16.617350339889526,0.37269408,-0.20863095,-2.7556732,1.5647827497593303,nan,nan,nan,nan,nan,6.612830877304077,7.812830877304077,0.006561994552612305,0.423911110265101,-0.4246167337656505,2.4544732087877987,-4.874867649078369,0.7232613179211699,-0.258079189336659,-0.09657699779656058,0.18146733977580842,nan,nan,nan,nan
16.710657358169556,0.33345863,-0.2009246,-2.7496102,1.574964728237068,nan,nan,nan,nan,nan,6.706398010253906,7.906398010253906,0.005209207534790039,0.3133088128001263,-0.5117006818656541,2.483868190537063,-4.837440795898438,0.7236399847666446,-0.3076422759972882,-0.08859454507757299,0.18805721468321085,nan,nan,nan,nan
16.807791233062744,0.26130915,-0.17857185,-2.7414038,1.5905091429267517,nan,nan,nan,nan,nan,6.803265810012817,8.003265810012817,0.006494283676147461,0.18072031152256313,-0.5721364950806649,2.514300107346263,-4.7986936759948735,0.7242366500335343,-0.3330251372146696,-0.032867387371447336,0.18733730514389796,nan,nan,nan,nan
16.92410922050476,0.18551995,-0.1458819,-2.7279122,1.6049967479566067,nan,nan,nan,nan,nan,6.919604063034058,8.119604063034057,0.006472110748291016,0.008136631835753942,-0.5999448268152409,2.5508488474485627,-4.752158374786378,0.7247646935054488,-0.3214157558935026,0.030660750404805023,0.19441697910938668,nan,nan,nan,nan
17.02112865447998,0.14115831,-0.12092105,-2.7197533,1.6135266545317912,nan,nan,nan,nan,nan,7.016710519790649,8.216710519790649,0.007781028747558594,-0.13707490298764477,-0.5841322375720481,2.581355740564827,-4.7133157920837405,0.725091497286893,-0.3166124386824107,0.060207603138542024,0.20731596092964838,nan,nan,nan,nan
17.120641708374023,0.07563299,-0.06832989,-2.7093453,1.6260143940216454,nan,nan,nan,nan,nan,7.116146802902222,8.316146802902221,0.006626129150390625,-0.2772826570348571,-0.5320848880655132,2.6125945702171864,-4.673541278839112,0.7255359384983117,-0.22994825233899485,0.12707571362475883,0.2095507944144926,nan,nan,nan,nan
17.217655897140503,0.03825806,-0.027788019,-2.7005358,1.634001157239057,nan,nan,nan,nan,nan,7.213132619857788,8.413132619857787,0.006350040435791016,-0.39750219952749977,-0.4494352026386003,2.6430635632221873,-4.634746952056885,0.7257592620581422,-0.18592906076090762,0.1618648973472169,0.2230593660209162,nan,nan,nan,nan
17.31406259536743,0.00082685833,0.035023306,-2.6903522,1.6446016500983198,nan,nan,nan,nan,nan,7.3095622062683105,8.50956220626831,0.005396604537963867,-0.49374476141294843,-0.34090484094138435,2.6733578112477874,-4.596175117492676,0.7261213644705296,-0.08038439449467408,0.1940746392361424,0.22606054040745766,nan,nan,nan,nan
17.41251850128174,-0.016792616,0.08237916,-2.6857386,1.652343328272552,nan,nan,nan,nan,nan,7.40798544883728,8.60798544883728,0.00548863410949707,-0.5621861187554907,-0.2096348441424689,2.7042783848275036,-4.5568058204650885,0.7263002435684065,-0.026565244800515024,0.21318984316643144,0.2377330172930061,nan,nan,nan,nan
17.50840997695923,-0.027277945,0.154631,-2.684183,1.6641640465893985,nan,nan,nan,nan,nan,7.503876209259033,8.703876209259032,0.006911277770996094,-0.5959731581456975,-0.06939736860892774,2.7344033556763154,-4.518449516296387,0.7262730535047345,0.07202483326709926,0.20744933387017322,0.23979090400154057,nan,nan,nan,nan
17.610214948654175,-0.024098506,0.20066203,-2.6843016,1.673084655177976,nan,nan,nan,nan,nan,7.605679273605347,8.805679273605346,0.006288051605224609,-0.5941348480519679,0.08368860334755869,2.766385731582646,-4.477728290557861,0.7259521653923595,0.12984929501290454,0.20366199638802268,0.25013892358684314,nan,nan,nan,nan
17.704807996749878,-0.0046038893,0.2571191,-2.6767857,1.686753145911986,nan,nan,nan,nan,nan,7.700335264205933,8.900335264205932,0.007700204849243164,-0.557679582068503,0.22134471700020278,2.7961227880515525,-4.439865894317627,0.7259431211260052,0.19283646808101515,0.1688133257052513,0.25160537875601485,nan,nan,nan,nan
17.820006847381592,0.04004458,0.3028727,-2.6613698,1.7034348627393965,nan,nan,nan,nan,nan,7.815575122833252,9.015575122833251,0.006722927093505859,-0.47123671873664075,0.3713973006287527,2.832326457377984,-4.3937699508667,0.726238629072929,0.24392046227878925,0.11845768216376219,0.25459079566894005,nan,nan,nan,nan
17.914049863815308,0.082891755,0.3268543,-2.6480021,1.7171740061502736,nan,nan,nan,nan,nan,7.909512758255005,9.109512758255004,0.00535893440246582,-0.3712932098629079,0.47131873749056336,2.861837835911641,-4.356194896697998,0.7265840335398341,0.274885861966299,0.08001885054142284,0.2625457233149621,nan,nan,nan,nan
18.01079249382019,0.15374994,0.3474571,-2.6255968,1.739599057495529,nan,nan,nan,nan,nan,8.006261110305786,9.206261110305785,0.0058536529541015625,-0.2468933454651479,0.5468488602575917,2.8922322271166068,-4.317495555877686,0.7272733372993962,0.28702300621171456,-0.01654335443290023,0.2572948335320339,nan,nan,nan,nan
18.107317686080933,0.21077444,0.3519694,-2.605216,1.7572127568625042,nan,nan,nan,nan,nan,8.102808713912964,9.302808713912963,0.006877422332763672,-0.10826560263081017,0.5901513020293927,2.9225635513380075,-4.278876514434815,0.7277970822224307,0.3021618637065743,-0.05295989775821124,0.2664203847537194,nan,nan,nan,nan
18.209761142730713,0.29593024,0.33707386,-2.5785434,1.784693532708023,nan,nan,nan,nan,nan,8.205254793167114,9.405254793167114,0.0062029361724853516,0.04557920146338389,0.5982662754944158,2.9547479363353992,-4.237898082733155,0.7286653834535819,0.25436538064117914,-0.13850349418596838,0.25843117685035716,nan,nan,nan,nan
18.307292699813843,0.35310063,0.3166605,-2.5572894,1.8029935704065507,nan,nan,nan,nan,nan,8.30287504196167,9.50287504196167,0.0067141056060791016,0.18952858903900346,0.5692792934376627,2.985416241980858,-4.198849983215332,0.7291707076889175,0.2292716511011326,-0.17908591073986344,0.26680382732180247,nan,nan,nan,nan
18.423653841018677,0.4209071,0.27635652,-2.5289855,1.828895653033705,nan,nan,nan,nan,nan,8.419176816940308,9.619176816940307,0.0069255828857421875,0.3455295340611694,0.49051946046153067,3.0219535221680918,-4.152329273223877,0.730097580565777,0.15080632265818042,-0.2311117898123857,0.26575152440663624,nan,nan,nan,nan
18.52079701423645,0.47125423,0.22137503,-2.5048187,1.856385075966477,nan,nan,nan,nan,nan,8.516297340393066,9.716297340393066,0.006322622299194336,0.453832927652819,0.3924737873770312,3.05246483446729,-4.113481063842774,0.7305176082318681,0.04692889776448238,-0.24742536155307657,0.25596484884101456,nan,nan,nan,nan
18.619520902633667,0.49198076,0.18020362,-2.4892004,1.8740948288764985,nan,nan,nan,nan,nan,8.615126132965088,9.815126132965087,0.007843971252441406,0.5363901118366458,0.2688599038976816,3.083512815338031,-4.0739495468139655,0.7306025410405445,-0.011205319477703757,-0.25382379852571413,0.26224021127149405,nan,nan,nan,nan
18.70694327354431,0.50418246,0.1310836,-2.4725566,1.8920625563752715,nan,nan,nan,nan,nan,8.702731132507324,9.902731132507324,0.007109403610229492,0.5821604151215063,0.14522138639179652,3.111034737635994,-4.038907546997071,0.7307409377376898,-0.07887666310810561,-0.24858189906718972,0.26105023366095803,nan,nan,nan,nan
18.807934999465942,0.49533087,0.058319684,-2.4516666,1.9184963454947326,nan,nan,nan,nan,nan,8.803663730621338,10.003663730621337,0.006966352462768555,0.5999745642250248,-0.0055246975475209585,3.1427436485102658,-3.998534507751465,0.7308995373573931,-0.15418097512414244,-0.23330216860807146,0.2592140378413112,nan,nan,nan,nan
18.923503875732422,0.455358,-0.018280532,-2.4313114,1.9447200595816132,nan,nan,nan,nan,nan,8.919013261795044,10.119013261795043,0.0075190067291259766,0.5733589524572004,-0.17680359622242367,3.1789817724833,-3.9523946952819826,0.730799253496646,-0.2537350149684666,-0.15421596855301486,0.24721906169711613,nan,nan,nan,nan
19.017505884170532,0.40974936,-0.07356256,-2.4150124,1.9645307773903549,nan,nan,nan,nan,nan,9.013046026229858,10.213046026229858,0.006331682205200195,0.5160255913648476,-0.30613328642367404,3.208523036677815,-3.914781589508057,0.7308038389452943,-0.2986877625839663,-0.1255565813852182,0.2526266951973167,nan,nan,nan,nan
19.1126708984375,0.35794657,-0.1177502,-2.4004025,1.9828418578007558,nan,nan,nan,nan,nan,9.10813283920288,10.30813283920288,0.0058629512786865234,0.4288950881799723,-0.4195819387617797,3.2383954399867463,-3.876746864318848,0.7307909349071504,-0.3320683848364855,-0.07686720591614077,0.2526237088146453,nan,nan,nan,nan
19.224783420562744,0.27763176,-0.16093293,-2.378399,2.006742586988894,nan,nan,nan,nan,nan,9.220379829406738,10.420379829406738,0.0071277618408203125,0.2951378558015721,-0.5223922339323684,3.273658871967947,-3.8318480682373046,0.7309670953519616,-0.33948088747773236,0.0008881019732527078,0.25108372692542896,nan,nan,nan,nan
19.318093061447144,0.17328519,-0.18741575,-2.3487895,2.033320537061935,nan,nan,nan,nan,nan,9.313646793365479,10.513646793365478,0.006067514419555664,0.1657333120548484,-0.5766562834785816,3.302959552847487,-3.7945412826538085,0.7312959000203831,-0.3063330021968212,0.08313488032490378,0.24599884951795245,nan,nan,nan,nan
19.41508388519287,0.10885584,-0.19295402,-2.3302948,2.0490353675051973,nan,nan,nan,nan,nan,9.410547018051147,10.610547018051147,0.005627870559692383,0.021789790805136152,-0.5996042069704551,3.333401656247857,-3.7557811927795415,0.7315711073851604,-0.27954356269251224,0.1372910027224315,0.2524897399402479,nan,nan,nan,nan
19.525157690048218,0.011587499,-0.18687835,-2.3041773,2.0723701013676807,nan,nan,nan,nan,nan,9.520660877227783,10.720660877227782,0.006338596343994141,-0.14286751018347338,-0.5827425456700198,3.3679949453526308,-3.7117356491088866,0.7320251932630985,-0.20350362597955743,0.20589402595334316,0.25344210992758237,nan,nan,nan,nan
19.619556665420532,-0.061326552,-0.1662634,-2.2901533,2.091031484901878,nan,nan,nan,nan,nan,9.615059614181519,10.815059614181518,0.005481243133544922,-0.27582775325206166,-0.5328405488848608,3.397651183204832,-3.6739761543273928,0.7319900664182187,-0.09819467600381722,0.24332000905239023,0.2474956566453611,nan,nan,nan,nan
19.71332025527954,-0.12647559,-0.12597102,-2.2699568,2.108962555706914,nan,nan,nan,nan,nan,9.70879054069519,10.90879054069519,0.00561070442199707,-0.39257401554831184,-0.4537462311868538,3.4270976222197835,-3.636483783721924,0.7319675348254477,-0.010288149869326026,0.2566197001950691,0.24716211643958105,nan,nan,nan,nan
19.812811136245728,-0.16494156,-0.08940332,-2.2539473,2.1222187333587073,nan,nan,nan,nan,nan,9.808303356170654,11.008303356170654,0.00553441047668457,-0.4926637252625514,-0.342465259275193,3.458360495223359,-3.596678657531738,0.7319682772913305,0.04317315279024147,0.266616281880905,0.25719111138600115,nan,nan,nan,nan
19.912729024887085,-0.20512451,-0.025864221,-2.2281966,2.142200697258333,nan,nan,nan,nan,nan,9.908194303512573,11.108194303512573,0.005621910095214844,-0.5622960805280712,-0.2093397186937273,3.4897421618563085,-3.556722278594971,0.7319830216996903,0.1500799621215983,0.22680358421897556,0.24989249739011063,nan,nan,nan,nan
20.011563777923584,-0.22094068,0.022061175,-2.2092257,2.1557401921211934,nan,nan,nan,nan,nan,10.007036447525024,11.207036447525024,0.00680994987487793,-0.5965055459843519,-0.06466168579545577,3.520794337205767,-3.5171854209899904,0.7319750093889925,0.20377919070306647,0.2113324493758529,0.2582250545088568,nan,nan,nan,nan
20.11040687561035,-0.21479253,0.094984,-2.1777196,2.1777619469182907,nan,nan,nan,nan,nan,10.105874061584473,11.305874061584472,0.006172657012939453,-0.5940938066336696,0.08397945534186306,3.551845089428517,-3.477650375366211,0.732132859045903,0.26598872496864473,0.13765234847926736,0.2508267328078872,nan,nan,nan,nan
20.209408283233643,-0.19846362,0.14356425,-2.1605291,2.193701356805697,nan,nan,nan,nan,nan,10.204886436462402,11.404886436462402,0.006810188293457031,-0.5551113385787068,0.22770902876556381,3.5829507443816158,-3.438045425415039,0.7320886602120547,0.29504612535409747,0.10988833670876885,0.2587095958458951,nan,nan,nan,nan
20.320486307144165,-0.16027069,0.20713806,-2.1297011,2.218648310084066,nan,nan,nan,nan,nan,10.315955877304077,11.515955877304076,0.006122112274169922,-0.47088109796087596,0.3718480759438724,3.6178442383202687,-3.3936176490783696,0.732171938036607,0.2961525723965895,0.010567360754743176,0.25049354106892074,nan,nan,nan,nan
20.415234327316284,-0.11324345,0.25135252,-2.1024115,2.2410290869889455,nan,nan,nan,nan,nan,10.410709381103516,11.610709381103515,0.00567173957824707,-0.36987406947424534,0.4724332468514056,3.6476119294640896,-3.355716247558594,0.7324348415610065,0.2747919788587277,-0.05067958709514147,0.2514265142283499,nan,nan,nan,nan
20.507043838500977,-0.07876678,0.27308074,-2.087262,2.255089733034975,nan,nan,nan,nan,nan,10.502550601959229,11.702550601959228,0.006613492965698242,-0.2519821885416341,0.5445227053647702,3.6764646999377923,-3.318979759216309,0.7324367541639867,0.25801294918383255,-0.09517185446002062,0.25692108103860245,nan,nan,nan,nan
20.623425722122192,-0.0042153345,0.29652292,-2.0559313,2.2814021886849316,nan,nan,nan,nan,nan,10.618903160095215,11.818903160095214,0.006587505340576172,-0.0843120770583035,0.5940466931665512,3.7130179341244314,-3.2724387359619143,0.7325159301791445,0.21457713954312194,-0.1553689310431653,0.2583512723294122,nan,nan,nan,nan
20.71947431564331,0.05458405,0.3008858,-2.0293334,2.3026539544178677,nan,nan,nan,nan,nan,10.714977025985718,11.914977025985717,0.005895853042602539,0.060182559729966875,0.5969740861246399,3.743200429252789,-3.234009189605713,0.7327061353320284,0.1549521100195522,-0.20185708909024033,0.25829697588527895,nan,nan,nan,nan
20.815138339996338,0.11693501,0.28801182,-1.9948771,2.3292944113592235,nan,nan,nan,nan,nan,10.810597896575928,12.010597896575927,0.00545811653137207,0.20054170761301468,0.5654936104923345,3.7732406117103956,-3.195760841369629,0.7330746223710474,0.051317329766390085,-0.23026744814037284,0.24887770519937907,nan,nan,nan,nan
20.90842056274414,0.144909,0.27383983,-1.9765687,2.3435701632740082,nan,nan,nan,nan,nan,10.903917074203491,12.10391707420349,0.007262229919433594,0.326467700785866,0.5034072311196873,3.8025576959977747,-3.1584331703186037,0.7331393394937922,0.01381249365816075,-0.2435739670236603,0.2561591181864348,nan,nan,nan,nan
21.0041446685791,0.19015677,0.23857425,-1.9461554,2.3723573182872766,nan,nan,nan,nan,nan,10.999693632125854,12.199693632125854,0.00756072998046875,0.4370647916293768,0.41106491934726014,3.832646789073276,-3.1201225471496583,0.7333517113595407,-0.08174401499343346,-0.22376769472784772,0.2443430715171015,nan,nan,nan,nan
21.122179746627808,0.22121131,0.18701887,-1.9208295,2.39871340655378,nan,nan,nan,nan,nan,11.11778998374939,12.317789983749389,0.0063707828521728516,0.5381780907935853,0.2652627802571847,3.8697478521409017,-3.072884006500244,0.7333048966347357,-0.15228102635502289,-0.201878542565802,0.2412530140527033,nan,nan,nan,nan
21.215051651000977,0.23085506,0.14448494,-1.9050176,2.4169197398579536,nan,nan,nan,nan,nan,11.210529088973999,12.410529088973998,0.011564970016479492,0.5848945405031025,0.13378481412202414,3.898882701308314,-3.0357883644104007,0.7331350386451397,-0.19713519733719004,-0.18647575894388915,0.2433175197505566,nan,nan,nan,nan
21.318298816680908,0.2310915,0.07436825,-1.8773698,2.4438097200240234,nan,nan,nan,nan,nan,11.313921213150024,12.513921213150024,0.0056726932525634766,0.5996327930973037,-0.020988412096350235,3.9313642950833585,-2.9944315147399903,0.7329819604385228,-0.2464928736861371,-0.12175180465222951,0.23354741494728617,nan,nan,nan,nan
21.41484522819519,0.2235825,0.030477474,-1.8590624,2.4603004258331245,nan,nan,nan,nan,nan,11.41032075881958,12.61032075881958,0.0055866241455078125,0.577084390489079,-0.16423643400247132,3.9616491055318455,-2.955871696472168,0.7328871356296306,-0.2734570600112207,-0.09795606517111952,0.2384723822029273,nan,nan,nan,nan
21.507538318634033,0.20749305,-0.02570281,-1.8351234,2.480313387344097,nan,nan,nan,nan,nan,11.50304913520813,12.70304913520813,0.0064411163330078125,0.5235534936869927,-0.2930729247954238,3.990780584136003,-2.918780345916748,0.7330697507819977,-0.2776075721584843,-0.029636238173792236,0.23113397327828136,nan,nan,nan,nan
21.62165856361389,0.17117651,-0.08699865,-1.8072942,2.5080239991127105,nan,nan,nan,nan,nan,11.617197036743164,12.817197036743163,0.005951881408691406,0.41922621111751235,-0.4292428029822456,4.026641205024519,-2.8731211853027347,0.7329977305241463,-0.27274285526493747,0.020766199539490535,0.23472134300608868,nan,nan,nan,nan
21.71691393852234,0.12837265,-0.13257185,-1.7835302,2.5331724551500536,nan,nan,nan,nan,nan,11.71238374710083,12.91238374710083,0.005370616912841797,0.3055757290008273,-0.516355956531551,4.056544992022421,-2.835046501159668,0.7329458991595076,-0.21050421218027154,0.09726924780748465,0.22663912842674447,nan,nan,nan,nan
21.80994963645935,0.0984017,-0.1530773,-1.7709955,2.5486905477396844,nan,nan,nan,nan,nan,11.805501461029053,13.005501461029052,0.0073375701904296875,0.17750275294929382,-0.5731428902947518,4.085798784622019,-2.797799415588379,0.732829182657153,-0.1850882090553082,0.13124603420705636,0.23298742184909815,nan,nan,nan,nan
21.924151182174683,0.045706913,-0.16816524,-1.7540655,2.573585615343733,nan,nan,nan,nan,nan,11.919656038284302,13.119656038284301,0.00809931755065918,0.008058262142842982,-0.5999458845689645,4.121661502749893,-2.7521375846862797,0.7323726192623893,-0.11604764526008014,0.18083489145600756,0.2342865501702184,nan,nan,nan,nan
22.022053956985474,-0.010301646,-0.15775976,-1.7372245,2.5970035334831905,nan,nan,nan,nan,nan,12.017651796340942,13.217651796340942,0.008858442306518555,-0.13845639158550238,-0.5838063271574933,4.152447778109264,-2.712939281463623,0.732026189803452,-0.004200054135122611,0.21194457086333854,0.22598222285822278,nan,nan,nan,nan
22.12159013748169,-0.051614158,-0.13851897,-1.7196482,2.6136766042203954,nan,nan,nan,nan,nan,12.117086410522461,13.31708641052246,0.006873130798339844,-0.2785383966640902,-0.5314286044087182,4.183686083451783,-2.6731654357910157,0.7319867700978174,0.04128875676767934,0.2302930851780962,0.23220710797785507,nan,nan,nan,nan
22.21651577949524,-0.0885082,-0.11021311,-1.7084976,2.628594218382312,nan,nan,nan,nan,nan,12.21199631690979,13.41199631690979,0.0055084228515625,-0.39621706490739445,-0.4505685713364499,4.2135029099177155,-2.635201473236084,0.7320167371386209,0.08963042144175394,0.23269696672701676,0.2328539603143232,nan,nan,nan,nan
22.317331075668335,-0.13322735,-0.060102187,-1.6917044,2.6510951119872095,nan,nan,nan,nan,nan,12.312829494476318,13.512829494476318,0.00553441047668457,-0.49652745447739594,-0.3368389629336213,4.2451805869058274,-2.5948682022094727,0.731923725450466,0.1490423555209677,0.19978647003238584,0.22573897747759838,nan,nan,nan,nan
22.41226291656494,-0.15635407,-0.018480424,-1.6812527,2.6679779132974404,nan,nan,nan,nan,nan,12.407735347747803,13.607735347747802,0.006133556365966797,-0.5620542369850631,-0.2099881774937308,4.274996140047865,-2.556905860900879,0.7319172252683405,0.17256970019352633,0.16152079671137723,0.22698846242405177,nan,nan,nan,nan
22.509336948394775,-0.17116755,0.026523875,-1.6803737,2.6837640132965035,nan,nan,nan,nan,nan,12.504822015762329,13.704822015762328,0.006939411163330078,-0.5961364367010187,-0.06798050336245161,4.305496816347459,-2.5180711936950684,0.7316239645631852,0.1871467011695461,0.12428424189421004,0.22972075638976858,nan,nan,nan,nan
22.60740041732788,-0.17305598,0.09473688,-1.6710117,2.7084820476648157,nan,nan,nan,nan,nan,12.602916717529297,13.802916717529296,0.006071329116821289,-0.5947015780344238,0.07956150503457093,4.336314175790178,-2.4788333129882814,0.7313224056476302,0.19593645286855085,0.04569163426905606,0.223574476617378,nan,nan,nan,nan
22.71890425682068,-0.15687412,0.16066213,-1.6578209,2.7325098719613368,nan,nan,nan,nan,nan,12.714463949203491,13.91446394920349,0.005434274673461914,-0.5494698927353876,0.24100381112621758,4.371357772145771,-2.434214420318604,0.7314114941888293,0.187602173155199,-0.039059701493695566,0.2208079564270128,nan,nan,nan,nan
22.8153133392334,-0.13921462,0.20019194,-1.649985,2.7481233547769603,nan,nan,nan,nan,nan,12.810782194137573,14.010782194137573,0.006029844284057617,-0.4756762525701515,0.36569400151057635,4.401617041214928,-2.3956871223449707,0.7316383557636825,0.18018772656493973,-0.08322210284190609,0.22496927651676238,nan,nan,nan,nan
22.91496968269348,-0.09975407,0.26001546,-1.6401651,2.7734552522829174,nan,nan,nan,nan,nan,12.910464525222778,14.110464525222778,0.006582498550415039,-0.37016473009099027,0.47220554062469905,4.432933169117927,-2.355814189910889,0.7317420277342558,0.13738585516888538,-0.1511559102317787,0.21800100886740664,nan,nan,nan,nan
23.013657808303833,-0.06810961,0.3002472,-1.6372998,2.790524943403171,nan,nan,nan,nan,nan,13.009124755859375,14.209124755859374,0.006319522857666016,-0.24295124480603353,0.5486116045502489,4.4639281946948675,-2.31635009765625,0.7317859912654823,0.11617379339546957,-0.18495181600310806,0.2223065406176167,nan,nan,nan,nan
23.10786747932434,-0.019663695,0.34118786,-1.6331178,2.813349416457375,nan,nan,nan,nan,nan,13.10339617729187,14.30339617729187,0.0058078765869140625,-0.10739415221123567,0.5903105081826259,4.493544435196447,-2.2786415290832522,0.7317697864426403,0.06406978247870286,-0.2051772220198107,0.2161950782208747,nan,nan,nan,nan
23.217960119247437,0.025081007,0.37027383,-1.629727,2.834092994346582,nan,nan,nan,nan,nan,13.213423013687134,14.413423013687133,0.005660533905029297,0.05785052949017139,0.5972045849101519,4.528110385288155,-2.2346307945251467,0.7319818092672818,0.02567256787195519,-0.2150880187808607,0.21783213281042096,nan,nan,nan,nan
23.313572883605957,0.060482267,0.38575652,-1.6270539,2.8500524601845907,nan,nan,nan,nan,nan,13.309037685394287,14.509037685394286,0.008583784103393555,0.19832273626763047,0.5662756327790556,4.558148620309215,-2.196384925842285,0.7322307152247235,0.0007871908181511014,-0.2116833011796392,0.22012304862471274,nan,nan,nan,nan
23.4129581451416,0.11570587,0.39576027,-1.6241875,2.873677295877623,nan,nan,nan,nan,nan,13.408433675765991,14.60843367576599,0.007545948028564453,0.3321609506509711,0.4996689932972058,4.589374791624017,-2.156626529693604,0.7323580437284659,-0.03508164516524284,-0.17835595809805238,0.2149723260232928,nan,nan,nan,nan
23.523451328277588,0.14551824,0.3937888,-1.6207527,2.889405725410384,nan,nan,nan,nan,nan,13.51906442642212,14.719064426422118,0.0064029693603515625,0.4565513686844245,0.38930816553519487,4.624130466976259,-2.1123742294311523,0.7327919748619739,-0.0524108054611521,-0.1457843007226065,0.214960598128883,nan,nan,nan,nan
23.616475820541382,0.18082385,0.3849172,-1.6158968,2.9137458894520494,nan,nan,nan,nan,nan,13.6119384765625,14.8119384765625,0.005808591842651367,0.5342189624528628,0.2731484946980062,4.653307710339274,-2.075224609375,0.7331553445549133,-0.05574884144261808,-0.09815685482802737,0.21311424309965898,nan,nan,nan,nan
23.709754705429077,0.19600303,0.37692884,-1.6138725,2.928807416560507,nan,nan,nan,nan,nan,13.705288171768188,14.905288171768188,0.006246089935302734,0.5830816581392111,0.14147713575566975,4.682634382006578,-2.0378847312927246,0.7336776350049629,-0.045343166864554606,-0.06421712775689166,0.2147163187029342,nan,nan,nan,nan
23.82411813735962,0.2082768,0.36347178,-1.6116194,2.9527561877711492,nan,nan,nan,nan,nan,13.819724082946777,15.019724082946777,0.007700920104980469,0.5992629351900459,0.029731036097161743,4.718585483793128,-2.007889633178711,0.7339632444522706,-0.023327282831293854,0.0023875206416029797,0.21187193637440058,nan,nan,nan,nan
23.918622255325317,0.20453985,0.3503413,-1.6098042,2.97749372329222,nan,nan,nan,nan,nan,13.91408395767212,15.114083957672118,0.005328178405761719,0.5755052628962014,0.1696870424598591,4.7482295127162075,-2.0456335830688475,0.733978313425392,0.002455259936542878,0.0726927625273428,0.2065456031079908,nan,nan,nan,nan
24.01457452774048,0.19257163,0.33570972,-1.6107113,2.9949952248738922,nan,nan,nan,nan,nan,14.010038375854492,15.210038375854491,0.006386518478393555,0.5183249035195663,0.3022239143274937,4.77837448224033,-2.0840153503417964,0.7340643714400434,0.022550836431870846,0.11665556943823724,0.2057329279078163,nan,nan,nan,nan
24.110618591308594,0.15860161,0.3102071,-1.6188847,3.0206599202360445,nan,nan,nan,nan,nan,14.106101751327515,15.306101751327514,0.007185459136962891,0.4310313226489827,0.41738710916302696,4.808553681706838,-2.1224407005310058,0.7337773847103833,0.024233189801915408,0.16625948422367645,0.201862869603785,nan,nan,nan,nan
24.224151849746704,0.11575039,0.2845877,-1.6257532,3.0421870992675295,nan,nan,nan,nan,nan,14.219750165939331,15.41975016593933,0.007752418518066406,0.29596418042888784,0.5219245193541464,4.8442573841505,-2.167900066375732,0.733456656376563,0.01754413029578555,0.20423921455584884,0.20004147511353895,nan,nan,nan,nan
24.32301902770996,0.07775372,0.26198226,-1.6307284,3.0585444337548684,nan,nan,nan,nan,nan,14.318590879440308,15.518590879440307,0.00625300407409668,0.1585552610817669,0.5786710889471607,4.875309110091523,-2.207436351776123,0.7335045614226863,0.009482691138696635,0.2290407977687932,0.2002680319543817,nan,nan,nan,nan
24.420358180999756,0.015847793,0.22342604,-1.6407381,3.0829615452719468,nan,nan,nan,nan,nan,14.415897607803345,15.615897607803344,0.0053615570068359375,0.01372488683601549,0.5998430023608999,4.905878920388541,-2.2463590431213376,0.7330999550378416,-0.024088648726211023,0.2293180850362004,0.1980302796168629,nan,nan,nan,nan
24.516093969345093,-0.021275695,0.20229998,-1.6448196,3.097562072386822,nan,nan,nan,nan,nan,14.511560678482056,15.711560678482055,0.006379842758178711,-0.12950323094099145,0.5858574171040631,4.935932360394949,-2.284624271392822,0.7331983296620355,-0.03904143949360423,0.23389791547160022,0.19908028206282619,nan,nan,nan,nan
24.614702463150024,-0.08077837,0.16443437,-1.6461126,3.1217638805406906,nan,nan,nan,nan,nan,14.610172271728516,15.810172271728515,0.0067098140716552734,-0.2692621062397683,0.5361883233933052,4.966912106085135,-2.324068908691406,0.7331465913799593,-0.06584844392895328,0.19576100497561116,0.19699743416559173,nan,nan,nan,nan
24.71165180206299,-0.111827776,0.13888837,-1.6478014,3.1361518571809612,nan,nan,nan,nan,nan,14.707249402999878,15.907249402999877,0.010497570037841797,-0.39081357920452836,0.45526338125237553,4.997409786328504,-2.3628997611999507,0.7334778650212507,-0.08512896110598338,0.17551807602679959,0.19706964829529316,nan,nan,nan,nan
24.807347297668457,-0.15158832,0.092064045,-1.6554353,3.160045939359414,nan,nan,nan,nan,nan,14.80284571647644,16.00284571647644,0.0058786869049072266,-0.4879200875161023,0.3491904755262936,5.027442253941327,-2.4011382865905757,0.7333528728491682,-0.10765824660176711,0.11519708599927149,0.19585222221731832,nan,nan,nan,nan
24.9257652759552,-0.17575014,0.042201087,-1.6683646,3.1841814758455795,nan,nan,nan,nan,nan,14.921630620956421,16.12163062095642,0.007721662521362305,-0.5690433829472265,0.19023571779236453,5.064759632268494,-2.448652248382568,0.7330529763728767,-0.1277705820021548,0.04789131685314345,0.19347805332027093,nan,nan,nan,nan
25.02365231513977,-0.18475305,0.009920547,-1.6804659,3.1987132205014484,nan,nan,nan,nan,nan,15.019208908081055,16.219208908081054,0.0062444210052490234,-0.5982042974196116,0.04638554245353713,5.095414755266557,-2.4876835632324217,0.7328278231748635,-0.14731393254846548,0.012421598464966637,0.19251849302541818,nan,nan,nan,nan
25.117092609405518,-0.1835508,-0.027136426,-1.701513,3.2196755951259486,nan,nan,nan,nan,nan,15.112555027008057,16.312555027008056,0.00556492805480957,-0.5926000179498676,-0.0939426352931218,5.124740303412776,-2.525022010803222,0.7322122800197935,-0.1478480359432175,-0.04361651916192475,0.1905699594623265,nan,nan,nan,nan
25.21747660636902,-0.175128,-0.061533164,-1.721827,3.2406374963013618,nan,nan,nan,nan,nan,15.212942361831665,16.412942361831664,0.005829572677612305,-0.5503875113229256,-0.23890078982656465,5.156277914772306,-2.5651769447326656,0.7320311779082002,-0.15339174260938807,-0.07913044391066194,0.19073967464597846,nan,nan,nan,nan
25.31263542175293,-0.16348141,-0.08617562,-1.734498,3.2567209817793983,nan,nan,nan,nan,nan,15.308183670043945,16.508183670043945,0.006805419921875,-0.47805436711633326,-0.36257967687254894,5.186198854192105,-2.6032734680175778,0.7316226202907417,-0.14130279959106423,-0.12235691391659752,0.1882661163416765,nan,nan,nan,nan
25.406161069869995,-0.13568062,-0.104497015,-1.7448461,3.2746389559692872,nan,nan,nan,nan,nan,15.402010440826416,16.602010440826415,0.005738258361816406,-0.3801135771813781,-0.4642344972558335,5.215675403572131,-2.6408041763305663,0.7313260587178603,-0.10623737003630841,-0.16758085399924383,0.18472621918328308,nan,nan,nan,nan
25.524258136749268,-0.09020567,-0.1247686,-1.755273,3.2993506334976104,nan,nan,nan,nan,nan,15.519758701324463,16.719758701324462,0.006987810134887695,-0.22820402307599402,-0.5549080318863038,5.252667110587495,-2.687903480529785,0.7314929022113045,-0.08120253334131912,-0.20592133873284896,0.1829509865094839,nan,nan,nan,nan
25.622073888778687,-0.037491478,-0.13338998,-1.7631257,3.32296235664199,nan,nan,nan,nan,nan,15.617569208145142,16.81756920814514,0.005387544631958008,-0.08630319267255852,-0.5937606916380733,5.283395187554669,-2.7270276832580564,0.7315316208272556,-0.03291340477012499,-0.22392610754339817,0.18048710597029888,nan,nan,nan,nan
25.72059965133667,0.0015282432,-0.13179901,-1.7688593,3.3399625268904716,nan,nan,nan,nan,nan,15.7160964012146,16.9160964012146,0.005206108093261719,0.061861784637224394,-0.5968024125298905,5.314348418147252,-2.7664385604858395,0.7317892481356503,-0.0023847067241370215,-0.23455833776522644,0.18008696167805857,nan,nan,nan,nan
25.814788579940796,0.058415882,-0.11565349,-1.7781698,3.365352741841778,nan,nan,nan,nan,nan,15.81029224395752,17.01029224395752,0.00620579719543457,0.20010724261715593,-0.5656474975213438,5.3439409149032375,-2.8041168975830075,0.7318449227321391,0.0428677795460376,-0.22404850299430634,0.1784612315394989,nan,nan,nan,nan
25.923683881759644,0.10111336,-0.092706494,-1.7840544,3.3848848346412064,nan,nan,nan,nan,nan,15.919376611709595,17.119376611709594,0.005432844161987305,0.3457757994521891,-0.49034589476531715,5.378210779738379,-2.847750644683838,0.7321215689477621,0.07922818959733759,-0.2194744662140293,0.17847578020246083,nan,nan,nan,nan
26.021159172058105,0.14707592,-0.056647867,-1.7945616,3.4063130177142305,nan,nan,nan,nan,nan,16.016650438308716,17.216650438308715,0.006100177764892578,0.45418104264326403,-0.39207088708992094,5.408770253641415,-2.886660175323486,0.7320837217532952,0.12307274488308843,-0.1821955553012935,0.17795523893169138,nan,nan,nan,nan
26.12113857269287,0.17325741,-0.022879332,-1.8059523,3.4228975927924132,nan,nan,nan,nan,nan,16.116589307785034,17.316589307785033,0.005305290222167969,0.5373751773162518,-0.2668855912265158,5.440166975456902,-2.9266357231140137,0.7322005461823416,0.15351573352435197,-0.16259644526413408,0.17826873004492996,nan,nan,nan,nan
26.215725660324097,0.19585684,0.033956673,-1.8263762,3.4477918075232052,nan,nan,nan,nan,nan,16.21121835708618,17.41121835708618,0.006636857986450195,0.5851254208435702,-0.13277138954848228,5.46989556806697,-2.9644873428344725,0.7317027754602918,0.1840306612391537,-0.09145173232159556,0.17621540780006886,nan,nan,nan,nan
26.313028573989868,0.20007415,0.06866198,-1.8385696,3.462438070139693,nan,nan,nan,nan,nan,16.30863380432129,17.50863380432129,0.0076694488525390625,0.5998587500390977,0.013018448507069296,5.500499533404967,-3.0034535217285154,0.7317386344215887,0.20825757484653276,-0.06584422476028802,0.17580985896026843,nan,nan,nan,nan
26.41014337539673,0.19033988,0.12719032,-1.861475,3.4849111900646035,nan,nan,nan,nan,nan,16.40563941001892,17.60563941001892,0.00579833984375,0.5789767301210943,0.15743552959318138,5.530974743226638,-3.0422557640075683,0.7311971644237023,0.21633347304640518,0.01336967759307872,0.1728763327344824,nan,nan,nan,nan
26.520873308181763,0.16281928,0.17910221,-1.880224,3.506571687884525,nan,nan,nan,nan,nan,16.516340732574463,17.716340732574462,0.005312919616699219,0.5134729926138704,0.31039569239304243,5.565752589394954,-3.086536293029785,0.7309878152672471,0.21272761755541356,0.0798015176731084,0.1697644220371332,nan,nan,nan,nan
26.622411727905273,0.13785668,0.21247734,-1.8957111,3.521475922628764,nan,nan,nan,nan,nan,16.618016481399536,17.818016481399535,0.0055119991302490234,0.41834130181725815,0.43010528384785246,5.597694967950663,-3.1272065925598143,0.73109017667179,0.21047893695814363,0.12121695406475912,0.1672584509594497,nan,nan,nan,nan
26.71605372428894,0.09676756,0.24939367,-1.9174566,3.542000928190409,nan,nan,nan,nan,nan,16.711565494537354,17.911565494537353,0.008283615112304688,0.3066369644946202,0.5157264507522616,5.627084257193098,-3.164626197814941,0.7307090821380197,0.1647831429261289,0.16548155690287916,0.16468478573589246,nan,nan,nan,nan
26.81254005432129,0.0638903,0.26713702,-1.932344,3.5567818445810944,nan,nan,nan,nan,nan,16.8080952167511,18.008095216751098,0.008249759674072266,0.17376279309268994,0.5742878126311118,5.657409963809074,-3.203238086700439,0.7307594692921948,0.15002830949301676,0.19115847217739446,0.16377107268052427,nan,nan,nan,nan
26.911715030670166,0.009405917,0.27603254,-1.9555507,3.578655217461062,nan,nan,nan,nan,nan,16.907206296920776,18.107206296920776,0.0065381526947021484,0.026823329265451154,0.5994001242968816,5.688546627944115,-3.2428825187683104,0.7303960255915003,0.08210437225396904,0.21339697577548988,0.16268894612421814,nan,nan,nan,nan
27.02379584312439,-0.04155404,0.26648325,-1.9690198,3.6022787301563417,nan,nan,nan,nan,nan,17.019363403320312,18.219363403320312,0.005847930908203125,-0.1409664843656328,0.5832053242946208,5.723781822095383,-3.287745361328125,0.7305299513384825,0.01675132391929537,0.22267451338008448,0.16150797373797762,nan,nan,nan,nan
27.1188006401062,-0.066606544,0.25300157,-1.9764273,3.615004478804316,nan,nan,nan,nan,nan,17.114277362823486,18.314277362823486,0.005679130554199219,-0.27477964989767145,0.533381799466492,5.753599921885211,-3.3257109451293942,0.7308781890392768,-0.026239933265085197,0.22692718512614038,0.16056848359493392,nan,nan,nan,nan
27.211867332458496,-0.10383489,0.21719708,-1.9926534,3.6374467760291203,nan,nan,nan,nan,nan,17.207383632659912,18.40738363265991,0.007486820220947266,-0.3909671427644305,0.45513151206944286,5.782850119217338,-3.3629534530639646,0.7309591221100419,-0.09121600455726744,0.20678309757207625,0.16197755377974787,nan,nan,nan,nan
27.313830614089966,-0.12785763,0.16781083,-2.014093,3.659740238479378,nan,nan,nan,nan,nan,17.309366941452026,18.509366941452026,0.007465839385986328,-0.4935774015453669,0.3411471071015019,5.814889120586346,-3.4037467765808103,0.7309569027250605,-0.13067844075629126,0.20128955584995295,0.16281215912829605,nan,nan,nan,nan
27.41394329071045,-0.13319011,0.13237655,-2.0265372,3.672359157235184,nan,nan,nan,nan,nan,17.409484386444092,18.60948438644409,0.00907278060913086,-0.5629718725904681,0.20751547092200567,5.8463419435546715,-3.4437937545776367,0.730672644652574,-0.18836924525111012,0.156420243859846,0.16155144656190565,nan,nan,nan,nan
27.509751081466675,-0.13491496,0.059316993,-2.0496747,3.696405606576573,nan,nan,nan,nan,nan,17.505337238311768,18.705337238311767,0.006016731262207031,-0.5962239645372652,0.0672085121950024,5.8764550050799835,-3.4821348953247067,0.7304020890076612,-0.22710764493755087,0.10173470408281908,0.16204593368157605,nan,nan,nan,nan
27.622319221496582,-0.12602805,0.008898939,-2.0660112,3.7122984279550257,nan,nan,nan,nan,nan,17.617785930633545,18.817785930633544,0.005215883255004883,-0.5913138079314589,-0.10172502420544195,5.911781803650371,-3.527114372253418,0.730350412384011,-0.2472369637314654,0.057940926328201144,0.16176807814181282,nan,nan,nan,nan
27.71195149421692,-0.104888886,-0.050688583,-2.0844412,3.732005329495882,nan,nan,nan,nan,nan,17.707467079162598,18.907467079162597,0.007558107376098633,-0.5536227837480238,-0.23130458991357897,5.939955967388808,-3.562986831665039,0.730186128541799,-0.24683954237906805,0.009978865993529103,0.16080351373552235,nan,nan,nan,nan
27.82431674003601,-0.08343278,-0.09038509,-2.0950465,3.7471558859774854,nan,nan,nan,nan,nan,17.820005893707275,19.020005893707275,0.006143093109130859,-0.4670718022812534,-0.3766217353177345,5.975311078690535,-3.60800235748291,0.7303552805339748,-0.23221819266712926,-0.03906528430592221,0.16015751761218064,nan,nan,nan,nan
27.917566776275635,-0.05478553,-0.13536172,-2.1135976,3.7664013908141207,nan,nan,nan,nan,nan,17.913044452667236,19.113044452667236,0.006474494934082031,-0.36709515877248683,-0.474595769477355,6.004540004023454,-3.6452177810668944,0.7302963273065943,-0.19646921577574822,-0.0822521683536562,0.15877025333585418,nan,nan,nan,nan
28.013230800628662,-0.031401087,-0.15680501,-2.128775,3.780507074948549,nan,nan,nan,nan,nan,18.008711576461792,19.20871157646179,0.00743865966796875,-0.24352081015388993,-0.54835902018841,6.034594717353758,-3.6834846305847164,0.7304503794283433,-0.1822665582259782,-0.11039099650961781,0.1580970869279696,nan,nan,nan,nan
28.11120104789734,0.013111368,-0.17593428,-2.152277,3.802053270684884,nan,nan,nan,nan,nan,18.106730699539185,19.306730699539184,0.006612539291381836,-0.10244330114990016,-0.591189791902322,6.065388333050882,-3.7226922798156736,0.7301100595681699,-0.11374048195177273,-0.1496489288564625,0.15661811437481932,nan,nan,nan,nan
28.22495722770691,0.055577017,-0.17717639,-2.173714,3.8210017735623816,nan,nan,nan,nan,nan,18.22048807144165,19.42048807144165,0.007115602493286133,0.06844507215159991,-0.5960832761436629,6.101126265436929,-3.76819522857666,0.7300392861329117,-0.07446695463176661,-0.18482310175710612,0.15594857530641545,nan,nan,nan,nan
28.313093185424805,0.09035471,-0.164238,-2.1927834,3.8389426387644194,nan,nan,nan,nan,nan,18.308640480041504,19.508640480041503,0.007569789886474609,0.19775733254049158,-0.5664733333763112,6.128820161362285,-3.8034561920166015,0.7297004911705798,-0.018674208713141186,-0.2020919139407071,0.1565307349906142,nan,nan,nan,nan
28.411491632461548,0.11923658,-0.13654302,-2.2104783,3.8575407931028325,nan,nan,nan,nan,nan,18.40723705291748,19.60723705291748,0.008106708526611328,0.3306567256320523,-0.5006656866555663,6.159795188263914,-3.842894821166992,0.7297889151649499,0.013397864831846237,-0.2217834336600651,0.1556946218717829,nan,nan,nan,nan
