time,x,y,z,yaw,platform,trajectory,traj_double,traj_short,traj_spin,traj_time,ref_time,comptime,x_ref,y_ref,yaw_ref,z_ref,throttle_input,p_input,q_input,r_input,cbf_term_pitch_cbf,cbf_term_roll_cbf,cbf_term_thrust_cbf,cbf_term_yaw_cbf
10.065671443939209,-0.0002449002,-0.47170195,-2.4555745,0.5228322320910497,SIM,SAWTOOTH,NormSpd,Not Short,NoSpin,0.056266069412231445,1.2562660694122314,0.005069255828857422,0.0,0.1842523568471273,0.0,-5.0,0.7284422172269918,0.3982155451904308,-0.00404224904680692,-0.3489878090497737,nan,nan,nan,nan
10.169846296310425,0.015429439,-0.46919018,-2.4510121,0.5053194308292177,nan,nan,nan,nan,nan,0.16042351722717285,1.3604235172271728,0.0077779293060302734,0.0,0.19952878252665204,0.0,-5.0,0.7285405598949671,0.40770551055921556,-0.004701555396485597,-0.33489597769979706,nan,nan,nan,nan
10.273975610733032,0.033418488,-0.46567845,-2.4473994,0.4755531039660985,nan,nan,nan,nan,nan,0.26454997062683105,1.464549970626831,0.007381439208984375,0.0,0.2148006623586019,0.0,-5.0,0.7274145865589106,0.353929045683294,0.032169347975945464,-0.3108402009065957,nan,nan,nan,nan
10.374251365661621,0.050044216,-0.462047,-2.4465928,0.444793226605511,nan,nan,nan,nan,nan,0.3649003505706787,1.5649003505706787,0.007225751876831055,0.0,0.22951871808369956,0.0,-5.0,0.7270702039051148,0.2854460107196886,0.05023156968009406,-0.29554664882740866,nan,nan,nan,nan
10.466439962387085,0.0750884,-0.4547354,-2.4431844,0.39491133460534833,nan,nan,nan,nan,nan,0.45705747604370117,1.6570574760437011,0.005243539810180664,0.0,0.24303509648640953,0.0,-5.0,0.7279110156250325,0.1500387923303465,0.06466920243942852,-0.26043775846047706,nan,nan,nan,nan
10.57674765586853,0.098007,-0.43649507,-2.4378386,0.3326742966851439,nan,nan,nan,nan,nan,0.5673072338104248,1.7673072338104248,0.0055658817291259766,0.0,0.2592050609588623,0.0,-5.0,0.7282011177658161,0.06791431206674514,0.06787687062015114,-0.22893841964036316,nan,nan,nan,nan
10.669830083847046,0.12150701,-0.41160762,-2.4352546,0.2668951781641953,nan,nan,nan,nan,nan,0.6606628894805908,1.8606628894805908,0.0066182613372802734,0.0,0.2728972237904867,0.0,-5.0,0.7284798112331642,0.017274991113008523,0.05681922639451875,-0.1866299418187329,nan,nan,nan,nan
10.76823878288269,0.13771525,-0.38420042,-2.4334443,0.2169035220773683,nan,nan,nan,nan,nan,0.7589108943939209,1.9589108943939209,0.005173206329345703,0.0,0.2873069311777751,0.0,-5.0,0.727765353612687,-0.012544021185399292,0.05708720771288398,-0.15261942711166063,nan,nan,nan,nan
10.861100196838379,0.15011212,-0.34302834,-2.4286857,0.17078646118910612,nan,nan,nan,nan,nan,0.8516979217529297,2.05169792175293,0.005639553070068359,0.0,0.30091569519042977,0.0,-5.0,0.7276356364143177,-0.11499420076830846,0.06078791576521529,-0.11937615782459549,nan,nan,nan,nan
10.97289514541626,0.15152283,-0.2888938,-2.4145129,0.1341021627992216,nan,nan,nan,nan,nan,0.9635233879089355,2.1635233879089357,0.006136655807495117,0.0,0.3173167635599773,0.0,-5.0,0.7280905076002939,-0.21434895075200122,0.045752595645739656,-0.09284136505465987,nan,nan,nan,nan
11.065446853637695,0.15333205,-0.24847467,-2.4060316,0.11608214683195683,nan,nan,nan,nan,nan,1.0560059547424316,2.256005954742432,0.00507807731628418,0.0,0.3308808733622234,0.0,-5.0,0.7284360902904543,-0.2611925705785734,0.030342057406527657,-0.07928509494884285,nan,nan,nan,nan
11.162628412246704,0.15129094,-0.17163908,-2.3975966,0.09361982491115484,nan,nan,nan,nan,nan,1.1532132625579834,2.3532132625579836,0.0056688785552978516,0.0,0.345137945175171,0.0,-5.0,0.7286863211480813,-0.281629739204559,0.01232202771563802,-0.06377919846705339,nan,nan,nan,nan
11.259610891342163,0.14791653,-0.1217861,-2.395668,0.08375029443225479,nan,nan,nan,nan,nan,1.2501742839813232,2.4501742839813234,0.007131814956665039,0.0,0.3593588949839275,0.0,-5.0,0.7288196796917588,-0.2832151605327451,-0.0001768175533157063,-0.05622671278594937,nan,nan,nan,nan
11.362077236175537,0.14183572,-0.047960505,-2.3952985,0.07321152355816984,nan,nan,nan,nan,nan,1.3526458740234375,2.5526458740234377,0.005527496337890625,0.0,0.3743880615234376,0.0,-5.0,0.7288292578933562,-0.24684636797123274,-0.010054684308886067,-0.048034531509917905,nan,nan,nan,nan
11.459815502166748,0.12850268,0.029824091,-2.392654,0.06562394809145289,nan,nan,nan,nan,nan,1.4504246711730957,2.650424671173096,0.006920337677001953,0.0,0.38872895177205413,0.0,-5.0,0.7289353416192096,-0.207339309309655,-0.016455289971824296,-0.04321399790113079,nan,nan,nan,nan
11.571759700775146,0.11849823,0.0905061,-2.3932695,0.061291409654110396,nan,nan,nan,nan,nan,1.562413215637207,2.762413215637207,0.005742073059082031,0.005153938293457088,0.38969212341308584,0.0,-5.0,0.7289627473990175,-0.13541583743688368,-0.017985918393215748,-0.03930713768197093,nan,nan,nan,nan
11.666375637054443,0.11115403,0.13294269,-2.3965771,0.05922900565593103,nan,nan,nan,nan,nan,1.656933307647705,2.8569333076477053,0.0049953460693359375,0.019016885121663468,0.3619662297566731,0.0,-5.0,0.7289002872215754,-0.10015986055019158,-0.017414497523123358,-0.03783755705263639,nan,nan,nan,nan
11.760691165924072,0.104564525,0.17494157,-2.4020896,0.05803836568778031,nan,nan,nan,nan,nan,1.7512495517730713,2.9512495517730715,0.0063364505767822266,0.03284993426005051,0.334300131479899,0.0,-5.0,0.728615776418307,-0.027055304044608652,-0.010967199745853496,-0.03653260048161856,nan,nan,nan,nan
11.877468347549438,0.10285386,0.20100865,-2.4056256,0.05786461005182675,nan,nan,nan,nan,nan,1.8680295944213867,3.068029594421387,0.005893230438232422,0.049977673848470114,0.3000446523030598,0.0,-5.0,0.7284759604608216,0.032214509002618734,-0.001285720393916668,-0.03604709399492769,nan,nan,nan,nan
11.96933102607727,0.10419496,0.20923255,-2.4043782,0.05809432037927653,nan,nan,nan,nan,nan,1.9599225521087646,3.159922552108765,0.005277156829833984,0.06345530764261888,0.27308938471476224,0.0,-5.0,0.7285330784630698,0.051305379538316744,0.0014698730903065127,-0.03607541872375277,nan,nan,nan,nan
12.072596311569214,0.105836436,0.20429613,-2.4061255,0.058625058931383034,nan,nan,nan,nan,nan,2.063213348388672,3.263213348388672,0.0077457427978515625,0.07860462443033861,0.2427907511393228,0.0,-5.0,0.7284704998854385,0.09975069785517669,0.010726346413101566,-0.03637278638859368,nan,nan,nan,nan
12.166470527648926,0.11246587,0.19276164,-2.4091012,0.059020278110915037,nan,nan,nan,nan,nan,2.1570334434509277,3.357033443450928,0.005117177963256836,0.09236490503946948,0.21527018992106106,0.0,-5.0,0.7283407497100083,0.11498017257763925,0.011584770410131801,-0.036739507617421924,nan,nan,nan,nan
12.26523756980896,0.12853225,0.1691458,-2.414263,0.05963929392945433,nan,nan,nan,nan,nan,2.2557995319366455,3.4557995319366457,0.0050852298736572266,0.10685059801737473,0.18629880396525056,0.0,-5.0,0.7280305198108526,0.13465289878482187,0.026539940868330548,-0.037029593367658466,nan,nan,nan,nan
12.36279821395874,0.14078462,0.14878327,-2.4164603,0.060058968456500494,nan,nan,nan,nan,nan,2.3533778190612793,3.5533778190612795,0.0057773590087890625,0.12116208012898771,0.1576758397420246,0.0,-5.0,0.7280326099609884,0.13023137838213478,0.03005103960395152,-0.03753496570650065,nan,nan,nan,nan
12.473372220993042,0.15688999,0.11523025,-2.4193747,0.060771435088721404,nan,nan,nan,nan,nan,2.4639806747436523,3.6639806747436525,0.006493568420410156,0.13738383229573575,0.12523233540852852,0.0,-5.0,0.7279343157834512,0.11911556674377774,0.03239220672326617,-0.03813141920914397,nan,nan,nan,nan
12.568538188934326,0.17042719,0.07546639,-2.4279757,0.06149481128942291,nan,nan,nan,nan,nan,2.559145450592041,3.759145450592041,0.006180524826049805,0.15134133275349942,0.09731733449300117,0.0,-5.0,0.7276817393401919,0.10078683785383817,0.028147971655558983,-0.03875856853528839,nan,nan,nan,nan
12.669265747070312,0.18141848,0.047865447,-2.431181,0.06180649685495965,nan,nan,nan,nan,nan,2.659886598587036,3.8598865985870363,0.005070924758911133,0.16611670112609872,0.06776659774780258,0.0,-5.0,0.7274398041265613,0.08581350849780037,0.02143004253875378,-0.0391683301902902,nan,nan,nan,nan
12.764843225479126,0.20354022,-0.0010513028,-2.4333189,0.06210380662463599,nan,nan,nan,nan,nan,2.7554104328155518,3.955410432815552,0.005244255065917969,0.18012686347961435,0.03974627304077134,0.0,-5.0,0.7273929985684185,0.07379423009942146,0.02207473047549497,-0.03939795725834547,nan,nan,nan,nan
12.862992286682129,0.21843126,-0.032790367,-2.4334667,0.06219167649519264,nan,nan,nan,nan,nan,2.85355544090271,4.05355544090271,0.005888462066650391,0.19452146466573086,0.010957070668538283,0.0,-5.0,0.7275149669185262,0.065865182565736,0.021409329434618117,-0.039615123232190304,nan,nan,nan,nan
12.9747633934021,0.24091561,-0.07861597,-2.441003,0.0620823141129474,nan,nan,nan,nan,nan,2.9653713703155518,4.165371370315552,0.006678342819213867,0.21092113431294768,-0.021842268625895313,0.0,-5.0,0.7273803470088981,0.0505284845286561,0.022421249530915874,-0.039614885273010825,nan,nan,nan,nan
13.070543766021729,0.25746304,-0.10595339,-2.4430404,0.061828960658795395,nan,nan,nan,nan,nan,3.0611772537231445,4.261177253723145,0.005198955535888672,0.22497266387939463,-0.04994532775878922,0.0,-5.0,0.7272564848661789,0.04170280756001563,0.021463352229304733,-0.03959802896465837,nan,nan,nan,nan
13.167425155639648,0.27902594,-0.1388542,-2.4446552,0.06123751390286625,nan,nan,nan,nan,nan,3.158013343811035,4.358013343811035,0.005000591278076172,0.23917529042561858,-0.07835058085123717,0.0,-5.0,0.7272277194762929,0.026547692158390153,0.02097286283511483,-0.03921291336637938,nan,nan,nan,nan
13.264702320098877,0.29600513,-0.16227615,-2.4449115,0.060618457969464856,nan,nan,nan,nan,nan,3.2552649974823,4.4552649974823,0.005307435989379883,0.25343886629740403,-0.1068777325948081,0.0,-5.0,0.7273105145332355,0.014634860864358964,0.018481611915708185,-0.038853933574571814,nan,nan,nan,nan
13.3604154586792,0.31042805,-0.17909464,-2.44287,0.0601070881984036,nan,nan,nan,nan,nan,3.3510100841522217,4.551010084152222,0.007141828536987305,0.2674814790089926,-0.1349629580179852,0.0,-5.0,0.7274585919811346,0.009904640286392308,0.016789157680647294,-0.038628083138017126,nan,nan,nan,nan
13.477913856506348,0.32304612,-0.19937141,-2.4394774,0.05926245059859703,nan,nan,nan,nan,nan,3.4685304164886475,4.668530416488648,0.006212949752807617,0.28471779441833506,-0.1694355888366701,0.0,-5.0,0.7276753762236544,0.002379059247695017,0.010216946473273791,-0.0380800565560858,nan,nan,nan,nan
13.570169925689697,0.32467055,-0.21473722,-2.4307566,0.058164307155720074,nan,nan,nan,nan,nan,3.560882806777954,4.760882806777954,0.005005598068237305,0.2982628116607667,-0.19652562332153334,0.0,-5.0,0.7279591847234402,-0.004201034626199298,-0.0030610384285093923,-0.03739367480276766,nan,nan,nan,nan
13.664117097854614,0.32174665,-0.22391312,-2.4218435,0.057161474688339986,nan,nan,nan,nan,nan,3.654684543609619,4.854684543609619,0.005347251892089844,0.31202039972941087,-0.22404079945882174,0.0,-5.0,0.7282068684883776,-0.0009248140872289869,-0.012430487866807375,-0.03687920499003035,nan,nan,nan,nan
13.763442277908325,0.3152249,-0.23240122,-2.4074337,0.05547194901688357,nan,nan,nan,nan,nan,3.7540035247802734,4.954003524780274,0.005681037902832031,0.3265871836344402,-0.2531743672688804,0.0,-5.0,0.7288487150880871,-0.005747786223772594,-0.028368019925065546,-0.03584112188101648,nan,nan,nan,nan
13.87584924697876,0.31228095,-0.23498541,-2.4001217,0.05393443665134878,nan,nan,nan,nan,nan,3.866499662399292,5.066499662399292,0.007336616516113281,0.34308661715189626,-0.28617323430379255,0.0,-5.0,0.7291774412670069,-0.006661891784163696,-0.03150324311743172,-0.034858313651698405,nan,nan,nan,nan
13.969427108764648,0.3089924,-0.23338701,-2.3950958,0.052956248644443704,nan,nan,nan,nan,nan,3.960113286972046,5.160113286972046,0.005064487457275391,0.3568166154225668,-0.3136332308451336,0.0,-5.0,0.7292790288863102,-0.004876931290733135,-0.029963854150125376,-0.03418501208997628,nan,nan,nan,nan
14.065274238586426,0.30685252,-0.22678553,-2.3866832,0.05131135984456403,nan,nan,nan,nan,nan,4.0558366775512695,5.25583667755127,0.005934238433837891,0.370856046040853,-0.3417120920817059,0.0,-5.0,0.729421638731271,-0.010898926180436795,-0.02284005728455654,-0.03327612181298313,nan,nan,nan,nan
14.167786121368408,0.3078459,-0.22136204,-2.3831494,0.05019998233668055,nan,nan,nan,nan,nan,4.158361196517944,5.3583611965179445,0.005042552947998047,0.3858929754892986,-0.3717859509785972,0.0,-5.0,0.7295586875262203,-0.009369772220948352,-0.016446613087375005,-0.03261872370467519,nan,nan,nan,nan
14.270516633987427,0.312671,-0.2135687,-2.383361,0.04833049605978346,nan,nan,nan,nan,nan,4.2611188888549805,5.461118888854981,0.005336761474609375,0.4,-0.3980717926025389,0.0,-5.0,0.7294347892723468,-0.012729868334676576,-0.0016795231996581104,-0.03151832818239221,nan,nan,nan,nan
14.367095470428467,0.3139538,-0.20669091,-2.384921,0.04704327469016256,nan,nan,nan,nan,nan,4.357656955718994,5.557656955718994,0.005157947540283203,0.4,-0.3697539596557616,0.0,-5.0,0.729267315877601,-0.010104350859473327,0.00339311136328715,-0.030748038687965037,nan,nan,nan,nan
14.467953443527222,0.31974378,-0.19586627,-2.3849962,0.04508399762784876,nan,nan,nan,nan,nan,4.4585349559783936,5.658534955978394,0.005290985107421875,0.4,-0.34016307957967107,0.0,-5.0,0.7290508860539547,-0.012235735159711193,0.009385941762930172,-0.029473060029480504,nan,nan,nan,nan
14.574525117874146,0.32563436,-0.18722126,-2.3828242,0.043785995948302237,nan,nan,nan,nan,nan,4.565166473388672,5.765166473388672,0.005852937698364258,0.4,-0.30888450113932275,0.0,-5.0,0.7289285489188785,-0.005453553967189527,0.012247587138923929,-0.02870028127485744,nan,nan,nan,nan
14.67163610458374,0.33467728,-0.17394769,-2.3814015,0.041890591046652936,nan,nan,nan,nan,nan,4.6625730991363525,5.862573099136353,0.005374908447265625,0.4,-0.2803118909200031,0.0,-5.0,0.7289583519456733,-0.007041554977903485,0.016952800643205503,-0.027422613991891293,nan,nan,nan,nan
14.765515089035034,0.34026122,-0.1642316,-2.3839264,0.040499227012942285,nan,nan,nan,nan,nan,4.756076335906982,5.956076335906983,0.0055196285247802734,0.4,-0.2528842748006183,0.0,-5.0,0.7288367047345282,-0.0015224691117719218,0.01754222199656524,-0.026690461151560214,nan,nan,nan,nan
14.8778235912323,0.34630278,-0.1488927,-2.3830194,0.038761140726215615,nan,nan,nan,nan,nan,4.868394136428833,6.068394136428833,0.006137371063232422,0.4,-0.21993771998087547,0.0,-5.0,0.7286919346754376,-0.002830136692693965,0.015054668951829511,-0.025324367265205934,nan,nan,nan,nan
14.969667911529541,0.35388243,-0.14193718,-2.381455,0.037637996872515345,nan,nan,nan,nan,nan,4.9603118896484375,6.160311889648438,0.005011081695556641,0.4,-0.19297517903645814,0.0,-5.0,0.7286214796266156,0.00197439909038842,0.014381286012973057,-0.02473420021047038,nan,nan,nan,nan
15.067259788513184,0.36527377,-0.13214786,-2.3842988,0.036522048082296976,nan,nan,nan,nan,nan,5.05782675743103,6.2578267574310305,0.005247831344604492,0.4,-0.16437081782023097,0.0,-5.0,0.7284312520056866,0.004925399875348122,0.016021457897533543,-0.023784032103553416,nan,nan,nan,nan
15.160870552062988,0.3810565,-0.11700486,-2.3903785,0.03522610264215231,nan,nan,nan,nan,nan,5.151472330093384,6.351472330093384,0.008134841918945312,0.4,-0.1369014498392739,0.0,-5.0,0.728073442401022,0.006009432595577586,0.020165299197391545,-0.023105797650791154,nan,nan,nan,nan
15.273763179779053,0.39394322,-0.0978675,-2.388992,0.033981752922962016,nan,nan,nan,nan,nan,5.264337778091431,6.464337778091431,0.006641387939453125,0.4,-0.10379425175984683,0.0,-5.0,0.7280547221963876,0.004075469469021436,0.02153730079874062,-0.022473106589353038,nan,nan,nan,nan
15.367146492004395,0.40408552,-0.07956044,-2.393372,0.03276586388544089,nan,nan,nan,nan,nan,5.357706308364868,6.557706308364868,0.005032062530517578,0.4,-0.07640614954630515,0.0,-5.0,0.7278181964187092,-0.005544686953529912,0.017001040456625326,-0.021478448517477815,nan,nan,nan,nan
15.463501453399658,0.40679097,-0.05804681,-2.4023209,0.03135315747781764,nan,nan,nan,nan,nan,5.454061985015869,6.654061985015869,0.006128787994384766,0.4,-0.048141817728678184,0.0,-5.0,0.7274351175480831,-0.012465219506148364,0.00785806568951907,-0.02059822436242951,nan,nan,nan,nan
15.577014923095703,0.40454832,-0.027744478,-2.4174848,0.02970813124040461,nan,nan,nan,nan,nan,5.567693471908569,6.7676934719085695,0.007215738296508789,0.4,-0.014809914906819445,0.0,-5.0,0.7268864041523826,-0.023204144274451485,-0.006390179190691186,-0.019532744464853,nan,nan,nan,nan
15.669677734375,0.40168208,-0.007799818,-2.4263694,0.028710399959005706,nan,nan,nan,nan,nan,5.660247564315796,6.860247564315796,0.004938364028930664,0.4,0.012339285532633682,0.0,-5.0,0.7264188854702581,-0.03134288218173345,-0.013947836573064289,-0.018866843681840665,nan,nan,nan,nan
15.764121055603027,0.3935462,0.021748034,-2.4327464,0.027177594571691444,nan,nan,nan,nan,nan,5.754694223403931,6.954694223403931,0.006753206253051758,0.4,0.04004363886515323,0.0,-5.0,0.7262831333455941,-0.03971923566175563,-0.022613436419666316,-0.01790989223263383,nan,nan,nan,nan
15.863530397415161,0.3863922,0.040178105,-2.4345264,0.026133911103705998,nan,nan,nan,nan,nan,5.854095697402954,7.054095697402954,0.005913257598876953,0.4,0.06920140457153341,0.0,-5.0,0.7262427046791897,-0.04272504504983954,-0.027785603026380258,-0.01710020080097914,nan,nan,nan,nan
15.973745584487915,0.37544027,0.06756833,-2.4421682,0.02460160069004136,nan,nan,nan,nan,nan,5.964337348937988,7.1643373489379885,0.005207061767578125,0.4,0.10153895568847676,0.0,-5.0,0.7261494316123506,-0.04380253453253067,-0.0313887173496699,-0.01595321269821774,nan,nan,nan,nan
16.06719183921814,0.36573523,0.092688404,-2.4500375,0.023279277536250476,nan,nan,nan,nan,nan,6.0577545166015625,7.257754516601563,0.005494356155395508,0.4,0.1289413248697919,0.0,-5.0,0.7259230567246372,-0.04245207541993349,-0.029766047610389677,-0.01499598903360696,nan,nan,nan,nan
16.16461491584778,0.3586685,0.11098547,-2.4564083,0.022248506964317016,nan,nan,nan,nan,nan,6.155181884765625,7.355181884765625,0.006114959716796875,0.4,0.1575200195312502,0.0,-5.0,0.7258688281802309,-0.044811386854633095,-0.02799307153725804,-0.014323084737259732,nan,nan,nan,nan
16.278141260147095,0.34649876,0.13841845,-2.46243,0.0207248225092318,nan,nan,nan,nan,nan,6.268748044967651,7.4687480449676515,0.007974624633789062,0.4,0.19083275985717796,0.0,-5.0,0.7258374672544674,-0.04134014324819751,-0.022760333354087187,-0.013291397480567152,nan,nan,nan,nan
16.375537157058716,0.33986607,0.1569362,-2.4613314,0.01980870204795515,nan,nan,nan,nan,nan,6.366583347320557,7.566583347320557,0.005799531936645508,0.4,0.21953111521403015,0.0,-5.0,0.7260006010103359,-0.03435468172703078,-0.015458675292287442,-0.012564891427881671,nan,nan,nan,nan
16.471704721450806,0.34137848,0.17088333,-2.4602215,0.019104040450083293,nan,nan,nan,nan,nan,6.4623188972473145,7.662318897247315,0.004900217056274414,0.4,0.24761354319254583,0.0,-5.0,0.726185276618076,-0.03536688883907705,-0.008553222721062957,-0.011926730891453855,nan,nan,nan,nan
16.569629192352295,0.34269044,0.18822815,-2.461293,0.018261254436501062,nan,nan,nan,nan,nan,6.560387134552002,7.760387134552002,0.004954814910888672,0.4,0.27638022613525415,0.0,-5.0,0.726376377774266,-0.027055832940102845,0.007078487955560796,-0.01141753331248122,nan,nan,nan,nan
16.66721224784851,0.34267324,0.19928484,-2.4632905,0.01772328300962389,nan,nan,nan,nan,nan,6.657774209976196,7.8577742099761965,0.0053555965423583984,0.4,0.3049471015930178,0.0,-5.0,0.726452998281286,-0.029765976746629147,0.01121752298800009,-0.010853835704708506,nan,nan,nan,nan
16.760594844818115,0.34911904,0.21261682,-2.4618697,0.01726566599740842,nan,nan,nan,nan,nan,6.751184940338135,7.951184940338135,0.00693202018737793,0.4,0.33234758249918644,0.0,-5.0,0.7266145768072189,-0.020452190677413065,0.020780925527115808,-0.010493320877523991,nan,nan,nan,nan
16.873504161834717,0.35753983,0.22230756,-2.4591374,0.016792329762866487,nan,nan,nan,nan,nan,6.864270448684692,8.064270448684692,0.005297183990478516,0.4,0.36551933161417643,0.0,-5.0,0.7267969752241709,-0.018408952228007675,0.026976656965516398,-0.010071651851798846,nan,nan,nan,nan
16.970202207565308,0.37164268,0.22415257,-2.4582925,0.016189118797780733,nan,nan,nan,nan,nan,6.96076774597168,8.160767745971679,0.004884958267211914,0.4,0.393825205485026,0.0,-5.0,0.7269568435662461,-0.001685141764784337,0.031120060442619807,-0.009967448560770979,nan,nan,nan,nan
17.064197301864624,0.38432196,0.22337653,-2.4618032,0.014032946197358953,nan,nan,nan,nan,nan,7.05478572845459,8.25478572845459,0.006076812744140625,0.4,0.37859618631998715,0.0,-5.0,0.7259744523231852,-0.0017531720909969599,0.027620665490932235,-0.00947135964449201,nan,nan,nan,nan
17.159334659576416,0.39537546,0.22276898,-2.4696264,0.009528156534765575,nan,nan,nan,nan,nan,7.150018930435181,8.35001893043518,0.007214069366455078,0.4,0.3506611137390139,0.0,-5.0,0.7233385390055391,-0.02975375470584285,0.025808711996760957,-0.006892957922612105,nan,nan,nan,nan
17.27331852912903,0.41093317,0.22205599,-2.4723802,0.002104747865358192,nan,nan,nan,nan,nan,7.26416802406311,8.46416802406311,0.0052144527435302734,0.4,0.31717737960815445,0.0,-5.0,0.7229414611909913,-0.029179371340024383,0.03884077734552586,-0.002401641462724521,nan,nan,nan,nan
17.369213581085205,0.4210813,0.2158586,-2.47573,-0.007967964292518115,nan,nan,nan,nan,nan,7.359773635864258,8.559773635864257,0.005376100540161133,0.4,0.2891330668131512,0.0,-5.0,0.7226926294933131,-0.012446601707069195,0.04579561440219964,0.00333888627084039,nan,nan,nan,nan
17.466585159301758,0.42659295,0.21045475,-2.4789097,-0.01647402642893736,nan,nan,nan,nan,nan,7.457146883010864,8.657146883010864,0.005658626556396484,0.4,0.26057024765014664,0.0,-5.0,0.7225613760115304,-0.006594447198935519,0.04485755477757478,0.008321223539851264,nan,nan,nan,nan
17.575607299804688,0.42982054,0.20073456,-2.484146,-0.026996819200781008,nan,nan,nan,nan,nan,7.566441774368286,8.766441774368285,0.0072367191314697266,0.4,0.22851041285196957,0.0,-5.0,0.7224045078093465,0.0069186941488136805,0.03655027500107373,0.015513174919705528,nan,nan,nan,nan
17.67485523223877,0.43029782,0.19080354,-2.487645,-0.033245091433302676,nan,nan,nan,nan,nan,7.665538311004639,8.865538311004638,0.005663633346557617,0.4,0.19944209543863947,0.0,-5.0,0.7223551495466499,0.007526522297663445,0.026215061431940124,0.019985997061798808,nan,nan,nan,nan
17.77233338356018,0.4382257,0.16514905,-2.4841785,-0.03895817887512365,nan,nan,nan,nan,nan,7.762932777404785,8.962932777404784,0.004999637603759766,0.4,0.17087305196126318,0.0,-5.0,0.7225157247214796,0.019677970295847457,0.01346935232436554,0.024333597634511882,nan,nan,nan,nan
17.86140012741089,0.43956038,0.14707504,-2.476349,-0.04052557224799447,nan,nan,nan,nan,nan,7.852433681488037,9.052433681488036,0.005730628967285156,0.4,0.1446194534301759,0.0,-5.0,0.7227417896036206,0.022568136219470687,0.005048377671280927,0.02580804616055722,nan,nan,nan,nan
17.973319053649902,0.44078633,0.12875126,-2.468271,-0.04026233801011081,nan,nan,nan,nan,nan,7.963922500610352,9.16392250061035,0.00506138801574707,0.4,0.11191606648763033,0.0,-5.0,0.7230182518943028,0.020321721824019406,-0.005372221848039545,0.02628048039201974,nan,nan,nan,nan
18.06087017059326,0.441109,0.1084354,-2.4608433,-0.03887273052608187,nan,nan,nan,nan,nan,8.051668882369995,9.251668882369994,0.006020069122314453,0.4,0.08617712783813491,0.0,-5.0,0.7234904161715225,0.024619852902552555,-0.011658264168486367,0.025705342241343142,nan,nan,nan,nan
18.16195273399353,0.43669838,0.07702297,-2.4490142,-0.035206383271525254,nan,nan,nan,nan,nan,8.152608156204224,9.352608156204223,0.010476827621459961,0.4,0.05656827418009454,0.0,-5.0,0.7241104741100385,0.033453600961589294,-0.02124562383014031,0.02361145677499183,nan,nan,nan,nan
18.267761707305908,0.43654943,0.038790658,-2.4440558,-0.030599495096261364,nan,nan,nan,nan,nan,8.258320331573486,9.458320331573486,0.005979776382446289,0.4,0.02555936940511079,0.0,-5.0,0.7244519302312767,0.044045896101018875,-0.02377573447595282,0.020908032638082767,nan,nan,nan,nan
18.366544008255005,0.4364941,0.012461802,-2.4447575,-0.026543606822619026,nan,nan,nan,nan,nan,8.357110500335693,9.557110500335693,0.005759716033935547,0.4,-0.0034190800984699623,0.0,-5.0,0.724506981154675,0.049617623588379664,-0.022511878520975397,0.018421555795682828,nan,nan,nan,nan
18.477402448654175,0.43292138,-0.018937683,-2.4443853,-0.02126153931248531,nan,nan,nan,nan,nan,8.468005418777466,9.668005418777465,0.005816936492919922,0.4,-0.03594825617472317,0.0,-5.0,0.7245095669846084,0.04921088843145268,-0.019325924471057132,0.014769317610212091,nan,nan,nan,nan
18.57340407371521,0.42784026,-0.041273024,-2.4457965,-0.017532164618725865,nan,nan,nan,nan,nan,8.564080953598022,9.764080953598022,0.005122661590576172,0.4,-0.06413041305541976,0.0,-5.0,0.7245414214345347,0.04644260455870708,-0.017830593527216772,0.01260070028378356,nan,nan,nan,nan
18.668752431869507,0.4173318,-0.07650024,-2.4532802,-0.020102616337895896,nan,nan,nan,nan,nan,8.659307956695557,9.859307956695556,0.005341291427612305,0.4,-0.09206366729736315,0.0,-5.0,0.7238431193917333,0.053162686097404724,-0.015172573586941891,0.011761519417526387,nan,nan,nan,nan
18.764179706573486,0.41340455,-0.094078355,-2.4517393,-0.024095805237024592,nan,nan,nan,nan,nan,8.754794120788574,9.954794120788574,0.008170366287231445,0.4,-0.12007294209798164,0.0,-5.0,0.7237654677218565,0.06542392113851983,-0.01409782261918814,0.01406616621906771,nan,nan,nan,nan
18.860926389694214,0.4049501,-0.122602455,-2.445958,-0.03627367328449793,nan,nan,nan,nan,nan,8.851660966873169,10.051660966873168,0.005731105804443359,0.4,-0.14848721694946274,0.0,-5.0,0.7238500757523012,0.0807835005437466,-0.012834309548352262,0.020709613925669355,nan,nan,nan,nan
18.961092233657837,0.3991924,-0.14022432,-2.4378226,-0.050391903384081616,nan,nan,nan,nan,nan,8.95180869102478,10.15180869102478,0.006134748458862305,0.4,-0.1778638827006021,0.0,-5.0,0.7240014822763235,0.09254760670960412,-0.011439908473064819,0.028864958828316026,nan,nan,nan,nan
19.07607913017273,0.3957004,-0.15750033,-2.42606,-0.07231098123640933,nan,nan,nan,nan,nan,9.066702842712402,10.266702842712402,0.005154132843017578,0.4,-0.2115661671956379,0.0,-5.0,0.7243908553020934,0.0993315466387014,-0.008641797142468275,0.04115937141343971,nan,nan,nan,nan
19.17224407196045,0.39607182,-0.1674513,-2.422461,-0.08672563824741175,nan,nan,nan,nan,nan,9.162862539291382,10.362862539291381,0.0051953792572021484,0.4,-0.2397730115254719,0.0,-5.0,0.7245512799345146,0.10238331169965996,0.00039092461656743547,0.05116824196321245,nan,nan,nan,nan
19.27021884918213,0.38858205,-0.18041578,-2.415454,-0.11064570114314698,nan,nan,nan,nan,nan,9.260783195495605,10.460783195495605,0.005059719085693359,0.4,-0.2684964040120442,0.0,-5.0,0.724572447167877,0.08726020430396053,0.0033712639771866274,0.06544622772660716,nan,nan,nan,nan
19.364996194839478,0.38425067,-0.19025661,-2.4114132,-0.12516355268629642,nan,nan,nan,nan,nan,9.355684518814087,10.555684518814086,0.0067958831787109375,0.4,-0.29633412551879873,0.0,-5.0,0.7245401329366769,0.07707173314901049,0.00517526225276121,0.07519262213981305,nan,nan,nan,nan
19.47745370864868,0.3719253,-0.2038143,-2.408267,-0.14255585163362738,nan,nan,nan,nan,nan,9.468076705932617,10.668076705932616,0.0075266361236572266,0.4,-0.32930250040690096,0.0,-5.0,0.724686154373936,0.04012311174473801,0.0034599766153730945,0.08780560762961165,nan,nan,nan,nan
19.573546409606934,0.3617419,-0.20856075,-2.4087913,-0.14808997587304873,nan,nan,nan,nan,nan,9.564129829406738,10.764129829406738,0.00508427619934082,0.4,-0.3574780832926432,0.0,-5.0,0.7247811482967299,0.021006717641812243,4.394639400318356e-05,0.0928534184553401,nan,nan,nan,nan
19.673677921295166,0.34115213,-0.20441167,-2.40373,-0.1494431782932919,nan,nan,nan,nan,nan,9.664515733718872,10.864515733718871,0.00516057014465332,0.4,-0.3869246152242024,0.0,-5.0,0.7251284696982454,-0.028203104986922158,-0.011686530472907585,0.09540045193500822,nan,nan,nan,nan
19.759819984436035,0.3237974,-0.20203063,-2.3967173,-0.14487850632072874,nan,nan,nan,nan,nan,9.750690460205078,10.950690460205077,0.006319284439086914,0.3938987325032552,-0.3877974650065104,0.0,-5.0,0.7255751829921893,-0.059339625452683606,-0.018806999817590403,0.09370924303304638,nan,nan,nan,nan
19.875298738479614,0.2969368,-0.19201949,-2.3971128,-0.13437617783854527,nan,nan,nan,nan,nan,9.866163730621338,11.066163730621337,0.005181074142456055,0.37696265284220376,-0.35392530568440755,0.0,-5.0,0.7259691931335077,-0.08127443919059167,-0.025639102547170098,0.08812480941372203,nan,nan,nan,nan
19.969699382781982,0.27946597,-0.18048175,-2.4005075,-0.12465127680101329,nan,nan,nan,nan,nan,9.960277557373047,11.160277557373046,0.005263566970825195,0.3631592915852865,-0.3263185831705729,0.0,-5.0,0.7260103621767939,-0.08713708721125026,-0.0292969546328344,0.08248158204678689,nan,nan,nan,nan
20.064738273620605,0.26082814,-0.15774286,-2.4045482,-0.10893482274531241,nan,nan,nan,nan,nan,10.055362224578857,11.255362224578857,0.006621599197387695,0.34921354039510094,-0.2984270807902018,0.0,-5.0,0.7260321416313869,-0.0932212380216144,-0.026679989366085236,0.07286710028342222,nan,nan,nan,nan
20.178514003753662,0.24800362,-0.12993987,-2.4053426,-0.09307589727031917,nan,nan,nan,nan,nan,10.169120073318481,11.36912007331848,0.006310939788818359,0.3325290559132894,-0.26505811182657874,0.0,-5.0,0.7262494137466348,-0.09047570228281117,-0.014562606639682434,0.06297216600371848,nan,nan,nan,nan
20.273515462875366,0.23989683,-0.11019125,-2.403189,-0.08121980230754655,nan,nan,nan,nan,nan,10.264079093933105,11.464079093933105,0.005016326904296875,0.3186017328898112,-0.23720346577962237,0.0,-5.0,0.7264093487840914,-0.08171110925604033,-0.004304145938390767,0.05507043281024108,nan,nan,nan,nan
20.37282085418701,0.23099792,-0.08173214,-2.4002545,-0.07205281997353907,nan,nan,nan,nan,nan,10.363391876220703,11.563391876220702,0.004973649978637695,0.3040358581542969,-0.20807171630859372,0.0,-5.0,0.7257416687136011,-0.06355684310658938,-0.008075860036226581,0.04754902834936514,nan,nan,nan,nan
20.470824718475342,0.22950602,-0.061707586,-2.3929477,-0.06443523247449434,nan,nan,nan,nan,nan,10.461389541625977,11.661389541625976,0.005276679992675781,0.28966286722819007,-0.17932573445638017,0.0,-5.0,0.7259153334453164,-0.04838449242922199,0.0012803550473941727,0.04356234641197592,nan,nan,nan,nan
20.56871724128723,0.2310189,-0.046984572,-2.3877645,-0.058399250512632506,nan,nan,nan,nan,nan,10.559279203414917,11.759279203414916,0.0060498714447021484,0.27530571683247884,-0.15061143366495766,0.0,-5.0,0.7261016443135474,-0.02764829353314711,0.014290042996191943,0.03946165637291299,nan,nan,nan,nan
20.66203808784485,0.23255187,-0.032088056,-2.3875835,-0.04804864449095092,nan,nan,nan,nan,nan,10.652824401855469,11.852824401855468,0.0061109066009521484,0.26158575439453124,-0.12317150878906245,0.0,-5.0,0.725025814171631,-0.011897754727275986,0.03233909866221331,0.03208265995775627,nan,nan,nan,nan
20.779536962509155,0.23289043,-0.014551582,-2.3871174,-0.0337856477170142,nan,nan,nan,nan,nan,10.770625114440918,11.970625114440917,0.006768703460693359,0.24430831654866536,-0.08861663309733069,0.0,-5.0,0.7253551825242965,0.0025808223555487614,0.03628086899300923,0.024190219874215532,nan,nan,nan,nan
20.87818431854248,0.22569782,0.0027637433,-2.3897824,-0.01986227279244357,nan,nan,nan,nan,nan,10.868767738342285,12.068767738342284,0.005815982818603516,0.2299140650431315,-0.059828130086262955,0.0,-5.0,0.7256884667792067,0.014497608214996372,0.028753164082408113,0.015281523570596731,nan,nan,nan,nan
20.97637128829956,0.21934819,0.015900604,-2.390791,-0.010926406653739562,nan,nan,nan,nan,nan,10.967057704925537,12.167057704925536,0.004908084869384766,0.21549820327758787,-0.03099640655517573,0.0,-5.0,0.7257599916717882,0.020556357427055177,0.02175355089794689,0.009479726722737118,nan,nan,nan,nan
21.069096565246582,0.21228619,0.03398274,-2.3896098,-0.0007540608810927552,nan,nan,nan,nan,nan,11.05965542793274,12.259655427932739,0.006665468215942383,0.20191720390319823,-0.0038344078063964116,0.0,-5.0,0.7261640040546606,0.014662902485154096,0.009639056970565787,0.0018206057619296113,nan,nan,nan,nan
21.166187524795532,0.20593667,0.051499456,-2.387945,0.00723754830129586,nan,nan,nan,nan,nan,11.156832933425903,12.356832933425903,0.006582498550415039,0.18766450309753413,0.02467099380493174,0.0,-5.0,0.7263802682353158,0.010650839440437331,0.006545019639499543,-0.002379568922849828,nan,nan,nan,nan
21.25914692878723,0.19238703,0.072379015,-2.3948154,0.021720715373367838,nan,nan,nan,nan,nan,11.24982738494873,12.44982738494873,0.005486249923706055,0.1740253168741862,0.05194936625162763,0.0,-5.0,0.7252508726568102,-0.0020762125819674972,0.004129495794042345,-0.011089422237871255,nan,nan,nan,nan
21.373420476913452,0.17878628,0.09079007,-2.398454,0.033260045164846375,nan,nan,nan,nan,nan,11.363977909088135,12.563977909088134,0.005062580108642578,0.15728324000040686,0.0854335199991863,0.0,-5.0,0.7252055760960906,-0.010959025557751868,-0.007163349068021024,-0.018916341006706427,nan,nan,nan,nan
21.47050976753235,0.16818035,0.10633826,-2.3995838,0.04081228873338105,nan,nan,nan,nan,nan,11.461076259613037,12.661076259613036,0.005711078643798828,0.14304214859008788,0.11391570281982429,0.0,-5.0,0.725424133732199,-0.017791361105746917,-0.012444810340039157,-0.023683522286499305,nan,nan,nan,nan
21.56736135482788,0.15835123,0.121312894,-2.402409,0.048040654632728774,nan,nan,nan,nan,nan,11.557931184768677,12.757931184768676,0.006726980209350586,0.12883675956726073,0.14232648086547856,0.0,-5.0,0.7256390770555089,-0.027277675200760246,-0.016217117193901558,-0.028104151528544456,nan,nan,nan,nan
21.6656813621521,0.13736217,0.1416736,-2.410572,0.05858018130229148,nan,nan,nan,nan,nan,11.656291007995605,12.856291007995605,0.006597995758056641,0.1144106521606445,0.17117869567871102,0.0,-5.0,0.7247660455915244,-0.03875386025714905,-0.016360449938456235,-0.035459233634658215,nan,nan,nan,nan
21.77746891975403,0.1228767,0.16355188,-2.4194853,0.07069576422793844,nan,nan,nan,nan,nan,11.768166065216064,12.968166065216064,0.005014657974243164,0.09800231043497716,0.2039953791300457,0.0,-5.0,0.7245469731545501,-0.05695818337153993,-0.020102025779381652,-0.04210052346418087,nan,nan,nan,nan
21.86961317062378,0.113287784,0.17468387,-2.4249458,0.08129123690710571,nan,nan,nan,nan,nan,11.860191345214844,13.060191345214843,0.005566596984863281,0.08450526936848952,0.23098946126302097,0.0,-5.0,0.7242782989967098,-0.07609842750443589,-0.01988617831900599,-0.04728040479489275,nan,nan,nan,nan
21.96690845489502,0.0957518,0.1899776,-2.4302962,0.1034080431343547,nan,nan,nan,nan,nan,11.95766019821167,13.15766019821167,0.007033824920654297,0.07020983759562172,0.2595803248087566,0.0,-5.0,0.7236962483020584,-0.09399389886335018,-0.01806780954523973,-0.05990725868610044,nan,nan,nan,nan
22.06097912788391,0.08403049,0.19919027,-2.4284122,0.1195182497393219,nan,nan,nan,nan,nan,12.051771402359009,13.251771402359008,0.005421638488769531,0.056406860987345334,0.2871862780253093,0.0,-5.0,0.7236907579885413,-0.1087335356513629,-0.019149390493266034,-0.07149389538133527,nan,nan,nan,nan
22.174947023391724,0.07068998,0.20709698,-2.43566,0.14548113621707337,nan,nan,nan,nan,nan,12.165513753890991,13.36551375389099,0.005184650421142578,0.03972464942932126,0.32055070114135753,0.0,-5.0,0.7232880648554707,-0.11408905090115386,-0.01616823861852719,-0.08875914212321294,nan,nan,nan,nan
22.268813848495483,0.056057878,0.21399912,-2.4417048,0.17688378496074098,nan,nan,nan,nan,nan,12.259400606155396,13.459400606155395,0.0070497989654541016,0.025954577763875265,0.34809084447224947,0.0,-5.0,0.7227843299488603,-0.10213000502725973,-0.010820298747346536,-0.10597902698655225,nan,nan,nan,nan
22.364866495132446,0.04832339,0.21776001,-2.444055,0.19535977035726404,nan,nan,nan,nan,nan,12.355480194091797,13.555480194091796,0.00671839714050293,0.011862904866536406,0.3762741902669272,0.0,-5.0,0.7224958944908351,-0.09300309341697298,-0.0063056587284024464,-0.11919508709638914,nan,nan,nan,nan
22.458925008773804,0.03880346,0.22256298,-2.4451218,0.22156341762251408,nan,nan,nan,nan,nan,12.449509859085083,13.649509859085082,0.0052297115325927734,0.0,0.39614377466837547,0.0,-5.0,0.722390964705795,-0.06061696314420694,0.0004684807987267816,-0.13649436186570293,nan,nan,nan,nan
22.560081958770752,0.032406177,0.22085801,-2.446922,0.23863983201078565,nan,nan,nan,nan,nan,12.550673484802246,13.750673484802245,0.005270719528198242,0.0,0.3664691111246743,0.0,-5.0,0.7222102280523534,-0.02784910039137662,0.0073671020407510964,-0.1488153264148418,nan,nan,nan,nan
22.674858808517456,0.02453805,0.2126194,-2.449044,0.24687212316613127,nan,nan,nan,nan,nan,12.665428876876831,13.86542887687683,0.006799936294555664,0.0,0.3328075294494627,0.0,-5.0,0.7220603506449085,0.013468349037832988,0.014322821061683448,-0.1556599130702578,nan,nan,nan,nan
22.777146577835083,0.021952808,0.20243393,-2.453514,0.24512702146726717,nan,nan,nan,nan,nan,12.76797866821289,13.96797866821289,0.0053784847259521484,0.0,0.30272625732421854,0.0,-5.0,0.7223359172981071,0.08047185113822196,0.015743356100345194,-0.1568731422989367,nan,nan,nan,nan
22.871430158615112,0.02219007,0.18814245,-2.4558835,0.23897886491248777,nan,nan,nan,nan,nan,12.862082481384277,14.062082481384277,0.005626201629638672,0.0,0.2751224721272784,0.0,-5.0,0.7225168474073658,0.09719041022946726,0.019745550968740352,-0.15434215455228487,nan,nan,nan,nan
22.967419862747192,0.023314454,0.1652352,-2.4590864,0.22878373956903442,nan,nan,nan,nan,nan,12.9580078125,14.1580078125,0.010047435760498047,0.0,0.24698437499999978,0.0,-5.0,0.7229085785953386,0.12479648171296762,0.019689083017585977,-0.14785284465712223,nan,nan,nan,nan
23.066500186920166,0.020094,0.12368125,-2.4518027,0.20911196295934342,nan,nan,nan,nan,nan,13.057122468948364,14.257122468948364,0.007402181625366211,0.0,0.21791074244181294,0.0,-5.0,0.7234797858331881,0.13888782571060027,0.016099065077684875,-0.13741840931995375,nan,nan,nan,nan
23.179117918014526,0.019464472,0.0835763,-2.44855,0.18625545145308386,nan,nan,nan,nan,nan,13.169827222824097,14.369827222824096,0.0056285858154296875,0.0,0.18485068130493143,0.0,-5.0,0.7239135035869376,0.1329422378290481,0.015336312879990724,-0.12368425684160306,nan,nan,nan,nan
23.277949333190918,0.021882214,0.052417498,-2.4450276,0.16820520479200418,nan,nan,nan,nan,nan,13.268704414367676,14.468704414367675,0.005570888519287109,0.0,0.15584670511881488,0.0,-5.0,0.7240732773976747,0.11668131916951387,0.01709532452180854,-0.11260097877422706,nan,nan,nan,nan
23.373246669769287,0.027940273,0.005711211,-2.4452183,0.14175807955560416,nan,nan,nan,nan,nan,13.363808631896973,14.563808631896972,0.005400419235229492,0.0,0.12794946797688778,0.0,-5.0,0.7241056881812765,0.08714424791049995,0.02109778429097135,-0.0948065169425403,nan,nan,nan,nan
23.471708297729492,0.032315645,-0.026801031,-2.4507148,0.13218929313147942,nan,nan,nan,nan,nan,13.462282180786133,14.662282180786132,0.006103992462158203,0.0,0.09906389363606745,0.0,-5.0,0.7220555824754069,0.07731466703223223,0.019316391546731464,-0.08689172394831515,nan,nan,nan,nan
23.566349267959595,0.033326842,-0.064884245,-2.4492557,0.11923402348282686,nan,nan,nan,nan,nan,13.556942462921143,14.756942462921142,0.006658792495727539,0.0,0.07129687754313126,0.0,-5.0,0.7225346234685726,0.0747642337388563,0.006931224912404924,-0.07834940661555635,nan,nan,nan,nan
23.67857813835144,0.033867914,-0.11062784,-2.4465241,0.10325522162922862,nan,nan,nan,nan,nan,13.669192790985107,14.869192790985107,0.00512242317199707,0.0,0.038370114644368236,0.0,-5.0,0.7234100263444327,0.05833873066518284,-0.004085677360942968,-0.06899427250157229,nan,nan,nan,nan
23.769744396209717,0.035478305,-0.13436168,-2.4435878,0.09299090162640233,nan,nan,nan,nan,nan,13.760338306427002,14.960338306427001,0.00575709342956543,0.0,0.011634096781412495,0.0,-5.0,0.723851843574941,0.05279098079539446,-0.003838418189826576,-0.06258428961470779,nan,nan,nan,nan
23.865769863128662,0.037716873,-0.1659604,-2.4401114,0.07724212493980698,nan,nan,nan,nan,nan,13.856355667114258,15.056355667114257,0.006297588348388672,0.0,-0.01653099568684917,0.0,-5.0,0.7243074347439535,0.07561859465807302,0.007541846804793646,-0.05170567178889384,nan,nan,nan,nan
23.967705488204956,0.04005589,-0.18448217,-2.4400153,0.0749068135448745,nan,nan,nan,nan,nan,13.95835542678833,15.15835542678833,0.006200313568115234,0.0,-0.04645092519124372,0.0,-5.0,0.7231738220346444,0.08476995039638237,0.019192132310521314,-0.04809428105762674,nan,nan,nan,nan
24.064021110534668,0.04325415,-0.20600258,-2.4347057,0.06787105436026053,nan,nan,nan,nan,nan,14.054653406143188,15.254653406143188,0.005145072937011719,0.0,-0.07469833246866885,0.0,-5.0,0.7237955085733573,0.06523546738996104,0.018165775861408353,-0.04505300357399841,nan,nan,nan,nan
24.17496919631958,0.04587904,-0.22385637,-2.4257736,0.0537248497889502,nan,nan,nan,nan,nan,14.165540218353271,15.36554021835327,0.006129741668701172,0.0,-0.10722513071695988,0.0,-5.0,0.7244747810506726,0.06971659418476772,0.022408471423704692,-0.03766533053019517,nan,nan,nan,nan
24.271681785583496,0.045959573,-0.23334222,-2.4231408,0.04567722381411077,nan,nan,nan,nan,nan,14.262243509292603,15.462243509292602,0.005932331085205078,0.0,-0.135591429392497,0.0,-5.0,0.7242394791120264,0.07844119901893011,0.028766811735813063,-0.03162149842611034,nan,nan,nan,nan
24.364091396331787,0.045202497,-0.24702078,-2.4229267,0.02983402780837352,nan,nan,nan,nan,nan,14.354674577713013,15.554674577713012,0.00542759895324707,0.0,-0.16270454279581736,0.0,-5.0,0.7241788028802099,0.07107641423693911,0.02664656338669489,-0.022641062955946405,nan,nan,nan,nan
24.460002183914185,0.045131106,-0.2500746,-2.4252188,0.013814150200316178,nan,nan,nan,nan,nan,14.450608253479004,15.650608253479003,0.005301952362060547,0.0,-0.19084508768717479,0.0,-5.0,0.7243884377044273,0.07194187195272624,0.025938700786229205,-0.011606837585834952,nan,nan,nan,nan
24.577326774597168,0.042588826,-0.24467248,-2.430003,-0.01327042227623032,nan,nan,nan,nan,nan,14.568111419677734,15.768111419677734,0.0052089691162109375,0.0,-0.225312683105469,0.0,-5.0,0.724010319756453,0.0605365363743208,0.027717039478932746,0.0030107454715477865,nan,nan,nan,nan
24.67207670211792,0.039534375,-0.24220715,-2.4273582,-0.027218267658247974,nan,nan,nan,nan,nan,14.662655353546143,15.862655353546142,0.005459785461425781,0.0,-0.2530455703735354,0.0,-5.0,0.7237331282638444,0.06059774690662616,0.029329723627256967,0.014236488317048325,nan,nan,nan,nan
24.76762866973877,0.035428092,-0.2382817,-2.4259567,-0.05193982637957095,nan,nan,nan,nan,nan,14.7581946849823,15.958194684982299,0.006017923355102539,0.0,-0.28107044092814154,0.0,-5.0,0.7234556780318947,0.04681664093516731,0.024474970350199306,0.028155967267861282,nan,nan,nan,nan
24.867758989334106,0.03481667,-0.23273031,-2.4273643,-0.07111349661611754,nan,nan,nan,nan,nan,14.858340978622437,16.058340978622436,0.006470680236816406,0.0,-0.31044668706258166,0.0,-5.0,0.7231310216113717,0.025408522568994348,0.018238690818017916,0.040966120497949225,nan,nan,nan,nan
24.963409662246704,0.035864215,-0.2267326,-2.4307573,-0.08203567972702785,nan,nan,nan,nan,nan,14.954034566879272,16.15403456687927,0.006146669387817383,0.0,-0.33851680628458686,0.0,-5.0,0.7229485540247795,0.005640169648634838,0.016714423441155302,0.04880801302154215,nan,nan,nan,nan
25.066757440567017,0.03421121,-0.22007436,-2.4340978,-0.09337203173726305,nan,nan,nan,nan,nan,15.057358741760254,16.257358741760253,0.007162332534790039,0.0,-0.36882523091634145,0.0,-5.0,0.7229601967107689,-0.05845432384038508,-0.0006471953344087483,0.05844554797517086,nan,nan,nan,nan
25.16335439682007,0.031184897,-0.20983319,-2.4361775,-0.09855740460932427,nan,nan,nan,nan,nan,15.153950452804565,16.353950452804565,0.005280971527099609,0.0,-0.3971587994893395,0.0,-5.0,0.7232844665914054,-0.08985667629194667,-0.011080860222927973,0.06205282265987481,nan,nan,nan,nan
25.25894331932068,0.027862363,-0.19983967,-2.4353523,-0.09987605129743216,nan,nan,nan,nan,nan,15.249532222747803,16.449532222747802,0.005339384078979492,-0.012598059336344345,-0.37480388132731135,0.0,-5.0,0.7235379580119848,-0.10583401969870941,-0.01703268754963767,0.06343357423420108,nan,nan,nan,nan
25.362424850463867,0.020641165,-0.17709649,-2.4274864,-0.0990554231730929,nan,nan,nan,nan,nan,15.353033304214478,16.553033304214477,0.005179405212402344,-0.027778217951456654,-0.3444435640970867,0.0,-5.0,0.7243551060339638,-0.12850972763180618,-0.03212244208937639,0.06362325363162467,nan,nan,nan,nan
25.473161935806274,0.0108978655,-0.14543821,-2.4261448,-0.0957405617725744,nan,nan,nan,nan,nan,15.463775634765625,16.663775634765624,0.005385398864746094,-0.04402042643229162,-0.3119591471354168,0.0,-5.0,0.7246526507096189,-0.12901180759955688,-0.037194918623020476,0.06192500449830551,nan,nan,nan,nan
25.567167043685913,0.00046258996,-0.12122776,-2.421223,-0.09230735841711013,nan,nan,nan,nan,nan,15.557759761810303,16.757759761810302,0.007204532623291016,-0.057804765065511014,-0.284390469868978,0.0,-5.0,0.7249412232609425,-0.1193975138796815,-0.03883036793045766,0.05977656484157318,nan,nan,nan,nan
25.660716772079468,-0.008069625,-0.1022072,-2.4187002,-0.08905732661859922,nan,nan,nan,nan,nan,15.65127944946289,16.85127944946289,0.005140781402587891,-0.07152098592122391,-0.2569580281575522,0.0,-5.0,0.7250457509314145,-0.10291716867843938,-0.03735295357186661,0.05746633295522267,nan,nan,nan,nan
25.774059295654297,-0.022775363,-0.07033348,-2.415737,-0.08321227363165384,nan,nan,nan,nan,nan,15.764654874801636,16.964654874801635,0.0056955814361572266,-0.08814938163757319,-0.22370123672485365,0.0,-5.0,0.7249960257354058,-0.0730378628801631,-0.03188682815497568,0.05401164249489032,nan,nan,nan,nan
25.872630834579468,-0.035443425,-0.043132637,-2.4141767,-0.0686865618259418,nan,nan,nan,nan,nan,15.863203048706055,17.063203048706054,0.005787372589111328,-0.10260311381022132,-0.1947937723795574,0.0,-5.0,0.7242104621609727,-0.06205383660416066,-0.021184785272772594,0.04582872572106894,nan,nan,nan,nan
25.96660852432251,-0.04650785,-0.021187654,-2.4117665,-0.05323907309274478,nan,nan,nan,nan,nan,15.957200050354004,17.157200050354003,0.005681514739990234,-0.1163893407185872,-0.16722131856282563,0.0,-5.0,0.724294036581014,-0.05723477594139686,-0.016609397337066397,0.03831606457405393,nan,nan,nan,nan
26.060100317001343,-0.06013709,0.007118701,-2.40907,-0.03211499336584822,nan,nan,nan,nan,nan,16.05066418647766,17.25066418647766,0.005487203598022461,-0.1300974140167236,-0.13980517196655282,0.0,-5.0,0.724263243349795,-0.05773889381572184,-0.01527392174931408,0.02555017951698438,nan,nan,nan,nan
26.178263187408447,-0.07887104,0.037267163,-2.4087896,-0.005556631722011929,nan,nan,nan,nan,nan,16.16882061958313,17.36882061958313,0.005144357681274414,-0.14742702420552567,-0.10514595158894867,0.0,-5.0,0.7242219134035749,-0.05730226053013283,-0.01659582897146006,0.009076851530311073,nan,nan,nan,nan
26.27472686767578,-0.0900151,0.05144112,-2.4090018,0.01111187782433376,nan,nan,nan,nan,nan,16.2653169631958,17.4653169631958,0.005538225173950195,-0.1615798212687174,-0.07684035746256522,0.0,-5.0,0.7240871329569128,-0.05287053911631492,-0.017364716381750134,-0.002557853094216946,nan,nan,nan,nan
26.367812633514404,-0.105992444,0.06877266,-2.4107106,0.03695665965468642,nan,nan,nan,nan,nan,16.358397245407104,17.558397245407104,0.006137847900390625,-0.17523159599304194,-0.04953680801391611,0.0,-5.0,0.7240561048908274,-0.04257400356651258,-0.018610652524169543,-0.019015699743630446,nan,nan,nan,nan
26.47091841697693,-0.118230306,0.082832724,-2.41649,0.056304430856926935,nan,nan,nan,nan,nan,16.461495399475098,17.661495399475097,0.006548166275024414,-0.19035265858968098,-0.01929468282063809,0.0,-5.0,0.7238762186319341,-0.03388217438323718,-0.01651831726616745,-0.029366767659722074,nan,nan,nan,nan
26.567427396774292,-0.12659447,0.09797207,-2.4133387,0.07454728729450899,nan,nan,nan,nan,nan,16.558010816574097,17.758010816574096,0.007581233978271484,-0.20450825309753415,0.009016506195068264,0.0,-5.0,0.7236956360426889,-0.02691980350048879,-0.012961234785810065,-0.04241958234957293,nan,nan,nan,nan
26.663374662399292,-0.13693535,0.11608077,-2.4136922,0.09772220980747726,nan,nan,nan,nan,nan,16.653977632522583,17.853977632522582,0.0053865909576416016,-0.21858338610331216,0.03716677220662428,0.0,-5.0,0.7237113899587562,-0.024393669572850045,-0.007301859692161793,-0.05759355089636083,nan,nan,nan,nan
26.761534929275513,-0.14399211,0.12718274,-2.4154503,0.11221645945416903,nan,nan,nan,nan,nan,16.752095460891724,17.952095460891723,0.005723237991333008,-0.2329740009307861,0.06594800186157217,0.0,-5.0,0.723534822225218,-0.023106398915270658,-0.00432443468441564,-0.06705246718052946,nan,nan,nan,nan
26.86639428138733,-0.15467596,0.14367102,-2.415662,0.13272290050962,nan,nan,nan,nan,nan,16.857092142105103,18.057092142105102,0.005492687225341797,-0.248373514175415,0.09674702835083,0.0,-5.0,0.7234405161603576,-0.028230962953840873,-0.0031831420092371917,-0.08043117542838175,nan,nan,nan,nan
26.96595525741577,-0.16171542,0.15259524,-2.4157126,0.14555805102128438,nan,nan,nan,nan,nan,16.956556797027588,18.156556797027587,0.005469799041748047,-0.2629616635640462,0.1259233271280924,0.0,-5.0,0.7233635921144657,-0.0316985562244039,-0.0022231453785983087,-0.08885557785175185,nan,nan,nan,nan
27.06088423728943,-0.16878347,0.16363296,-2.4199233,0.15894452274703585,nan,nan,nan,nan,nan,17.051447868347168,18.251447868347167,0.005534648895263672,-0.2768790206909179,0.15375804138183585,0.0,-5.0,0.7230806893571053,-0.03674627670541655,-0.0018436177774866344,-0.0999087990561735,nan,nan,nan,nan
27.176748514175415,-0.17736636,0.17711157,-2.4301567,0.17699859260001727,nan,nan,nan,nan,nan,17.167309045791626,18.367309045791625,0.005234479904174805,-0.29387199338277176,0.18774398676554355,0.0,-5.0,0.7226213277262269,-0.045096992755806135,-0.0008354736307949007,-0.1094956441339875,nan,nan,nan,nan
27.275124073028564,-0.1817769,0.18361205,-2.439695,0.1887594539890065,nan,nan,nan,nan,nan,17.265690565109253,18.465690565109252,0.006136655807495117,-0.30830128288269043,0.21660256576538084,0.0,-5.0,0.7221010963923806,-0.04976524308917252,0.0013129920898640418,-0.11780601301506197,nan,nan,nan,nan
27.374655961990356,-0.18537916,0.18885225,-2.4521947,0.20127399520480882,nan,nan,nan,nan,nan,17.365232944488525,18.565232944488525,0.006041049957275391,-0.3229008318583171,0.2458016637166341,0.0,-5.0,0.7214527941366777,-0.050159019218607215,0.005159855571816295,-0.1271348714870971,nan,nan,nan,nan
27.46973943710327,-0.19588758,0.19819523,-2.468976,0.21716527632756044,nan,nan,nan,nan,nan,17.460341215133667,18.660341215133666,0.006780147552490234,-0.3368500448862712,0.2737000897725423,0.0,-5.0,0.7208611059066499,-0.05682171149198907,0.004751336030701896,-0.13515161814961907,nan,nan,nan,nan
27.565483570098877,-0.20491424,0.19974987,-2.4730012,0.2270341093379349,nan,nan,nan,nan,nan,17.55616855621338,18.756168556213378,0.0062885284423828125,-0.3509047215779622,0.3018094431559244,0.0,-5.0,0.7204347339542606,-0.06456584104554652,0.0019740774636648343,-0.14211676062613107,nan,nan,nan,nan
27.6613609790802,-0.21762246,0.19746026,-2.4807286,0.24400650220270403,nan,nan,nan,nan,nan,17.651934146881104,18.851934146881103,0.004957437515258789,-0.36495034154256184,0.32990068308512366,0.0,-5.0,0.7199984082135618,-0.06244926371152883,-0.004884308304453939,-0.1519978457732883,nan,nan,nan,nan
27.762555837631226,-0.22465917,0.1921528,-2.4842224,0.2549518504703405,nan,nan,nan,nan,nan,17.753117561340332,18.95311756134033,0.00509953498840332,-0.3797905756632487,0.3595811513264973,0.0,-5.0,0.7196940406986241,-0.06076452123667302,-0.005810352389684147,-0.15933001268481398,nan,nan,nan,nan
27.8752338886261,-0.23415582,0.18062136,-2.481057,0.2648518004181568,nan,nan,nan,nan,nan,17.86581301689148,19.06581301689148,0.005615711212158203,-0.396319242477417,0.392638484954834,0.0,-5.0,0.7194612936471841,-0.038223695855129795,-0.004326675265461168,-0.16731895898504948,nan,nan,nan,nan
27.96871042251587,-0.24487032,0.17753999,-2.473569,0.2641401728597401,nan,nan,nan,nan,nan,17.959320306777954,19.159320306777953,0.006754159927368164,-0.4,0.37993271001180007,0.0,-5.0,0.7194376058392039,0.006441579785025913,-0.0007399146143380445,-0.16907465856891518,nan,nan,nan,nan
28.07466959953308,-0.2532817,0.17626154,-2.468965,0.2566517536942978,nan,nan,nan,nan,nan,18.065239906311035,19.265239906311034,0.0057373046875,-0.4,0.3488629608154296,0.0,-5.0,0.7195682591100286,0.01941176657943015,0.002207649133971228,-0.1669265455900612,nan,nan,nan,nan
28.171737909317017,-0.26820815,0.17070813,-2.4660857,0.2358190850649997,nan,nan,nan,nan,nan,18.16230034828186,19.36230034828186,0.0073621273040771484,-0.4,0.3203918978373209,0.0,-5.0,0.7201355518459657,0.06523038849180307,-0.0003265251748417219,-0.15495176540755598,nan,nan,nan,nan
28.265536069869995,-0.27557576,0.16522892,-2.4678664,0.2207677942492774,nan,nan,nan,nan,nan,18.25613021850586,19.45613021850586,0.005615234375,-0.4,0.2928684692382812,0.0,-5.0,0.7203422303511072,0.07079174036866144,-0.0005930684325239427,-0.1462401059125908,nan,nan,nan,nan
28.362428665161133,-0.2815137,0.1551436,-2.4739673,0.19666564130717923,nan,nan,nan,nan,nan,18.352988958358765,19.552988958358764,0.005193948745727539,-0.4,0.2644565722147623,0.0,-5.0,0.7203369882793476,0.07728920186129948,0.004162980764772354,-0.1301489578876128,nan,nan,nan,nan
28.46063542366028,-0.28708428,0.14257185,-2.4786482,0.17740157969712556,nan,nan,nan,nan,nan,18.451194047927856,19.651194047927856,0.005595684051513672,-0.4,0.23564974594116203,0.0,-5.0,0.7201518810823921,0.07001810384897827,0.008844481526108701,-0.11920416155437982,nan,nan,nan,nan
28.558383226394653,-0.29209054,0.119444616,-2.4887912,0.14957331349384084,nan,nan,nan,nan,nan,18.54894518852234,19.748945188522338,0.006128787994384766,-0.4,0.2069760780334472,0.0,-5.0,0.7195769449286528,0.05817155863871497,0.01499898683813762,-0.10094853600638132,nan,nan,nan,nan
28.674601793289185,-0.2948722,0.09133846,-2.500739,0.12492923308609782,nan,nan,nan,nan,nan,18.665180206298828,19.865180206298827,0.0061266422271728516,-0.4,0.1728804728190103,0.0,-5.0,0.718920979050887,0.044498987991989786,0.021112528569480166,-0.08401123623673827,nan,nan,nan,nan
28.7741596698761,-0.29659602,0.06711342,-2.5094187,0.10753505571797994,nan,nan,nan,nan,nan,18.764785289764404,19.964785289764404,0.0060045719146728516,-0.4,0.14366298166910796,0.0,-5.0,0.7184495886546084,0.03549683385009657,0.022667239777226476,-0.07391010952690452,nan,nan,nan,nan
28.872860431671143,-0.29819933,0.024926418,-2.5161893,0.0822476234063263,nan,nan,nan,nan,nan,18.86344814300537,20.06344814300537,0.007382869720458984,-0.4,0.11472187805175774,0.0,-5.0,0.7179954851660258,0.032780531691932215,0.02215996003803263,-0.05755414891333873,nan,nan,nan,nan
28.970008850097656,-0.29530883,-0.0011355865,-2.5194101,0.06607186059208914,nan,nan,nan,nan,nan,18.960681200027466,20.160681200027465,0.006987094879150391,-0.4,0.08620018132527658,0.0,-5.0,0.7177411116445043,0.026893776157232513,0.023766985702146408,-0.047014456700224444,nan,nan,nan,nan
29.070213079452515,-0.292331,-0.03101076,-2.5279903,0.04586806004461508,nan,nan,nan,nan,nan,19.060848712921143,20.260848712921142,0.007595539093017578,-0.4,0.05681771087646475,0.0,-5.0,0.7172581431603351,0.017541614288873845,0.02615536031440346,-0.032920452168002656,nan,nan,nan,nan
29.165671825408936,-0.29139856,-0.05463715,-2.5367637,0.025850996696480166,nan,nan,nan,nan,nan,19.15646505355835,20.35646505355835,0.0067064762115478516,-0.4,0.028770250956217325,0.0,-5.0,0.7166403019654225,0.009346623822058977,0.03015072278333893,-0.021071731961654985,nan,nan,nan,nan
29.265477657318115,-0.29145077,-0.069377415,-2.5447326,0.009788337999953711,nan,nan,nan,nan,nan,19.25613498687744,20.45613498687744,0.0049970149993896484,-0.4,-0.000466262817382912,0.0,-5.0,0.7163386388400644,0.001780263028751613,0.03034720142460278,-0.011293962573361025,nan,nan,nan,nan
29.361504793167114,-0.28479645,-0.08850409,-2.5548007,-0.016921304199133402,nan,nan,nan,nan,nan,19.352066040039062,20.552066040039062,0.005232810974121094,-0.4,-0.028606038411458458,0.0,-5.0,0.7157586766747664,-0.005245283401033939,0.03579418922982437,0.005176867586525811,nan,nan,nan,nan
29.46075439453125,-0.27721614,-0.10851045,-2.5656283,-0.03916033032419364,nan,nan,nan,nan,nan,19.451314449310303,20.651314449310302,0.005532503128051758,-0.4,-0.05771890513102225,0.0,-5.0,0.7152200481885536,-0.007919116870604889,0.040131690952586827,0.019156253438554757,nan,nan,nan,nan
29.57456374168396,-0.26747414,-0.12562318,-2.5755343,-0.06876756286879271,nan,nan,nan,nan,nan,19.565129041671753,20.765129041671752,0.006331920623779297,-0.4,-0.09110451889038096,0.0,-5.0,0.7145935829303756,-0.007707041890371334,0.0468822091996414,0.03757412955620344,nan,nan,nan,nan
29.676069259643555,-0.2617552,-0.13428152,-2.5794551,-0.08962177992411924,nan,nan,nan,nan,nan,19.666647911071777,20.866647911071777,0.005789995193481445,-0.4,-0.12088338724772144,0.0,-5.0,0.7142870736668898,-0.007434167940255635,0.0489693768319197,0.04794210827355234,nan,nan,nan,nan
29.775546550750732,-0.2537979,-0.14060363,-2.584389,-0.12202035311623227,nan,nan,nan,nan,nan,19.766117095947266,20.966117095947265,0.007458925247192383,-0.4,-0.15006101481119805,0.0,-5.0,0.7139463629793562,-0.009138830889373683,0.051066520360067175,0.070969692357875,nan,nan,nan,nan
29.868217945098877,-0.24981815,-0.13927557,-2.5893428,-0.1395268146622417,nan,nan,nan,nan,nan,19.858872175216675,21.058872175216674,0.00548100471496582,-0.4,-0.17726917139689144,0.0,-5.0,0.713809808414829,-0.012564073818874654,0.0501116468844704,0.08205751930573452,nan,nan,nan,nan
29.96220326423645,-0.24934123,-0.13852704,-2.5972655,-0.1634508463098996,nan,nan,nan,nan,nan,19.952764749526978,21.152764749526977,0.005163669586181641,-0.4,-0.20481099319458018,0.0,-5.0,0.7133167561980822,-0.018165769118478232,0.043522328705896424,0.10143911997072637,nan,nan,nan,nan
30.07028293609619,-0.25073028,-0.13639061,-2.6098726,-0.19275428124625105,nan,nan,nan,nan,nan,20.06088352203369,21.26088352203369,0.006434917449951172,-0.4,-0.23652583312988293,0.0,-5.0,0.7128060527780569,-0.014660073388339906,0.035881013516025614,0.1163398387474135,nan,nan,nan,nan
30.16550588607788,-0.25141573,-0.1303947,-2.6221297,-0.22105209457741903,nan,nan,nan,nan,nan,20.15614652633667,21.35614652633667,0.00547480583190918,-0.4,-0.2644696477254233,0.0,-5.0,0.7123023863226325,-0.013778055589558256,0.024246060438948253,0.13389044318486903,nan,nan,nan,nan
30.27818202972412,-0.24940318,-0.12437208,-2.631799,-0.24175674503286615,nan,nan,nan,nan,nan,20.268756866455078,21.468756866455077,0.005373716354370117,-0.4,-0.2975020141601564,0.0,-5.0,0.7119071570612001,-0.013113658377058515,0.014350786677167337,0.15011497779386623,nan,nan,nan,nan
30.375898361206055,-0.24500065,-0.121778905,-2.636515,-0.2538317734203579,nan,nan,nan,nan,nan,20.366632223129272,21.56663222312927,0.00601506233215332,-0.4,-0.3262121187845868,0.0,-5.0,0.7117950079435834,-0.0057440090200411706,0.015481175861370561,0.15750429776666072,nan,nan,nan,nan
30.4703471660614,-0.23485376,-0.11745498,-2.6493664,-0.27123234146489583,nan,nan,nan,nan,nan,20.46100950241089,21.661009502410888,0.0069544315338134766,-0.4,-0.3538961207071942,0.0,-5.0,0.7113199295542902,-0.00631828078463155,0.016129780342330938,0.169535496537327,nan,nan,nan,nan
30.576048612594604,-0.22510771,-0.117340915,-2.6519732,-0.2797675855785826,nan,nan,nan,nan,nan,20.56667470932007,21.766674709320068,0.006941795349121094,-0.4,-0.3848912480672202,0.0,-5.0,0.7109663879224766,0.0005384151086379675,0.020400536362197092,0.17498416992256657,nan,nan,nan,nan
