time,x,y,z,yaw,platform,trajectory,traj_double,traj_short,traj_spin,traj_time,ref_time,comptime,x_ref,y_ref,yaw_ref,z_ref,throttle_input,p_input,q_input,r_input,cbf_term_pitch_cbf,cbf_term_roll_cbf,cbf_term_thrust_cbf,cbf_term_yaw_cbf
10.052343845367432,-0.047624536,0.021965632,-2.9256208,-0.001705252335881317,SIM,CIRCLE_VERTICAL,NormSpd,Not Short,NoSpin,0.051595211029052734,1.2515952110290527,0.005467653274536133,0.12360693451711575,0.0,0.0,-5.327446676176872,0.8785971096381037,-0.034047368788228026,0.2109689715690104,0.002026432599467512,nan,nan,nan,nan
10.157463550567627,-0.05135489,0.037993148,-2.9330869,0.0009667409847738354,nan,nan,nan,nan,nan,0.15673232078552246,1.3567323207855224,0.005374431610107422,0.0897479394604677,0.0,0.0,-5.338297660888455,0.8785971096381046,-0.04678308451011126,0.22114436431565773,0.0025148886800610143,nan,nan,nan,nan
10.26431393623352,-0.05618697,0.046121083,-2.936446,0.0020559506025854763,nan,nan,nan,nan,nan,0.2635807991027832,1.4635807991027832,0.006281375885009766,0.05439087310335439,0.0,0.0,-5.345747932637427,0.8785971096381059,-0.0405941035400691,0.2569307351277548,-0.0018358313849709594,nan,nan,nan,nan
10.362406969070435,-0.061949123,0.053819034,-2.9441965,0.0028628702842992283,nan,nan,nan,nan,nan,0.361708402633667,1.561708402633667,0.008182048797607422,0.021399796732597638,0.0,0.0,-5.34934517128451,0.8785971096381048,-0.035503838631513754,0.2532478559995161,-0.003101578587897553,nan,nan,nan,nan
10.459758996963501,-0.06741962,0.06274896,-2.9575276,0.0034155707149007334,nan,nan,nan,nan,nan,0.45901966094970703,1.659019660949707,0.006983041763305664,-0.011507639775946227,0.0,0.0,-5.349810769169257,0.8785971096381059,-0.03249742955880589,0.25996723492872514,-0.004022060407972966,nan,nan,nan,nan
10.555347204208374,-0.07535577,0.070970275,-2.970262,0.003625074985533179,nan,nan,nan,nan,nan,0.5546996593475342,1.7546996593475341,0.005578041076660156,-0.04376581828780184,0.0,0.0,-5.347252866294289,0.8785971096381059,-0.031534497932530194,0.2851208194378864,-0.0040848529380327365,nan,nan,nan,nan
10.65353798866272,-0.086793676,0.080140054,-2.9890287,0.0038478832124745088,nan,nan,nan,nan,nan,0.6527929306030273,1.8527929306030273,0.005777120590209961,-0.07644685048931953,0.0,0.0,-5.341549233713478,0.8785971096381054,-0.03556981675276145,0.2806021265086971,-0.0043657362794086475,nan,nan,nan,nan
10.758656024932861,-0.09528534,0.08451196,-3.028869,0.0038056925784509723,nan,nan,nan,nan,nan,0.7579255104064941,1.957925510406494,0.0058057308197021484,-0.11070291316107661,0.0,0.0,-5.3320314217324185,0.8785971096381059,-0.026014658721258604,0.2146903607394569,-0.004538206477058094,nan,nan,nan,nan
10.870866060256958,-0.10436981,0.08427523,-3.1065886,0.0038797260517847076,nan,nan,nan,nan,nan,0.8701708316802979,2.070170831680298,0.0058135986328125,-0.1460071074721816,0.0,0.0,-5.318091063325594,0.8785971096381059,0.00026124314379353977,0.054820817254433565,-0.004666112019678919,nan,nan,nan,nan
10.964685916900635,-0.12174546,0.08002917,-3.1939466,0.0036167156306267066,nan,nan,nan,nan,nan,0.96394944190979,2.16394944190979,0.0069887638092041016,-0.17420325486168936,0.0,0.0,-5.303567498253013,0.8785971096380666,0.02064496025882181,-0.043563962224117965,-0.00443367347685426,nan,nan,nan,nan
11.060585260391235,-0.14886817,0.07220632,-3.3573167,0.0027966016923685107,nan,nan,nan,nan,nan,1.059840440750122,2.2598404407501222,0.007294893264770508,-0.201553561229782,0.0,0.0,-5.286140108959916,0.8785971096381059,0.043742268605113904,-0.14290190327958444,-0.0035691420729276942,nan,nan,nan,nan
11.156226634979248,-0.17472087,0.064092875,-3.5183377,0.0021259165047324774,nan,nan,nan,nan,nan,1.1555910110473633,2.3555910110473635,0.00541234016418457,-0.22713723626370386,0.0,0.0,-5.266286830133385,0.8785971096381059,0.05035485061430408,-0.17128601546125963,-0.0024586279160487123,nan,nan,nan,nan
11.265105962753296,-0.21345398,0.052018464,-3.765137,0.0011655352761969846,nan,nan,nan,nan,nan,1.264354944229126,2.464354944229126,0.0063457489013671875,-0.25382783462903125,0.0,0.0,-5.24098014517287,0.8234016816060985,0.050818061533630714,-0.17570998999947404,-0.0012542247522813398,nan,nan,nan,nan
11.363136529922485,-0.24230869,0.044249974,-3.968641,-0.00018494584181077012,nan,nan,nan,nan,nan,1.3624207973480225,2.5624207973480226,0.007504463195800781,-0.2754976916427821,0.0,0.0,-5.21587269836526,0.7336566053664141,0.04240484092786338,-0.1719198024980901,0.0004731492704337648,nan,nan,nan,nan
11.453613042831421,-0.2787419,0.03287829,-4.2732334,-0.0001349829997889622,nan,nan,nan,nan,nan,1.45286226272583,2.6528622627258303,0.0054705142974853516,-0.29329410925415744,0.0,0.0,-5.190993626796316,0.6301219219188825,0.030016599251368216,-0.14663648906808077,0.0013382234586480698,nan,nan,nan,nan
11.562188863754272,-0.3085378,0.025679922,-4.5620584,-0.0003408223031680412,nan,nan,nan,nan,nan,1.5614712238311768,2.761471223831177,0.007554054260253906,-0.3116941128693457,0.0,0.0,-5.159206720971797,0.5528515541970127,0.017288235646499568,-0.10904458982191557,0.00026840437994682175,nan,nan,nan,nan
11.657560586929321,-0.3230518,0.022251446,-4.710197,-0.0009102489099641264,nan,nan,nan,nan,nan,1.6569135189056396,2.85691351890564,0.005239725112915039,-0.3250359137893011,0.0,0.0,-5.129813923548879,0.5211619728583536,0.004788099629458498,-0.08645122546601466,0.0011938562914208545,nan,nan,nan,nan
11.77034306526184,-0.34667933,0.014158621,-4.9446707,-0.001604385086819973,nan,nan,nan,nan,nan,1.769594669342041,2.969594669342041,0.007009029388427734,-0.3372214071509796,0.0,0.0,-5.093710845472193,0.5096773112889408,-0.003584097001673771,-0.05738717792866903,0.0019235334680913815,nan,nan,nan,nan
11.870153903961182,-0.36575302,0.009283089,-5.105412,-0.003255245831033364,nan,nan,nan,nan,nan,1.8694043159484863,3.0694043159484865,0.005830526351928711,-0.3446803557625665,0.0,0.0,-5.060790232368289,0.5296464783918949,-0.012672677457195247,-0.016914662834095758,0.003496241445476469,nan,nan,nan,nan
11.967740774154663,-0.37827644,0.003540659,-5.19126,-0.004059199396510518,nan,nan,nan,nan,nan,1.9669981002807617,3.166998100280762,0.005774736404418945,-0.34887406285195816,0.0,0.0,-5.0280515288205105,0.5490460735299116,-0.013535419205675362,-0.009219410507378208,0.004914072289329559,nan,nan,nan,nan
12.065741062164307,-0.3932707,-0.0024712004,-5.274505,-0.00464466189562137,nan,nan,nan,nan,nan,2.064995527267456,3.2649955272674562,0.006696462631225586,-0.34996323056559225,0.0,0.0,-4.994926810461445,0.5834784186308563,-0.01125915553293577,0.014177879233195079,0.005741408905699546,nan,nan,nan,nan
12.160140752792358,-0.40011922,-0.0047282595,-5.30385,-0.004521373151422522,nan,nan,nan,nan,nan,2.1594181060791016,3.3594181060791017,0.006667375564575195,-0.34804410943369263,0.0,0.0,-4.963050062401842,0.6099058680773397,-0.01147846195204738,0.02113104518709707,0.0059897363265485806,nan,nan,nan,nan
12.254281520843506,-0.40249652,-0.005443486,-5.310194,-0.003985722696743194,nan,nan,nan,nan,nan,2.2535324096679688,3.453532409667969,0.00548100471496582,-0.34324793085251365,0.0,0.0,-4.931583204068971,0.6342732094574036,-0.014772221009101735,0.02469124768113848,0.005558635517231761,nan,nan,nan,nan
12.36695647239685,-0.39339256,-9.302719e-05,-5.288977,-0.0019286675253994447,nan,nan,nan,nan,nan,2.3662097454071045,3.5662097454071047,0.005632162094116211,-0.333776759210281,0.0,0.0,-4.8946763321419064,0.6740108743114577,-0.026396823637485745,0.060885007040869174,0.003082790711782922,nan,nan,nan,nan
12.45621395111084,-0.3815765,-0.00075295166,-5.264808,-0.000959266261550738,nan,nan,nan,nan,nan,2.455927610397339,3.655927610397339,0.00514674186706543,-0.3233995609455139,0.0,0.0,-4.8661615750979985,0.6875320551084656,-0.028018713088765232,0.061246597965661675,0.001832993704169772,nan,nan,nan,nan
12.570326089859009,-0.35625386,0.0009489276,-5.219015,0.0004072461690233153,nan,nan,nan,nan,nan,2.569575309753418,3.769575309753418,0.0054874420166015625,-0.30677653221391243,0.0,0.0,-4.831512139063948,0.7096539005931808,-0.018501167440188256,0.0776467384195056,0.0003918894914386501,nan,nan,nan,nan
12.67130732536316,-0.32263353,0.0054039117,-5.1627707,0.0019685279273843493,nan,nan,nan,nan,nan,2.6705594062805176,3.8705594062805178,0.005941629409790039,-0.28889513765725333,0.0,0.0,-4.802415589081535,0.7280510610188137,-0.015590843142957536,0.09514868960192134,-0.002517661757786083,nan,nan,nan,nan
12.764495849609375,-0.3006058,0.00702557,-5.1275077,0.002136093651534424,nan,nan,nan,nan,nan,2.763754367828369,3.9637543678283693,0.006338357925415039,-0.26994806834050794,0.0,0.0,-4.777226481826882,0.7361434858448704,-0.010749759012418049,0.08098048938768182,-0.002843691020196622,nan,nan,nan,nan
12.854298114776611,-0.26159334,0.012711913,-5.0795207,0.004405608375698178,nan,nan,nan,nan,nan,2.8535497188568115,4.053549718856812,0.005450725555419922,-0.24961927930955385,0.0,0.0,-4.754663057414953,0.7450001016971627,-0.006079884945128746,0.07814319122161523,-0.004910457640460179,nan,nan,nan,nan
12.967278480529785,-0.22337143,0.01773857,-5.035703,0.006156891775730332,nan,nan,nan,nan,nan,2.96653413772583,4.16653413772583,0.005615949630737305,-0.2213906113032188,0.0,0.0,-4.728916623108707,0.7497060956205673,-0.0048981515815738,0.060221429145918,-0.007704437094676676,nan,nan,nan,nan
13.056490898132324,-0.19737807,0.023295628,-5.007813,0.007512079702687674,nan,nan,nan,nan,nan,3.05586838722229,4.25586838722229,0.005526542663574219,-0.197185499072478,0.0,0.0,-4.710832437926489,0.7524459700948274,-0.0025841582134165765,0.04545161591023219,-0.008966435808504073,nan,nan,nan,nan
13.169077157974243,-0.15918818,0.03541825,-4.97199,0.011298209247128026,nan,nan,nan,nan,nan,3.1683363914489746,4.368336391448975,0.005681514739990234,-0.1646459541979918,0.0,0.0,-4.691144516373381,0.7546772198968441,-0.015321089591584453,0.02551993720091145,-0.014033229694221085,nan,nan,nan,nan
13.261691570281982,-0.1259668,0.048187174,-4.952673,0.015397877062437877,nan,nan,nan,nan,nan,3.2609598636627197,4.46095986366272,0.006162405014038086,-0.13637035835052913,0.0,0.0,-4.6776599228092355,0.7521575073669011,-0.027400870825240137,0.010478195619831897,-0.019978949927121178,nan,nan,nan,nan
13.357990503311157,-0.099221446,0.04839421,-4.9446993,0.01362327345747357,nan,nan,nan,nan,nan,3.357578992843628,4.557578992843628,0.005362272262573242,-0.10571440102098952,0.0,0.0,-4.666346788691052,0.7504504925842342,-0.018273129512733417,-0.004129053745275324,-0.020251622827350216,nan,nan,nan,nan
13.470258235931396,-0.064514846,0.04659255,-4.9405336,0.009917008394679624,nan,nan,nan,nan,nan,3.4695260524749756,4.669526052474976,0.005586385726928711,-0.06906087444137218,0.0,0.0,-4.6568810765617945,0.7466900510966639,0.013055010987661271,-0.0016681171539998864,-0.015365215319120768,nan,nan,nan,nan
13.563800573348999,-0.031363424,0.04352791,-4.9403853,0.006974404563287942,nan,nan,nan,nan,nan,3.563060998916626,4.763060998916626,0.006864786148071289,-0.03779794364121982,0.0,0.0,-4.6520469637199655,0.7435233021849432,0.03318551752793715,0.0038552347457195884,-0.011019571891462803,nan,nan,nan,nan
13.658891677856445,-0.007642993,0.04036091,-4.9405384,0.005598850840379832,nan,nan,nan,nan,nan,3.6582651138305664,4.858265113830567,0.005064249038696289,-0.0056615895000339846,0.0,0.0,-4.650045793846776,0.7422204130971308,0.03892261114060703,0.008857574636599409,-0.0086473234260207,nan,nan,nan,nan
13.769691467285156,0.02317016,0.033523712,-4.9388814,0.0035044711646907683,nan,nan,nan,nan,nan,3.768947124481201,4.968947124481201,0.005227565765380859,0.031741024508885454,0.0,0.0,-4.651442246732158,0.7441899470568636,0.03927290096459791,0.007641165029017514,-0.006502481882000005,nan,nan,nan,nan
13.860538005828857,0.059858575,0.025881676,-4.93071,0.002392016861760971,nan,nan,nan,nan,nan,3.859858512878418,5.059858512878418,0.005191326141357422,0.06221001503479986,0.0,0.0,-4.655573064309178,0.745727841347065,0.032220568361776857,0.024459367642226393,-0.004125443945662849,nan,nan,nan,nan
13.970351457595825,0.09167286,0.0205393,-4.9330926,0.0020739267385053886,nan,nan,nan,nan,nan,3.969600200653076,5.169600200653076,0.005538225173950195,0.09832902320006391,0.0,0.0,-4.664096139949954,0.7476313461345411,0.02085199159984305,0.03317662655181663,-0.0034123301901004314,nan,nan,nan,nan
14.06321668624878,0.112682894,0.018538319,-4.93742,0.002419456746966231,nan,nan,nan,nan,nan,4.062472820281982,5.262472820281983,0.006472110748291016,0.12804824252357772,0.0,0.0,-4.674264451453909,0.7479058020971435,0.010763311540746943,0.03526459348457408,-0.0032237748202570736,nan,nan,nan,nan
14.154670476913452,0.14509861,0.017026326,-4.9477806,0.004496908760437867,nan,nan,nan,nan,nan,4.153919219970703,5.353919219970703,0.0051038265228271484,0.15630456153376904,0.0,0.0,-4.686840481473521,0.7464968001138739,-0.008473355695055211,0.03534731522282206,-0.005532067700276483,nan,nan,nan,nan
14.269228458404541,0.18140888,0.011350942,-4.966084,0.005899864619869615,nan,nan,nan,nan,nan,4.2684855461120605,5.468485546112061,0.005574464797973633,0.18995700250253506,0.0,0.0,-4.706033442037616,0.7438146372755104,-0.013759612133847333,0.04293256033896307,-0.008064393658613285,nan,nan,nan,nan
14.364687204360962,0.20893313,0.0034416313,-4.9840417,0.0049521624061860964,nan,nan,nan,nan,nan,4.363991737365723,5.563991737365723,0.008170127868652344,0.21624866653785046,0.0,0.0,-4.724797321559906,0.7433374888835936,-0.005405695166050795,0.05011600538647936,-0.007847022160434449,nan,nan,nan,nan
14.456893682479858,0.2428673,-0.0049386458,-5.0087757,0.003242256886640123,nan,nan,nan,nan,nan,4.4561543464660645,5.656154346466065,0.005214214324951172,0.23987603268219138,0.0,0.0,-4.745128485419315,0.7401432768681326,0.010520960816624413,0.0568211087109421,-0.005618470730129519,nan,nan,nan,nan
14.569289207458496,0.2756124,-0.010683041,-5.0346775,0.0020773128354267616,nan,nan,nan,nan,nan,4.568540334701538,5.768540334701538,0.006510257720947266,0.2660960138397702,0.0,0.0,-4.772639248289013,0.7376308641283428,0.01631457053370315,0.054131149097769164,-0.0031971035846090293,nan,nan,nan,nan
14.67144775390625,0.29809636,-0.011673332,-5.055569,0.0022514170867115146,nan,nan,nan,nan,nan,4.670704126358032,5.870704126358032,0.005535125732421875,0.28721624492053316,0.0,0.0,-4.799982929094169,0.738698264324574,0.008844830445316466,0.04656559693613292,-0.003008670588293233,nan,nan,nan,nan
14.764558792114258,0.321976,-0.0067191687,-5.0864463,0.0036217300028379223,nan,nan,nan,nan,nan,4.763811826705933,5.963811826705933,0.006425619125366211,0.3040313932882693,0.0,0.0,-4.82660763599514,0.7360053278995646,-0.013950255593946897,0.03306262374754907,-0.004385256083597393,nan,nan,nan,nan
14.857764959335327,0.33569178,-0.0032069916,-5.111906,0.0046726920030568915,nan,nan,nan,nan,nan,4.857065200805664,6.057065200805664,0.00499272346496582,0.3184059066887238,0.0,0.0,-4.854680770075906,0.7359843786444343,-0.026605215566428163,0.028524032700125497,-0.005774867214571448,nan,nan,nan,nan
14.967699766159058,0.348151,0.0031930995,-5.1475735,0.005475560423571646,nan,nan,nan,nan,nan,4.967019557952881,6.167019557952881,0.006002664566040039,0.33202554301326576,0.0,0.0,-4.889279456347316,0.7332409063737174,-0.03527493092248318,0.010908254486896958,-0.00730456766934344,nan,nan,nan,nan
15.057850122451782,0.35203844,0.009537877,-5.1820855,0.005509805124654356,nan,nan,nan,nan,nan,5.057126760482788,6.257126760482788,0.005549430847167969,0.3403985968749045,0.0,0.0,-4.9185825863491335,0.7310097849105934,-0.03601228105955016,-0.00861774345732904,-0.007795915937961827,nan,nan,nan,nan
15.170436382293701,0.34910762,0.016018728,-5.222448,0.004043601945509716,nan,nan,nan,nan,nan,5.169687032699585,6.369687032699585,0.005599260330200195,0.3472268586887249,0.0,0.0,-4.956028320419158,0.7280896292298698,-0.026292899820676646,-0.026200950484501863,-0.006404392800526533,nan,nan,nan,nan
15.265950679779053,0.34395674,0.022384046,-5.248388,0.0027595166943664025,nan,nan,nan,nan,nan,5.265386343002319,6.4653863430023195,0.00756525993347168,0.34980410401868367,0.0,0.0,-4.988291506856733,0.7266296801433513,-0.022400375332913,-0.03301971756241733,-0.004402103084616376,nan,nan,nan,nan
15.364833354949951,0.3346523,0.0336293,-5.2959266,0.001118099498840517,nan,nan,nan,nan,nan,5.364123582839966,6.564123582839966,0.007802248001098633,0.3493278478723498,0.0,0.0,-5.021680744933522,0.7234172704715561,-0.019105309682410417,-0.03488524096077571,-0.002185210262708336,nan,nan,nan,nan
15.456902027130127,0.33253732,0.039888162,-5.329288,0.0009947590817722713,nan,nan,nan,nan,nan,5.4561522006988525,6.656152200698853,0.005346775054931641,0.34602037129349605,0.0,0.0,-5.05262986461992,0.7219878348383698,-0.015132189121572302,-0.02291845218641686,-0.001061732410043498,nan,nan,nan,nan
15.56642770767212,0.3281842,0.044465695,-5.3726735,0.001507289615576701,nan,nan,nan,nan,nan,5.5656726360321045,6.765672636032105,0.0063817501068115234,0.33852172743499387,0.0,0.0,-5.088899044170495,0.7193479524334434,-0.001126459264767067,0.004975214977857023,-0.0019169737226730453,nan,nan,nan,nan
15.663961172103882,0.32075703,0.045550585,-5.405335,0.001552167887269638,nan,nan,nan,nan,nan,5.663231611251831,6.863231611251831,0.0065920352935791016,0.3286463547759175,0.0,0.0,-5.1203809515351235,0.7174405174084408,0.009056950087783618,0.020990675640266094,-0.001916300029824946,nan,nan,nan,nan
15.75827932357788,0.30441585,0.041289356,-5.431493,0.0011177052144731936,nan,nan,nan,nan,nan,5.757607698440552,6.957607698440552,0.007727861404418945,0.3163128186360523,0.0,0.0,-5.149820561894941,0.7156934149552651,0.02725870899271882,0.006276976925367479,-0.001461363732612275,nan,nan,nan,nan
15.868532419204712,0.27798647,0.03193691,-5.4663787,-0.0004139572438600029,nan,nan,nan,nan,nan,5.867781400680542,7.067781400680542,0.0070095062255859375,0.29859515036997103,0.0,0.0,-5.1825950058888095,0.7161397636746105,0.0418336827475346,-0.012219184696924556,0.00011273200251507904,nan,nan,nan,nan
15.968556880950928,0.25592402,0.023098955,-5.484509,-0.0017342112840193946,nan,nan,nan,nan,nan,5.967822313308716,7.167822313308716,0.007852554321289062,0.2795699116989804,0.0,0.0,-5.210572231010227,0.717177562629471,0.04678236094650264,-0.01298022050699988,0.002034405498284238,nan,nan,nan,nan
16.064780712127686,0.21601489,0.00882397,-5.5082355,-0.0041184194131379925,nan,nan,nan,nan,nan,6.064052581787109,7.2640525817871096,0.007704734802246094,0.25880197514380804,0.0,0.0,-5.235630086495048,0.7173530028654561,0.04984835563417077,-0.048553335225167284,0.004720900785361694,nan,nan,nan,nan
16.164494514465332,0.18832737,0.0014717239,-5.523815,-0.006175028443180863,nan,nan,nan,nan,nan,6.163803577423096,7.363803577423096,0.006066799163818359,0.2349146658674328,0.0,0.0,-5.259451536438681,0.7178218133686475,0.04130322799912458,-0.045434638665072226,0.007790514318867255,nan,nan,nan,nan
16.25831365585327,0.14059168,-0.0036343317,-5.5405054,-0.011597391142929804,nan,nan,nan,nan,nan,6.257562160491943,7.4575621604919435,0.005396366119384766,0.21046831452171885,0.0,0.0,-5.279648151401697,0.7173364509489896,0.0149275530535457,-0.06387841154318846,0.013565147415602058,nan,nan,nan,nan
16.36688995361328,0.09193948,-0.00961172,-5.552048,-0.015438009902627796,nan,nan,nan,nan,nan,6.366154193878174,7.566154193878174,0.006937265396118164,0.18000909963051337,0.0,0.0,-5.300161163460918,0.7176860048159963,-0.009130470394409193,-0.07107980050815763,0.020058820662621626,nan,nan,nan,nan
16.458135843276978,0.058690585,-0.0106550865,-5.5574374,-0.017179367949787628,nan,nan,nan,nan,nan,6.457487344741821,7.6574873447418215,0.0053043365478515625,0.15284220644201402,0.0,0.0,-5.314863875238073,0.7175906587772631,-0.016896883362328325,-0.060732836270989306,0.02235497826963787,nan,nan,nan,nan
16.567548513412476,0.0095866965,-0.010211412,-5.564059,-0.01924302288501361,nan,nan,nan,nan,nan,6.566804647445679,7.766804647445679,0.0065310001373291016,0.11877959257355283,0.0,0.0,-5.32922850482311,0.717949811894613,-0.03179736085034264,-0.05990532526918507,0.025999340883209352,nan,nan,nan,nan
16.657628297805786,-0.039529555,-0.013236218,-5.5717716,-0.018976281030177497,nan,nan,nan,nan,nan,6.656876087188721,7.856876087188721,0.00565791130065918,0.0897009250582491,0.0,0.0,-5.33831012997499,0.7171513814232993,-0.026973775930353,-0.057538684051754926,0.026494273265795447,nan,nan,nan,nan
16.76979398727417,-0.09204719,-0.009253277,-5.5724435,-0.019067821106783317,nan,nan,nan,nan,nan,6.769052267074585,7.969052267074585,0.0057544708251953125,0.052561473522539835,0.0,0.0,-5.346030766697326,0.7169684980178117,-0.022332705637046892,-0.04472335121916453,0.026309421184231057,nan,nan,nan,nan
16.86460280418396,-0.12023186,-0.005114305,-5.5741577,-0.019177507823223083,nan,nan,nan,nan,nan,6.863898992538452,8.063898992538451,0.006766080856323242,0.020660003797328397,0.0,0.0,-5.349389702543012,0.7157841200438156,-0.020893539626542515,-0.02855514651912722,0.026201611855406766,nan,nan,nan,nan
16.963683366775513,-0.16111676,0.0012027526,-5.571838,-0.018910915785260374,nan,nan,nan,nan,nan,6.963060617446899,8.163060617446899,0.005529642105102539,-0.012873967414204275,0.0,0.0,-5.349763149807149,0.7155842149008002,-0.0193621246919455,-0.012831542213907265,0.026010923574507707,nan,nan,nan,nan
17.059808015823364,-0.18727086,0.004450118,-5.564831,-0.01809527459004804,nan,nan,nan,nan,nan,7.059111595153809,8.259111595153808,0.005170583724975586,-0.04524636967303222,0.0,0.0,-5.347063057716334,0.7157365377886563,-0.015598502515559073,0.006121313794012116,0.02551672275499408,nan,nan,nan,nan
17.153659105300903,-0.20961706,0.0051451386,-5.555118,-0.015922466258857466,nan,nan,nan,nan,nan,7.15290904045105,8.352909040451049,0.007560014724731445,-0.0764851844265744,0.0,0.0,-5.341540651406583,0.7153061122906785,-0.006996356572788871,0.016880554730949276,0.0234398071223996,nan,nan,nan,nan
17.254688501358032,-0.23078378,0.005664044,-5.543003,-0.012556803931062455,nan,nan,nan,nan,nan,7.253942012786865,8.453942012786865,0.005404233932495117,-0.10942356756427184,0.0,0.0,-5.332455234372249,0.7166896196927306,0.009010000251302443,0.026044144821200634,0.018786964799970145,nan,nan,nan,nan
17.369526624679565,-0.24073873,0.008245182,-5.5335546,-0.011028524121288116,nan,nan,nan,nan,nan,7.368793725967407,8.568793725967407,0.00639653205871582,-0.14558354468967627,0.0,0.0,-5.318285141839183,0.7154921998221042,0.013410482416804021,0.03949470996846195,0.015512258823952952,nan,nan,nan,nan
17.4707510471344,-0.2539748,0.011816186,-5.519139,-0.00979783372717935,nan,nan,nan,nan,nan,7.470010280609131,8.67001028060913,0.005688190460205078,-0.17597875763574353,0.0,0.0,-5.302541694417448,0.714454584903029,0.010037758409305566,0.041163123692671576,0.014072020413724606,nan,nan,nan,nan
17.56649661064148,-0.2640885,0.013756891,-5.507745,-0.009024395619480563,nan,nan,nan,nan,nan,7.565780878067017,8.765780878067016,0.007860183715820312,-0.20319332796756198,0.0,0.0,-5.284978019274236,0.7124115167322046,0.006488828197752237,0.029844199598503585,0.013043433952392144,nan,nan,nan,nan
17.659968614578247,-0.2835948,0.019081742,-5.485256,-0.00818900159751038,nan,nan,nan,nan,nan,7.659257650375366,8.859257650375366,0.005261659622192383,-0.22807961720839628,0.0,0.0,-5.265480108885904,0.7151951150037311,-0.0009658810364891876,-0.0014358509411850986,0.011832837946956021,nan,nan,nan,nan
17.75557041168213,-0.29747465,0.023130646,-5.460162,-0.007614781007379678,nan,nan,nan,nan,nan,7.754822015762329,8.954822015762328,0.0054056644439697266,-0.2515964699183558,0.0,0.0,-5.243308890763617,0.7160936141065767,-0.005848926297000048,-0.0249063910563862,0.010972169212856327,nan,nan,nan,nan
17.85201406478882,-0.3187352,0.026065163,-5.427386,-0.006603920378751306,nan,nan,nan,nan,nan,7.8515143394470215,9.05151433944702,0.0069997310638427734,-0.27320655081406814,0.0,0.0,-5.218765126545069,0.7212177294326035,-0.007637486130935339,-0.04643642009158029,0.009754683372577878,nan,nan,nan,nan
17.966267108917236,-0.33731568,0.026809305,-5.399305,-0.005396009316039579,nan,nan,nan,nan,nan,7.965547323226929,9.165547323226928,0.0074005126953125,-0.2956139533936153,0.0,0.0,-5.187383004989774,0.722761435057196,-0.00018871623748647844,-0.061107630040871566,0.007924208767607724,nan,nan,nan,nan
18.064237594604492,-0.34887317,0.026577324,-5.3787904,-0.004417308316878639,nan,nan,nan,nan,nan,8.063513994216919,9.263513994216918,0.005324363708496094,-0.31200787960040366,0.0,0.0,-5.158590929965304,0.7200597900183316,0.0034609001981176944,-0.06679206802525985,0.006818652589852646,nan,nan,nan,nan
18.15697479248047,-0.35658076,0.020321358,-5.3466735,-0.002845706842995508,nan,nan,nan,nan,nan,8.156242609024048,9.356242609024047,0.005715131759643555,-0.3249516570955169,0.0,0.0,-5.130024692081457,0.7232374012011487,0.015008597557767182,-0.04158113555330609,0.0046288558839461215,nan,nan,nan,nan
18.270939111709595,-0.36671793,0.019191908,-5.3068304,-0.001453348860109555,nan,nan,nan,nan,nan,8.270206928253174,9.470206928253173,0.006132364273071289,-0.33727680957201084,0.0,0.0,-5.093511249189205,0.7253166566730399,0.017165097409062732,-0.02540733433795123,0.0025681222292774915,nan,nan,nan,nan
18.36186909675598,-0.37135115,0.019401083,-5.277532,-0.0009247295112970811,nan,nan,nan,nan,nan,8.361268520355225,9.561268520355224,0.0052089691162109375,-0.3441916219235048,0.0,0.0,-5.063499034619962,0.7256998755980318,0.01308264523348736,-0.027713288091929366,0.0015702056919551458,nan,nan,nan,nan
18.470668077468872,-0.37424985,0.019861773,-5.231849,-0.00016615909137448126,nan,nan,nan,nan,nan,8.469922065734863,9.669922065734863,0.005986928939819336,-0.3489519549943598,0.0,0.0,-5.02706534879905,0.7316998088630414,0.0035365790383519377,-0.013800358358178241,0.0005525399011382831,nan,nan,nan,nan
18.565645217895508,-0.3726385,0.020260187,-5.2052865,0.00047903709474541407,nan,nan,nan,nan,nan,8.564915418624878,9.764915418624877,0.005753040313720703,-0.34996362236652395,0.0,0.0,-4.994953910414886,0.7308641150057607,-0.0024254878817797244,-0.01683017635618968,-0.0003209796164186347,nan,nan,nan,nan
18.661317348480225,-0.3617875,0.027088933,-5.1695952,0.0013596432180261455,nan,nan,nan,nan,nan,8.66060185432434,9.86060185432434,0.00516819953918457,-0.34800160114237116,0.0,0.0,-4.962651832677547,0.7329421114059488,-0.014234666847058697,0.008128790512659315,-0.001687967885978334,nan,nan,nan,nan
18.75901222229004,-0.35582814,0.03236266,-5.142839,0.0024895912948237784,nan,nan,nan,nan,nan,8.758267402648926,9.958267402648925,0.0051877498626708984,-0.34293118929602634,0.0,0.0,-4.930012862553088,0.7327178173644632,-0.021269231655590755,0.0081636064648202,-0.0028515119962150624,nan,nan,nan,nan
18.853976726531982,-0.34641805,0.03565859,-5.1082897,0.003642969733854715,nan,nan,nan,nan,nan,8.85322880744934,10.05322880744934,0.0056934356689453125,-0.3350720436763024,0.0,0.0,-4.898872726000421,0.7340570044769761,-0.02387046086432789,0.009954719027127688,-0.004796131166938535,nan,nan,nan,nan
18.96926975250244,-0.33303756,0.035895895,-5.0748806,0.004136472049652598,nan,nan,nan,nan,nan,8.968559503555298,10.168559503555297,0.0071659088134765625,-0.3217412530871001,0.0,0.0,-4.862222766532556,0.7355514283057317,-0.01050692471720344,-0.0014040472851706482,-0.005493243172646781,nan,nan,nan,nan
19.064209699630737,-0.31067833,0.035009157,-5.0408154,0.00545508824799385,nan,nan,nan,nan,nan,9.063557624816895,10.263557624816894,0.00584721565246582,-0.30775142337918965,0.0,0.0,-4.833299485879369,0.7379226788107952,0.0035285123993219663,0.02076824981584344,-0.0072527675600233925,nan,nan,nan,nan
19.158294439315796,-0.29538178,0.029823378,-5.012605,0.006484371470889023,nan,nan,nan,nan,nan,9.157559633255005,10.357559633255004,0.005244016647338867,-0.2913551387487741,0.0,0.0,-4.806061393413579,0.7392065109349377,0.014823868885673133,0.012741320653492838,-0.008591728465769348,nan,nan,nan,nan
19.254589796066284,-0.27909917,0.023674175,-4.9803042,0.007433983760573686,nan,nan,nan,nan,nan,9.253850936889648,10.453850936889648,0.0062406063079833984,-0.2720682974621122,0.0,0.0,-4.779820887648107,0.7423124415669666,0.027724121166061936,0.01664284386597971,-0.010159046962713738,nan,nan,nan,nan
19.352274894714355,-0.26219863,0.021304727,-4.960683,0.008610551551300843,nan,nan,nan,nan,nan,9.351827621459961,10.55182762145996,0.0075337886810302734,-0.25002733461561827,0.0,0.0,-4.755078927111182,0.742845449124437,0.03041615927799933,-0.003297767808324229,-0.011008377528019196,nan,nan,nan,nan
19.466471195220947,-0.22023337,0.02476564,-4.9393106,0.013350124450736748,nan,nan,nan,nan,nan,9.465728521347046,10.665728521347045,0.005367755889892578,-0.2216016487462776,0.0,0.0,-4.72908911193359,0.7419825303709485,0.010578595770544038,0.013148904503067712,-0.01583730861529527,nan,nan,nan,nan
19.560453414916992,-0.1917372,0.029578196,-4.932224,0.01624930228333192,nan,nan,nan,nan,nan,9.559719562530518,10.759719562530517,0.005332469940185547,-0.19610764675418607,0.0,0.0,-4.710100377915846,0.7398752483696532,-0.014376483539613846,0.03427064482864644,-0.020839397324753216,nan,nan,nan,nan
19.665300130844116,-0.15229468,0.03850634,-4.9181366,0.01989604595385355,nan,nan,nan,nan,nan,9.66456413269043,10.864564132690429,0.005421638488769531,-0.16577107727645474,0.0,0.0,-4.691746938476512,0.7395321113389467,-0.03411194893941655,0.04853495459897626,-0.025571285378328586,nan,nan,nan,nan
19.75995373725891,-0.11758082,0.04539878,-4.907681,0.021954615245840844,nan,nan,nan,nan,nan,9.759209394454956,10.959209394454955,0.005266427993774414,-0.13691558818403782,0.0,0.0,-4.677891133757205,0.7404620514974879,-0.041609449109584966,0.06363914264780196,-0.030070715796606164,nan,nan,nan,nan
19.86986231803894,-0.067954235,0.053024527,-4.898373,0.022125105900604854,nan,nan,nan,nan,nan,9.86915636062622,11.06915636062622,0.007248401641845703,-0.10197388194396562,0.0,0.0,-4.6651846368499825,0.7414617081110473,-0.032333447048524325,0.05138074337331847,-0.0310269488699618,nan,nan,nan,nan
19.963709592819214,-0.04067557,0.055502255,-4.8950343,0.020878515332610453,nan,nan,nan,nan,nan,9.96329641342163,11.16329641342163,0.005307912826538086,-0.07112581792705032,0.0,0.0,-4.657303168931769,0.7413011085036245,-0.01476878987203522,0.03483951699041525,-0.02988567381657694,nan,nan,nan,nan
20.060117483139038,-0.0075079347,0.056389894,-4.8867826,0.018362213918078244,nan,nan,nan,nan,nan,10.059367656707764,11.259367656707763,0.00520777702331543,-0.03903994349886147,0.0,0.0,-4.652184125129968,0.742977475052639,0.007433510941505672,0.017649269914447024,-0.02704097673323047,nan,nan,nan,nan
20.15822172164917,0.024724282,0.056779675,-4.8839293,0.016654506437960487,nan,nan,nan,nan,nan,10.157530307769775,11.357530307769775,0.00588536262512207,-0.00591015905079072,0.0,0.0,-4.650049903529097,0.7448798493938097,0.02049272144900524,0.008720402667746825,-0.024493996019094737,nan,nan,nan,nan
20.25712561607361,0.074140675,0.05476481,-4.886101,0.014811801253606417,nan,nan,nan,nan,nan,10.25641131401062,11.45641131401062,0.005887031555175781,0.02751509155031105,0.0,0.0,-4.651083219467767,0.7444154321110449,0.029850448476357042,0.02428834794326212,-0.021381586074642515,nan,nan,nan,nan
20.358717918395996,0.10716259,0.05279668,-4.8921785,0.014150890597122694,nan,nan,nan,nan,nan,10.357978820800781,11.55797882080078,0.005396604537963867,0.061584091401332204,0.0,0.0,-4.655460597773967,0.7449579002865715,0.03047796200063223,0.03163827140564559,-0.02027964076405702,nan,nan,nan,nan
20.469728708267212,0.15089874,0.050950542,-4.907176,0.01386063432688004,nan,nan,nan,nan,nan,10.469017267227173,11.669017267227172,0.006409406661987305,0.09813972945694249,0.0,0.0,-4.664040785954429,0.7432905939489725,0.022964819349027565,0.04307828159142201,-0.019669339722565887,nan,nan,nan,nan
20.560352325439453,0.17967048,0.053826325,-4.9240265,0.014695845513501326,nan,nan,nan,nan,nan,10.559602737426758,11.759602737426757,0.00553131103515625,0.12714404710007068,0.0,0.0,-4.673910455109313,0.7415948812456926,0.006963398865792594,0.03903496013590442,-0.020176669183498558,nan,nan,nan,nan
20.656213998794556,0.20994726,0.0595608,-4.9517393,0.016203988972370745,nan,nan,nan,nan,nan,10.655463695526123,11.855463695526122,0.0063855648040771484,0.15677192113061206,0.0,0.0,-4.68707418651537,0.7367698692386135,-0.01592884953933725,0.02452088364294389,-0.022019700605598044,nan,nan,nan,nan
20.766761779785156,0.22905523,0.06543756,-4.976238,0.017254402056086703,nan,nan,nan,nan,nan,10.766030550003052,11.966030550003051,0.005538225173950195,0.18925885417752483,0.0,0.0,-4.705583481924994,0.7347205244417915,-0.030509679236773352,0.006986407676488945,-0.0237429867503401,nan,nan,nan,nan
20.8639817237854,0.2506981,0.074953236,-5.0103188,0.018037697362970145,nan,nan,nan,nan,nan,10.863348484039307,12.063348484039306,0.005177974700927734,0.21607750457231995,0.0,0.0,-4.724662912019105,0.7329328300196093,-0.034542413349778006,-0.003783592316699926,-0.024553815065717903,nan,nan,nan,nan
20.957968950271606,0.26409215,0.08163711,-5.0372863,0.018058103532786966,nan,nan,nan,nan,nan,10.957224369049072,12.157224369049072,0.005819797515869141,0.24013952577715808,0.0,0.0,-4.745376732878706,0.7326935792805908,-0.0382926539579212,-0.010261944330487119,-0.025220917843426612,nan,nan,nan,nan
21.06959366798401,0.27062422,0.0804866,-5.0620265,0.01674829518100135,nan,nan,nan,nan,nan,11.068878889083862,12.268878889083862,0.006886482238769531,0.2661704060156033,0.0,0.0,-4.772726343450261,0.732608826930827,-0.018044389716724275,-0.020070719394897723,-0.023872467085015392,nan,nan,nan,nan
21.16329574584961,0.28171378,0.07544764,-5.1020865,0.013813555156476382,nan,nan,nan,nan,nan,11.16268014907837,12.362680149078368,0.005444526672363281,0.2856562228284196,0.0,0.0,-4.797761224392056,0.730605088042779,0.010555786745213302,-0.019072874594202947,-0.020720419846776285,nan,nan,nan,nan
21.257670402526855,0.28538445,0.07165816,-5.1264453,0.011790531656449239,nan,nan,nan,nan,nan,11.256924867630005,12.456924867630004,0.005610227584838867,0.3028703506357428,0.0,0.0,-4.824587484181481,0.7306111604365577,0.028791792151446626,-0.007884410654007707,-0.01771326244042558,nan,nan,nan,nan
21.364864826202393,0.29044434,0.06368347,-5.1608953,0.008900008402801616,nan,nan,nan,nan,nan,11.364235162734985,12.564235162734985,0.005026102066040039,0.3194054296912186,0.0,0.0,-4.856891050301639,0.7308255709934485,0.040536932143994085,0.0024897344324498988,-0.013997991984599598,nan,nan,nan,nan
21.45597243309021,0.29941493,0.05129459,-5.196215,0.006146178690570581,nan,nan,nan,nan,nan,11.455230712890625,12.655230712890624,0.006203174591064453,0.33074228343071654,0.0,0.0,-4.885503091958623,0.728558140495886,0.04710530479390597,0.016019772091480717,-0.009918162216275199,nan,nan,nan,nan
21.570675134658813,0.31057277,0.038528148,-5.228937,0.003846233031599052,nan,nan,nan,nan,nan,11.569937467575073,12.769937467575073,0.007814407348632812,0.34138069538268545,0.0,0.0,-4.922804010337103,0.7289628328846024,0.04422382045831147,0.03746393666608766,-0.006498865141787934,nan,nan,nan,nan
21.666460514068604,0.3204617,0.033429954,-5.252965,0.002293052174823269,nan,nan,nan,nan,nan,11.665837287902832,12.865837287902831,0.0053441524505615234,0.3470608215844108,0.0,0.0,-4.95473648134365,0.7301745570167241,0.033885154664821164,0.05505074438348522,-0.004320866855211831,nan,nan,nan,nan
21.75751757621765,0.32874933,0.02874827,-5.28333,2.939489180443528e-05,nan,nan,nan,nan,nan,11.756821393966675,12.956821393966674,0.0057752132415771484,0.34969517873710354,0.0,0.0,-4.9853958236101725,0.7280804192432151,0.009430906625207628,0.053596110891298766,-0.0011355818910790728,nan,nan,nan,nan
21.87049412727356,0.33112624,0.026992926,-5.3174663,-0.0025953581687823846,nan,nan,nan,nan,nan,11.869777202606201,13.0697772026062,0.00606989860534668,0.34920414577865644,0.0,0.0,-5.023589501287624,0.7274079632330341,-0.016656764454422976,0.042234347741397386,0.0025146276186036203,nan,nan,nan,nan
21.964712381362915,0.32906666,0.027211204,-5.340714,-0.004270093703763565,nan,nan,nan,nan,nan,11.964085102081299,13.164085102081298,0.0052645206451416016,0.34560662073542536,0.0,0.0,-5.055281676022348,0.727597186018391,-0.031440405680540254,0.03573185254935399,0.004950187749846858,nan,nan,nan,nan
22.056082487106323,0.32951155,0.029034132,-5.369618,-0.005707456723230212,nan,nan,nan,nan,nan,12.055332899093628,13.255332899093627,0.006000995635986328,0.33939333618708994,0.0,0.0,-5.085511188459739,0.7245615180083272,-0.04214742706204448,0.016683727641794495,0.0077903418605782485,nan,nan,nan,nan
22.164721965789795,0.32247707,0.030645486,-5.404607,-0.006474434654708681,nan,nan,nan,nan,nan,12.164106845855713,13.364106845855712,0.005357503890991211,0.3285443900456498,0.0,0.0,-5.120658956441417,0.7234572303825049,-0.04004825540725538,0.01219942301733985,0.008827968837471839,nan,nan,nan,nan
22.257121324539185,0.30851272,0.032840375,-5.436145,-0.006331432876298556,nan,nan,nan,nan,nan,12.256368398666382,13.456368398666381,0.006008625030517578,0.3164920708948756,0.0,0.0,-5.149441523883668,0.7209624965413226,-0.027397324726699673,-0.014091952994905727,0.009210326558477797,nan,nan,nan,nan
22.35332226753235,0.29503196,0.03549296,-5.4566083,-0.00603385378955905,nan,nan,nan,nan,nan,12.352860450744629,13.552860450744628,0.006475925445556641,0.30119761375416104,0.0,0.0,-5.178269451866547,0.7216001623043232,-0.019040538252082732,-0.014243476651778473,0.008624990114540675,nan,nan,nan,nan
22.462846279144287,0.2708329,0.043087035,-5.4830313,-0.007246599280539823,nan,nan,nan,nan,nan,12.462101459503174,13.662101459503173,0.0052089691162109375,0.28073010139801746,0.0,0.0,-5.209022989570666,0.720768283788982,-0.017374492417838127,-0.02894536260556883,0.00961532161256808,nan,nan,nan,nan
22.569767713546753,0.24686916,0.04644017,-5.500332,-0.007780579113853113,nan,nan,nan,nan,nan,12.569029331207275,13.769029331207275,0.00650334358215332,0.25766542863340985,0.0,0.0,-5.236872385235513,0.7205911722793752,-0.013680958623389776,-0.03475032051941984,0.010792810740782324,nan,nan,nan,nan
22.662200450897217,0.21122712,0.05126693,-5.5216274,-0.007910148302487466,nan,nan,nan,nan,nan,12.661453485488892,13.861453485488891,0.005286216735839844,0.23550345578559018,0.0,0.0,-5.25891721131096,0.7193250443647459,-0.006562136564628144,-0.05050455859406581,0.011218683903414,nan,nan,nan,nan
22.755561351776123,0.18078719,0.053789068,-5.5385857,-0.007512640297705134,nan,nan,nan,nan,nan,12.754815340042114,13.954815340042114,0.007704019546508789,0.21121009273381078,0.0,0.0,-5.279088331406698,0.7185150780588471,-0.0027786992853002443,-0.047060469168684914,0.011118846236131305,nan,nan,nan,nan
22.853702306747437,0.13259935,0.056980647,-5.5657024,-0.006152136500839527,nan,nan,nan,nan,nan,12.853344917297363,14.053344917297363,0.00738525390625,0.18371180409213494,0.0,0.0,-5.297909336941985,0.7149021101499191,0.006147628728408734,-0.06704514447320783,0.009521647875789829,nan,nan,nan,nan
22.96763777732849,0.089196004,0.062861934,-5.5894237,-0.005881533364248773,nan,nan,nan,nan,nan,12.966927528381348,14.166927528381347,0.005214214324951172,0.14996265667887299,0.0,0.0,-5.316245476808467,0.7113273345162436,0.002857151111432401,-0.06099044742186902,0.008492284195408957,nan,nan,nan,nan
23.062920331954956,0.062137276,0.06788655,-5.5995617,-0.007079316038459184,nan,nan,nan,nan,nan,13.062172174453735,14.262172174453735,0.0055811405181884766,0.12025266611369045,0.0,0.0,-5.328693316470763,0.7098768823359943,-0.0035048023805719984,-0.04422865739268128,0.009134369964812908,nan,nan,nan,nan
23.158267736434937,0.01483152,0.070961185,-5.6113605,-0.00971581945200972,nan,nan,nan,nan,nan,13.157518863677979,14.357518863677978,0.006192684173583984,0.08949070350472853,0.0,0.0,-5.338365799078791,0.7102533348804019,-0.011489216383352003,-0.04340423326848871,0.012496755043557241,nan,nan,nan,nan
23.25686550140381,-0.01448907,0.07003121,-5.615316,-0.011088378813193422,nan,nan,nan,nan,nan,13.256150007247925,14.456150007247924,0.00714421272277832,0.056872931668453044,0.0,0.0,-5.345348330882654,0.7103768766077346,-0.007840718912723272,-0.02909477329254961,0.014866533849752787,nan,nan,nan,nan
23.36599040031433,-0.047204554,0.06566247,-5.612886,-0.011094773980102984,nan,nan,nan,nan,nan,13.365571975708008,14.565571975708007,0.005205631256103516,0.02009495135048362,0.0,0.0,-5.3494226565782785,0.7128015448072678,0.010149875964004377,-0.006738970634879647,0.015979407210576495,nan,nan,nan,nan
23.459453105926514,-0.073873796,0.059631288,-5.6033897,-0.010084179553736066,nan,nan,nan,nan,nan,13.458719253540039,14.658719253540038,0.005764961242675781,-0.011406058796523694,0.0,0.0,-5.349814096089237,0.713557928312621,0.02019541091903434,0.006672820738941279,0.015279950767399358,nan,nan,nan,nan
23.56976866722107,-0.10212687,0.056919903,-5.587681,-0.00931240983166183,nan,nan,nan,nan,nan,13.569111347198486,14.769111347198486,0.005676984786987305,-0.04859898430875102,0.0,0.0,-5.3466094902396035,0.7166557785869262,0.027053287896433343,0.009771799619575885,0.01375874640767308,nan,nan,nan,nan
23.664451599121094,-0.12093221,0.05348208,-5.5738397,-0.008909285257472352,nan,nan,nan,nan,nan,13.663731813430786,14.863731813430785,0.013522863388061523,-0.08005405254529543,0.0,0.0,-5.340721805394188,0.7165838989069342,0.02490885881281136,0.011872118442249334,0.013069422875994462,nan,nan,nan,nan
23.76924729347229,-0.13916288,0.049936064,-5.555781,-0.008881244369845925,nan,nan,nan,nan,nan,13.768603086471558,14.968603086471557,0.005811452865600586,-0.11412398935270847,0.0,0.0,-5.330871145696059,0.7191927874998101,0.015719466709292463,0.0150148537670275,0.012445122179044508,nan,nan,nan,nan
23.862632274627686,-0.1585231,0.049754046,-5.5337777,-0.009517931903166571,nan,nan,nan,nan,nan,13.861871004104614,15.061871004104614,0.005415916442871094,-0.14345039828114217,0.0,0.0,-5.319252225102632,0.7216797985589234,0.001814384764222595,0.01513347821288251,0.013202689120814251,nan,nan,nan,nan
23.95354127883911,-0.17128702,0.05246002,-5.52206,-0.009916509415273037,nan,nan,nan,nan,nan,13.952810764312744,15.152810764312743,0.005799293518066406,-0.17092466818002644,0.0,0.0,-5.305425535618009,0.7191611366399759,-0.011692150473995815,0.009728241152415731,0.013827353861452146,nan,nan,nan,nan
24.06908941268921,-0.19236837,0.052773498,-5.496366,-0.009214724271087563,nan,nan,nan,nan,nan,14.068470239639282,15.268470239639282,0.006255626678466797,-0.20393348503820558,0.0,0.0,-5.284448824360679,0.7192772737851432,-0.02006864870290543,-0.008151982270777947,0.013605351177597983,nan,nan,nan,nan
24.158756256103516,-0.20012192,0.049663324,-5.4829426,-0.007930167333594775,nan,nan,nan,nan,nan,14.158023118972778,15.358023118972778,0.00599360466003418,-0.22776264359768514,0.0,0.0,-5.265752099110043,0.7180566198594739,-0.01201283297389513,-0.015239280853674335,0.01221980908469546,nan,nan,nan,nan
24.268314599990845,-0.21152924,0.04045568,-5.458878,-0.005197073786519576,nan,nan,nan,nan,nan,14.267596960067749,15.467596960067748,0.005290508270263672,-0.2545817885578935,0.0,0.0,-5.240183498464536,0.7159900992006857,0.00657136461896736,-0.018304130924915972,0.009305882566450409,nan,nan,nan,nan
24.36318564414978,-0.22231352,0.028749295,-5.429138,-0.0025512781542195787,nan,nan,nan,nan,nan,14.362435817718506,15.562435817718505,0.005410432815551758,-0.275500825944877,0.0,0.0,-5.215868698295261,0.7196434459180535,0.03418558057942519,-0.01918650133105094,0.004987591480140125,nan,nan,nan,nan
24.45759105682373,-0.23146524,0.021140821,-5.400889,-0.0010240240187829037,nan,nan,nan,nan,nan,14.456841945648193,15.656841945648193,0.00608062744140625,-0.29402667752272355,0.0,0.0,-5.189863932606876,0.7203303083151833,0.04127910259083664,-0.027504258348044586,0.0028316130642534274,nan,nan,nan,nan
24.55781579017639,-0.2582191,0.0148204705,-5.357982,-0.00010098892201853421,nan,nan,nan,nan,nan,14.557085752487183,15.757085752487182,0.0067822933197021484,-0.3110164068152018,0.0,0.0,-5.160526616770431,0.726153113501827,0.03266201255312351,-0.04874944386418702,0.0006417598025030856,nan,nan,nan,nan
24.66695809364319,-0.27784926,0.0067081056,-5.3145404,0.00013791515190514705,nan,nan,nan,nan,nan,14.66624140739441,15.866241407394408,0.005197048187255859,-0.3261931842632458,0.0,0.0,-5.126877919829276,0.7291289709469648,0.015692640574409018,-0.06858357608129997,0.00022279916842318957,nan,nan,nan,nan
24.757627725601196,-0.28711146,0.002127299,-5.2859,0.00015896659304780528,nan,nan,nan,nan,nan,14.756927013397217,15.956927013397216,0.00589299201965332,-0.3360486543634824,0.0,0.0,-5.097833030723232,0.7292507226859675,0.009826761573564274,-0.06811074717847879,0.00012475713012132767,nan,nan,nan,nan
24.865633487701416,-0.29915097,-0.0013180554,-5.2433834,1.4978652828002287e-05,nan,nan,nan,nan,nan,14.864984512329102,16.0649845123291,0.005118131637573242,-0.34441749205736844,0.0,0.0,-5.062262277222348,0.7315556287775568,-0.004947051897920909,-0.05661886694214977,0.000165399695058221,nan,nan,nan,nan
24.95558214187622,-0.30563518,-0.0016152894,-5.204485,-0.00021809845342660693,nan,nan,nan,nan,nan,14.954848289489746,16.154848289489745,0.0058405399322509766,-0.34852055755104194,0.0,0.0,-5.032146865544107,0.7332921257420438,-0.01947843942922054,-0.03374047511991421,0.00021264790889940092,nan,nan,nan,nan
25.063937187194824,-0.30585507,-0.0056883595,-5.166219,-0.00029759853173311635,nan,nan,nan,nan,nan,15.063194274902344,16.263194274902343,0.0053768157958984375,-0.3499715333578698,0.0,0.0,-4.995536163181586,0.7337471049575696,-0.02251911477087571,-0.009735612185480542,0.00037346323650533727,nan,nan,nan,nan
25.161144256591797,-0.30418998,-0.006786951,-5.1442285,-0.0001849722501143054,nan,nan,nan,nan,nan,15.160471677780151,16.36047167778015,0.0056781768798828125,-0.3480062980699687,0.0,0.0,-4.9626956235324045,0.7317898479675363,-0.017429278992384216,-0.011978835406279639,0.00037309754320600966,nan,nan,nan,nan
25.27054715156555,-0.2954344,-0.008736496,-5.1023197,0.0003866911877397376,nan,nan,nan,nan,nan,15.269805431365967,16.469805431365966,0.005662202835083008,-0.34212929847312495,0.0,0.0,-4.926192526623062,0.7333471679556888,-0.01345788066428087,0.002818722757165448,-0.00015541801704707346,nan,nan,nan,nan
25.361132383346558,-0.288538,-0.01042339,-5.08589,0.0007819412487905207,nan,nan,nan,nan,nan,15.360407590866089,16.560407590866088,0.00553131103515625,-0.33436222652910497,0.0,0.0,-4.896550004975836,0.733349864294224,-0.005898601979223174,0.01601443293258546,-0.0009651192955130944,nan,nan,nan,nan
25.456485986709595,-0.27143046,-0.01773873,-5.0465975,0.0006126599049172299,nan,nan,nan,nan,nan,15.455737590789795,16.655737590789794,0.006964683532714844,-0.3234241391047906,0.0,0.0,-4.866220979805035,0.7352357904158838,0.007704742523419968,0.027000278980101274,-0.0011476714772837827,nan,nan,nan,nan
25.565495252609253,-0.25693974,-0.023197355,-5.024099,0.0008119358974663492,nan,nan,nan,nan,nan,15.564749002456665,16.764749002456664,0.005267143249511719,-0.3075592407075403,0.0,0.0,-4.832945178293468,0.7355425363797417,0.017578828265509994,0.022540105125214576,-0.0010571956057120746,nan,nan,nan,nan
25.656378984451294,-0.24120566,-0.027809951,-4.998409,0.0015668422448292746,nan,nan,nan,nan,nan,15.655629396438599,16.855629396438598,0.006167173385620117,-0.29171649204222483,0.0,0.0,-4.806605356148164,0.7355125130986873,0.019406436635616423,0.022602898649626554,-0.0016699428246157964,nan,nan,nan,nan
25.764383792877197,-0.22488287,-0.031848487,-4.975366,0.002694237548575869,nan,nan,nan,nan,nan,15.763648986816406,16.963648986816406,0.005130290985107422,-0.26997075996741965,0.0,0.0,-4.777253981488751,0.7372807806244324,0.01165660797040346,0.014305881088259165,-0.0031959701777246226,nan,nan,nan,nan
25.858901977539062,-0.21065524,-0.03513916,-4.963164,0.003562379879952159,nan,nan,nan,nan,nan,15.858179330825806,17.058179330825805,0.006719350814819336,-0.24851885489474126,0.0,0.0,-4.753548425118024,0.7363873824845857,0.007335025723299634,-0.00046112459115395135,-0.004418290959554312,nan,nan,nan,nan
25.95189666748047,-0.19100796,-0.03698603,-4.9433556,0.004123960842669523,nan,nan,nan,nan,nan,15.951433181762695,17.151433181762695,0.0072383880615234375,-0.22532395525565327,0.0,0.0,-4.732177082407147,0.7367469716064989,-0.00047844890848010215,0.0038352840484681314,-0.005527734851858999,nan,nan,nan,nan
26.054949522018433,-0.17109574,-0.033344846,-4.929459,0.0047059667370099156,nan,nan,nan,nan,nan,16.054240465164185,17.254240465164184,0.005949735641479492,-0.19764029486522755,0.0,0.0,-4.711143091054436,0.7375506153871925,-0.007263619762446709,-0.004220153846726834,-0.0058119712852893815,nan,nan,nan,nan
26.154664754867554,-0.13467519,-0.02421692,-4.9110093,0.006199492232883936,nan,nan,nan,nan,nan,16.15394163131714,17.353941631317138,0.006170749664306641,-0.1689274793741772,0.0,0.0,-4.6934653254323635,0.7392794815571532,-0.02666801409793655,0.02215113010290924,-0.007630183901358437,nan,nan,nan,nan
26.266489267349243,-0.09752633,-0.014869843,-4.8951945,0.007831406276962046,nan,nan,nan,nan,nan,16.26573896408081,17.46573896408081,0.008676290512084961,-0.13487979781212034,0.0,0.0,-4.677033376117343,0.7405201086542336,-0.038629349472001896,0.03598088935765621,-0.009681789078295389,nan,nan,nan,nan
26.353565216064453,-0.074849084,-0.009801543,-4.885314,0.008518266473893442,nan,nan,nan,nan,nan,16.35291862487793,17.55291862487793,0.005411624908447266,-0.10721640300902856,0.0,0.0,-4.666826407220191,0.741861950084106,-0.03660082270787674,0.040793509917958624,-0.011261687242034163,nan,nan,nan,nan
26.4625084400177,-0.048001755,-0.0046100128,-4.866892,0.008660481210078523,nan,nan,nan,nan,nan,16.461760997772217,17.661760997772216,0.005271434783935547,-0.07163437009253452,0.0,0.0,-4.657409111298263,0.7454435873167738,-0.025018654114028083,0.033859529854818084,-0.011887324703513398,nan,nan,nan,nan
26.559388875961304,-0.019303259,0.00018723449,-4.853642,0.008748317039257329,nan,nan,nan,nan,nan,16.558645725250244,17.758645725250243,0.007129669189453125,-0.03928265750211958,0.0,0.0,-4.652211453869494,0.7475068343075605,-0.010759934276386227,0.0314289508694814,-0.011924657405956074,nan,nan,nan,nan
26.65176820755005,-0.0008842682,0.0026907707,-4.848949,0.00881543083673015,nan,nan,nan,nan,nan,16.65107774734497,17.85107774734497,0.005798816680908203,-0.008092783514275307,0.0,0.0,-4.650093574144471,0.7486732031025741,-0.002214237003744117,0.02417147171268368,-0.011970662601484409,nan,nan,nan,nan
26.75002145767212,0.03569224,0.0060514607,-4.8449974,0.009467779677814016,nan,nan,nan,nan,nan,16.74931526184082,17.94931526184082,0.006293058395385742,0.025121118781325585,0.0,0.0,-4.650902693520597,0.7485342928279087,0.0052380972955275865,0.02515749109927413,-0.012963634312300827,nan,nan,nan,nan
26.851292610168457,0.06645668,0.0034282822,-4.8507085,0.008117010055271661,nan,nan,nan,nan,nan,16.85057520866394,18.05057520866394,0.0055353641510009766,0.059116785218526126,0.0,0.0,-4.655028688576243,0.7482785096640684,0.01669144898996433,0.03253248838301954,-0.012245560141982187,nan,nan,nan,nan
26.96593403816223,0.11438592,-0.0032791747,-4.8735285,0.004899050739263902,nan,nan,nan,nan,nan,16.9651939868927,18.1651939868927,0.005152463912963867,0.0968974405969717,0.0,0.0,-4.663680381176245,0.7430531570752906,0.035910397277628923,0.05844005895197057,-0.008625025598937396,nan,nan,nan,nan
27.058014154434204,0.15406168,-0.012038087,-4.8965955,0.0017262797241051442,nan,nan,nan,nan,nan,17.05726981163025,18.25726981163025,0.00780177116394043,0.12640835713077828,0.0,0.0,-4.673624560900337,0.7367870921262321,0.045934938748871335,0.06974178781576812,-0.004151212665856641,nan,nan,nan,nan
27.170203685760498,0.18838193,-0.023854464,-4.91982,-0.0013208966427590311,nan,nan,nan,nan,nan,17.16955327987671,18.36955327987671,0.005857706069946289,0.16101917723636583,0.0,0.0,-4.689238315485767,0.7354143587869799,0.046348104872205864,0.05537792453092089,-0.0001535426052869712,nan,nan,nan,nan
27.26991844177246,0.21172212,-0.032353777,-4.9395413,-0.0033659157983326124,nan,nan,nan,nan,nan,17.26934814453125,18.46934814453125,0.005191802978515625,0.19020205324943457,0.0,0.0,-4.7061919352031,0.736390357488269,0.045647388489516806,0.03964130727107218,0.0029367412819692033,nan,nan,nan,nan
27.362900495529175,0.24519098,-0.039954692,-4.974943,-0.005314086034194441,nan,nan,nan,nan,nan,17.362189054489136,18.562189054489135,0.005330562591552734,0.21576878337603084,0.0,0.0,-4.724420914943773,0.7326806469537934,0.030483622961691253,0.030261448128623834,0.00637448116971067,nan,nan,nan,nan
27.45613932609558,0.2599069,-0.041953232,-4.9981165,-0.005591985690863283,nan,nan,nan,nan,nan,17.455434322357178,18.655434322357177,0.006487369537353516,0.23969858226067595,0.0,0.0,-4.744961591790134,0.7333894193792857,0.016764621633750382,0.02714047784159872,0.007292902129034478,nan,nan,nan,nan
27.566858530044556,0.2858543,-0.046616375,-5.038255,-0.0055045826545169554,nan,nan,nan,nan,nan,17.566117525100708,18.766117525100707,0.005100250244140625,0.2655628070266773,0.0,0.0,-4.772016677092135,0.7294338890624698,-0.008536026206118904,0.018130929871282713,0.007503220243854527,nan,nan,nan,nan
27.662299633026123,0.31045082,-0.05090309,-5.0762043,-0.005107157293329221,nan,nan,nan,nan,nan,17.661587953567505,18.861587953567504,0.0062830448150634766,0.285442547223317,0.0,0.0,-4.797459751568573,0.7268624799989926,-0.01886198843545023,0.015496497795950775,0.00731670676697049,nan,nan,nan,nan
27.758712768554688,0.3224011,-0.052051708,-5.09633,-0.004707998772852757,nan,nan,nan,nan,nan,17.758055686950684,18.958055686950683,0.008547306060791016,0.303061913002003,0.0,0.0,-4.8249186563692,0.7295979441486851,-0.022770459305320855,0.015785833189694058,0.006717867911221754,nan,nan,nan,nan
27.853681802749634,0.34554195,-0.048688084,-5.126885,-0.0035894713415482804,nan,nan,nan,nan,nan,17.85325860977173,19.053258609771728,0.0055162906646728516,0.3178690331044012,0.0,0.0,-4.853510144401487,0.7300547795558888,-0.028658596386262242,0.016100433977669647,0.005518477577498294,nan,nan,nan,nan
27.965908527374268,0.3541023,-0.039615847,-5.155431,-0.002373773072654217,nan,nan,nan,nan,nan,17.96518039703369,19.16518039703369,0.005114316940307617,0.3318281779173409,0.0,0.0,-4.888689352081404,0.7320939802241375,-0.03715934847914716,0.021845807871593445,0.003987663869092161,nan,nan,nan,nan
28.060142278671265,0.35521996,-0.030360177,-5.194971,-0.0007999194488812304,nan,nan,nan,nan,nan,18.059393644332886,19.259393644332885,0.01129293441772461,0.34057618698266584,0.0,0.0,-4.919328686261173,0.7284110165464656,-0.04512261945299955,0.0033647846189082415,0.0019589992438500603,nan,nan,nan,nan
28.160446405410767,0.35073662,-0.025955321,-5.224743,0.0001111552309452442,nan,nan,nan,nan,nan,18.159711599349976,19.359711599349975,0.006471872329711914,0.3467867171956903,0.0,0.0,-4.952682215007079,0.7281564230522523,-0.040927267312253726,-0.007126248514673334,0.0003667984901351367,nan,nan,nan,nan
28.270891189575195,0.34068906,-0.022917315,-5.2670593,0.0009589019947575073,nan,nan,nan,nan,nan,18.270322799682617,19.470322799682616,0.005359172821044922,0.34985599182579113,0.0,0.0,-4.989960827544466,0.7242446822657185,-0.019442160749721587,-0.029055640208968617,-0.001125954451768008,nan,nan,nan,nan
28.368918657302856,0.33218324,-0.020041678,-5.304766,0.0012288573492680135,nan,nan,nan,nan,nan,18.368210315704346,19.568210315704345,0.005115985870361328,0.3492394743836545,0.0,0.0,-5.023060562270437,0.7226732138485741,0.0006983935632107822,-0.027735017531387275,-0.0016604306536027549,nan,nan,nan,nan
28.462348461151123,0.32014552,-0.018061152,-5.3280077,0.0012786556251748508,nan,nan,nan,nan,nan,18.46160054206848,19.66160054206848,0.006014108657836914,0.34573839302231396,0.0,0.0,-5.054451479230118,0.723677423385447,0.010567814585008668,-0.019387543500789996,-0.0017775045545999413,nan,nan,nan,nan
28.569819688796997,0.30608356,-0.017129896,-5.3490615,0.0014133919569483747,nan,nan,nan,nan,nan,18.569116353988647,19.769116353988647,0.005122661590576172,0.3382239208754683,0.0,0.0,-5.090025437225402,0.725008171966782,0.016435555535100142,-0.01435925653062247,-0.0018682137730812107,nan,nan,nan,nan
28.66515064239502,0.29109243,-0.01697044,-5.3665657,0.001703250104193181,nan,nan,nan,nan,nan,18.664408922195435,19.864408922195434,0.00519561767578125,0.3285091435942809,0.0,0.0,-5.120754886339858,0.7267633314514167,0.01887694976479444,-0.004105947970446732,-0.002125028972216236,nan,nan,nan,nan
28.756701231002808,0.2750844,-0.016509837,-5.3834,0.0020160037234588715,nan,nan,nan,nan,nan,18.756001234054565,19.956001234054565,0.0055391788482666016,0.3165450903616572,0.0,0.0,-5.14932918592134,0.7284908852519562,0.01749316158076656,0.0024662790628538086,-0.002518906841836538,nan,nan,nan,nan
28.86813449859619,0.25918558,-0.012257601,-5.4034,0.0018948725579625663,nan,nan,nan,nan,nan,18.867379426956177,20.067379426956176,0.0053863525390625,0.2986660779366697,0.0,0.0,-5.182478968349581,0.7265855384880163,0.004712036099769661,-0.0004587669840621809,-0.002630308257880406,nan,nan,nan,nan
28.96083354949951,0.23467132,-0.011642166,-5.4346895,0.00129141690901349,nan,nan,nan,nan,nan,18.960108995437622,20.16010899543762,0.0066378116607666016,0.2811321594181014,0.0,0.0,-5.208481915141134,0.7236494430337138,-0.003450135407800175,-0.0011618404026062514,-0.002068032907770391,nan,nan,nan,nan
29.070982694625854,0.20870116,-0.012953238,-5.4618936,0.0003858658718401526,nan,nan,nan,nan,nan,19.070457458496094,20.270457458496093,0.005774974822998047,0.25733818313092216,0.0,0.0,-5.237227864094579,0.7196849646773743,-0.0035806728083843686,-0.009611052896802575,-0.0009720787805399588,nan,nan,nan,nan
29.164730310440063,0.17834069,-0.0129464585,-5.4865522,-0.0006976633964993107,nan,nan,nan,nan,nan,19.163991451263428,20.363991451263427,0.005847454071044922,0.23486754375256585,0.0,0.0,-5.259494194331273,0.7173172793907135,-0.0015804985801726515,-0.016461807776974282,0.0003471440886192104,nan,nan,nan,nan
29.264292001724243,0.14908418,-0.011678286,-5.5068474,-0.0015760651123636442,nan,nan,nan,nan,nan,19.263550996780396,20.463550996780395,0.005648612976074219,0.2088458935337224,0.0,0.0,-5.280861874867525,0.7153122359176198,-0.004316984348212872,-0.026509830450029342,0.0016681087219451343,nan,nan,nan,nan
29.368906021118164,0.0951604,-0.007738056,-5.52662,-0.0022389225162186043,nan,nan,nan,nan,nan,19.36816167831421,20.56816167831421,0.009756803512573242,0.17942629155984346,0.0,0.0,-5.300509909815104,0.7136405287650106,-0.009836792380165098,-0.06238789822973426,0.002981371038569503,nan,nan,nan,nan
29.466957569122314,0.05844352,-0.006713759,-5.5338855,-0.0018152439698071441,nan,nan,nan,nan,nan,19.466207265853882,20.66620726585388,0.005469799041748047,0.1501828022344085,0.0,0.0,-5.316140990561206,0.713831939176185,-0.011101773449845753,-0.06983462976556587,0.0030037419469327387,nan,nan,nan,nan
29.561471223831177,0.009814746,-0.007601382,-5.546985,-0.0007468432762514788,nan,nan,nan,nan,nan,19.560721397399902,20.7607213973999,0.006757259368896484,0.12071350221741425,0.0,0.0,-5.328524352799616,0.7146110201057413,-0.0041251287297535705,-0.08240524778648861,0.0016012273487356252,nan,nan,nan,nan
29.658714771270752,-0.02190294,-0.009721271,-5.557017,1.4095358600061964e-05,nan,nan,nan,nan,nan,19.658225536346436,20.858225536346435,0.006461620330810547,0.0892595446886509,0.0,0.0,-5.338426851301688,0.7129741675915628,0.003433922445532401,-0.06399478552351791,0.0005953597073266718,nan,nan,nan,nan
29.75519561767578,-0.05452129,-0.015616723,-5.562698,2.0687376100589176e-05,nan,nan,nan,nan,nan,19.754903554916382,20.95490355491638,0.005351543426513672,0.057288992040686285,0.0,0.0,-5.345279555419897,0.7133703855099307,0.01618959539738065,-0.030309116671597556,7.63918229108824e-06,nan,nan,nan,nan
29.867859840393066,-0.09315686,-0.020614961,-5.5592856,-8.422897693930592e-05,nan,nan,nan,nan,nan,19.86711597442627,21.06711597442627,0.00522923469543457,0.01957341691980848,0.0,0.0,-5.349452259042753,0.7148460477338258,0.020683648180827102,-0.002804821682631107,0.00010769159968726095,nan,nan,nan,nan
