time,x,y,z,yaw,platform,trajectory,traj_double,traj_short,traj_spin,traj_time,ref_time,comptime,x_ref,y_ref,yaw_ref,z_ref,throttle_input,p_input,q_input,r_input,cbf_term_pitch_cbf,cbf_term_roll_cbf,cbf_term_thrust_cbf,cbf_term_yaw_cbf
10.05746579170227,0.03201247,-0.017098663,-2.7797318,-0.00012716312053178856,SIM,FIG8_VERTICAL,NormSpd,Not Short,NoSpin,0.05107402801513672,1.2510740280151367,0.005592823028564453,0.0,0.23154845637075885,0.0,-5.327384361651339,0.7216201273352634,-0.12387717071902259,-0.01793704595290789,-0.00039607777449585536,nan,nan,nan,nan
10.187267065048218,0.037944414,-0.01819634,-2.7778094,-0.0001623991317173196,nan,nan,nan,nan,nan,0.18096280097961426,1.3809628009796142,0.00652003288269043,0.0,0.15906980275681232,0.0,-5.340306775905862,0.72145723650481,-0.130295901840048,-0.012039740850207986,-0.00014547807369315552,nan,nan,nan,nan
10.251556634902954,0.03921189,-0.019004425,-2.7776673,-0.000245919882341134,nan,nan,nan,nan,nan,0.24548959732055664,1.4454895973205566,0.006081581115722656,0.0,0.1190422523843472,0.0,-5.344743939932547,0.7202246397881442,-0.13234157224871548,-0.006732537445285305,5.497394067800621e-05,nan,nan,nan,nan
10.352927207946777,0.0408179,-0.019677911,-2.7767353,-0.00042562599341541927,nan,nan,nan,nan,nan,0.34662318229675293,1.5466231822967529,0.006709098815917969,0.0,0.05283102268045252,0.0,-5.348995988751509,0.7195193443514141,-0.11965071098106078,-0.009806444668164695,0.00023556247064297073,nan,nan,nan,nan
10.4637770652771,0.04473761,-0.014023462,-2.7767665,-0.00043189642143562124,nan,nan,nan,nan,nan,0.45742344856262207,1.657423448562622,0.0053234100341796875,0.0,-0.021924985221817943,0.0,-5.349828108686677,0.7188787816924739,-0.10942896819565366,-0.008615483719034502,0.000246877332465257,nan,nan,nan,nan
10.557419300079346,0.045690257,-0.011552568,-2.7786543,-0.00028953368676466057,nan,nan,nan,nan,nan,0.5511343479156494,1.7511343479156494,0.005934238433837891,0.0,-0.08450553400564889,0.0,-5.347401637662225,0.7183079600667248,-0.09515854539216938,-0.008706630030796398,0.00022446012848236283,nan,nan,nan,nan
10.656594514846802,0.04252415,-0.006816308,-2.78942,-6.94790590039145e-05,nan,nan,nan,nan,nan,0.650221586227417,1.850221586227417,0.0055387020111083984,0.0,-0.1476263477335044,0.0,-5.341738192788996,0.7173615357556122,-0.07447745811307674,-0.012218245399849595,9.345826676491662e-05,nan,nan,nan,nan
10.763691902160645,0.03404294,-0.0064299805,-2.7991087,5.363773037233687e-05,nan,nan,nan,nan,nan,0.7574026584625244,1.9574026584625244,0.005158662796020508,0.0,-0.20975600986731682,0.0,-5.332087329863591,0.7171869436753231,-0.03797034501405157,-0.018140019076493295,5.1335303902611676e-05,nan,nan,nan,nan
10.856646060943604,0.025022252,-0.009690117,-2.804326,0.00013076822347839624,nan,nan,nan,nan,nan,0.8503670692443848,2.050367069244385,0.005536794662475586,0.0,-0.2564631178922656,0.0,-5.320827651539998,0.7177134293037339,0.008392803170291072,-0.023884073441043294,-1.636032854768325e-05,nan,nan,nan,nan
10.948802947998047,0.015564529,-0.015996203,-2.8061922,6.341355856458435e-05,nan,nan,nan,nan,nan,0.9424817562103271,2.1424817562103273,0.005176544189453125,0.0,-0.29459824178449967,0.0,-5.307116876168034,0.7184379120145926,0.052989323163272546,-0.024927247251623343,3.111781086378418e-05,nan,nan,nan,nan
11.060192823410034,0.0037290375,-0.02640138,-2.801321,2.045951088869985e-06,nan,nan,nan,nan,nan,1.0538115501403809,2.253811550140381,0.006043672561645508,0.0,-0.32816134905228367,0.0,-5.287309855103961,0.7192625474707057,0.08970210993485048,-0.024034325749984837,6.338978881583394e-05,nan,nan,nan,nan
11.151132106781006,-0.0053504645,-0.035315156,-2.7944267,5.0135997383459006e-06,nan,nan,nan,nan,nan,1.1447887420654297,2.34478874206543,0.005922079086303711,0.0,-0.3443929682241069,0.0,-5.268644025032247,0.7201515266558344,0.10551066257715545,-0.02136068062670569,5.942235634508962e-05,nan,nan,nan,nan
11.258217096328735,-0.013145884,-0.045732167,-2.7866347,-0.00012786031946489642,nan,nan,nan,nan,nan,1.2518417835235596,2.4518417835235597,0.006174325942993164,0.0,-0.349865472966286,0.0,-5.244032685105521,0.7208731408676361,0.11338636116273584,-0.018630118274498907,9.303668199884884e-05,nan,nan,nan,nan
11.354787826538086,-0.019851804,-0.063543044,-2.7754335,-0.0003842527463977976,nan,nan,nan,nan,nan,1.3484091758728027,2.548409175872803,0.009791851043701172,0.0,-0.34198503800646307,0.0,-5.219584193171725,0.7218789818937238,0.1029403930830068,-0.011134869518281965,0.00024394149681998979,nan,nan,nan,nan
11.452914714813232,-0.022665614,-0.073634654,-2.772071,-0.0005667251214831401,nan,nan,nan,nan,nan,1.4465489387512207,2.646548938751221,0.0057947635650634766,0.0,-0.32180270111262155,0.0,-5.192779955611086,0.7224429945693243,0.09160313752575922,-0.004668922520430088,0.00029497530050701093,nan,nan,nan,nan
11.566230773925781,-0.024176298,-0.08239926,-2.7676904,-0.0008595751380530599,nan,nan,nan,nan,nan,1.5601224899291992,2.7601224899291994,0.006219625473022461,0.0,-0.2840985495370237,0.0,-5.159612955313522,0.7230470842455802,0.05451370833189986,0.005028716968074351,0.0004218259462117899,nan,nan,nan,nan
11.666570901870728,-0.01990114,-0.084684625,-2.759565,-0.0011023089367460034,nan,nan,nan,nan,nan,1.660261631011963,2.860261631011963,0.005494356155395508,0.0,-0.23946240506433794,0.0,-5.128761288846211,0.7235656258214532,0.01447504699619865,0.014384038036645027,0.0005969561532759717,nan,nan,nan,nan
11.759425401687622,-0.0130695375,-0.08261784,-2.7495325,-0.001269352303027306,nan,nan,nan,nan,nan,1.7530622482299805,2.9530622482299806,0.005040407180786133,0.0,-0.19006779968845477,0.0,-5.09908777301549,0.7242726964854843,-0.021010501415353225,0.024131424357856694,0.0006455410728169753,nan,nan,nan,nan
11.85187029838562,-0.005526186,-0.074021965,-2.7371655,-0.0011606081902056052,nan,nan,nan,nan,nan,1.8454992771148682,3.0454992771148683,0.0057392120361328125,0.0,-0.13479875115361042,0.0,-5.068738050802129,0.7249250697880265,-0.053036767497659926,0.028337886144427112,0.0006207489204274251,nan,nan,nan,nan
11.961591482162476,0.0021804925,-0.066573545,-2.7284315,-0.0010330259359824685,nan,nan,nan,nan,nan,1.9552035331726074,3.1552035331726076,0.005503177642822266,0.0,-0.06378562756314238,0.0,-5.032027183735099,0.7253816905472086,-0.07656328734199709,0.029988737334114893,0.00044454926367450397,nan,nan,nan,nan
12.053636074066162,0.016452724,-0.051740747,-2.7193637,-0.0009905811633082063,nan,nan,nan,nan,nan,2.0474112033843994,3.2474112033843996,0.006512641906738281,0.0,-0.0017517037947625553,0.0,-5.000875854639781,0.725932447126995,-0.09562852096980974,0.02979969370672462,0.0004683297938308688,nan,nan,nan,nan
12.151198148727417,0.027766773,-0.040945854,-2.7111394,-0.000940535271201838,nan,nan,nan,nan,nan,2.144810676574707,3.344810676574707,0.004782199859619141,0.0,0.063795081553975,0.0,-4.967968028919935,0.72617953067593,-0.10836577982354266,0.03048036070187275,0.0003668007202774072,nan,nan,nan,nan
12.261523962020874,0.04802829,-0.0219579,-2.6932764,-0.0011063382187928529,nan,nan,nan,nan,nan,2.2551326751708984,3.4551326751708986,0.005575418472290039,0.0,0.13519327485244934,0.0,-4.931052320417049,0.727047213474715,-0.11421516804055214,0.03357374147572706,0.00035790283021313023,nan,nan,nan,nan
12.354909420013428,0.06734509,-0.0040819757,-2.6759148,-0.0018063556774456262,nan,nan,nan,nan,nan,2.3485350608825684,3.5485350608825685,0.006174325942993164,0.0,0.1909744566505165,0.0,-4.900394044349355,0.7278178412813021,-0.10145166730955975,0.03354351252438777,0.0007601136731661191,nan,nan,nan,nan
12.463579893112183,0.07278237,0.019494835,-2.655579,-0.0021779682615526473,nan,nan,nan,nan,nan,2.4571917057037354,3.6571917057037355,0.0052263736724853516,0.0,0.24793753558875875,0.0,-4.865766503485974,0.7285095936869225,-0.09312393286238628,0.021447219965337605,0.0012002639889999373,nan,nan,nan,nan
12.566455364227295,0.07642496,0.034234077,-2.641537,-0.002038927406276975,nan,nan,nan,nan,nan,2.5601296424865723,3.7601296424865724,0.005433320999145508,0.0,0.2918825178231301,0.0,-4.834320176083042,0.7289600378836137,-0.0946547449963002,0.011530164184566686,0.0010279954796744574,nan,nan,nan,nan
12.659132957458496,0.07925011,0.053651158,-2.6239748,-0.0016788431636266012,nan,nan,nan,nan,nan,2.6527886390686035,3.8527886390686037,0.0050945281982421875,0.0,0.3216261763644492,0.0,-4.807407137999216,0.7296471372501958,-0.0661733855667066,-0.004955694851400761,0.0008826095085372581,nan,nan,nan,nan
12.753154754638672,0.07978931,0.06285014,-2.6149673,-0.0014806638458735033,nan,nan,nan,nan,nan,2.746857166290283,3.9468571662902834,0.006089448928833008,0.0,0.3412891851972388,0.0,-4.781665218988202,0.7299867001259182,-0.05926638780577014,-0.011834629057549102,0.0005477910836919014,nan,nan,nan,nan
12.865500926971436,0.08304017,0.06980135,-2.595799,-0.0014627545822693579,nan,nan,nan,nan,nan,2.859158754348755,4.059158754348755,0.006349802017211914,0.0,0.3499926979237045,0.0,-4.753313249443527,0.7306206236248208,-0.02458775471266432,-0.016936570575574388,0.0005456490209940455,nan,nan,nan,nan
12.96525263786316,0.08252583,0.07342276,-2.5836055,-0.001378145385617778,nan,nan,nan,nan,nan,2.958852529525757,4.158852529525757,0.0053253173828125,0.0,0.34394518140556607,0.0,-4.7305679905717835,0.7311025124827475,-0.011825324255384455,-0.0186780696736415,0.0005278264703635326,nan,nan,nan,nan
13.054665803909302,0.08229341,0.073239155,-2.570013,-0.0015534960605023997,nan,nan,nan,nan,nan,3.0484471321105957,4.248447132110596,0.006802082061767578,0.0,0.32762681042410574,0.0,-4.712254418122055,0.7315867965243633,0.0156157039416015,-0.01966885338753253,0.0006782569677967117,nan,nan,nan,nan
13.15127968788147,0.08172377,0.069842726,-2.5626216,-0.0018050502378449164,nan,nan,nan,nan,nan,3.1450259685516357,4.345025968551636,0.005319833755493164,0.0,0.2990758727004138,0.0,-4.69493255400021,0.7319181911324095,0.027329032898949338,-0.018285514450613608,0.0008627477197847072,nan,nan,nan,nan
13.259550094604492,0.07927038,0.06063071,-2.553091,-0.0021844193898993454,nan,nan,nan,nan,nan,3.2531700134277344,4.4531700134277346,0.0062181949615478516,0.0,0.25482845589051567,0.0,-4.678695921895611,0.7322274707378466,0.048065267320190584,-0.01682255942093541,0.001232079279492174,nan,nan,nan,nan
13.35408878326416,0.07284271,0.044436336,-2.5317852,-0.0019940132691744807,nan,nan,nan,nan,nan,3.3477823734283447,4.547782373428345,0.006117343902587891,0.0,0.20693692130040073,0.0,-4.66736283298863,0.7327944028308016,0.06618263314505217,-0.017128952624438632,0.0013552986386213763,nan,nan,nan,nan
13.452200889587402,0.06665557,0.030137,-2.518697,-0.00127420734862356,nan,nan,nan,nan,nan,3.4458444118499756,4.645844411849976,0.005202293395996094,0.0,0.15003562393351969,0.0,-4.658551758698956,0.7332804790975994,0.07598290146959458,-0.01758810411758531,0.00104426131686094,nan,nan,nan,nan
13.563897132873535,0.05869177,0.004222538,-2.5044205,-0.00031265557235745853,nan,nan,nan,nan,nan,3.5575153827667236,4.757515382766724,0.005483150482177734,0.0,0.07881429537566967,0.0,-4.652254583216439,0.7337571224614138,0.09040275326442684,-0.01638094005165226,0.0004120305391174971,nan,nan,nan,nan
13.663386821746826,0.051156655,-0.023801863,-2.4950764,0.00016529915398812503,nan,nan,nan,nan,nan,3.6569972038269043,4.8569972038269045,0.005208492279052734,0.0,0.012179145855261283,0.0,-4.650052995627747,0.7338988780417984,0.09474396404548804,-0.011913903643253588,9.762030930052838e-05,nan,nan,nan,nan
13.756750345230103,0.04555559,-0.042879377,-2.4906151,0.00031330796659859075,nan,nan,nan,nan,nan,3.750401496887207,4.950401496887207,0.006863832473754883,0.0,-0.05083997441800755,0.0,-4.65092926319341,0.734070277067624,0.10004036885422866,-0.011040933193264137,-7.724057782700197e-05,nan,nan,nan,nan
13.864845275878906,0.03833545,-0.07683163,-2.4853988,0.00015698944645202266,nan,nan,nan,nan,nan,3.8584718704223633,5.0584718704223635,0.005034208297729492,0.0,-0.1215594581433213,0.0,-4.655489988091764,0.7341276684834631,0.10227587490815021,-0.009168400818933204,-1.698808778692415e-05,nan,nan,nan,nan
13.958534717559814,0.03313656,-0.10904161,-2.4821072,9.917530780684941e-05,nan,nan,nan,nan,nan,3.952176809310913,5.152176809310913,0.007904529571533203,0.0,-0.1787040030947214,0.0,-4.662487779860741,0.7340699639164788,0.09558548043728318,-0.005133446814641359,7.065680216617093e-05,nan,nan,nan,nan
14.051895380020142,0.028567772,-0.13295391,-2.4782178,0.00018869196740485018,nan,nan,nan,nan,nan,4.045654296875,5.245654296875,0.005261898040771484,0.0,-0.22988375197308572,0.0,-4.672225842068105,0.7340188175878882,0.08376733494532453,-0.0010028737262939914,3.310816603402142e-05,nan,nan,nan,nan
14.165354490280151,0.02648859,-0.15027905,-2.4721234,0.00042891959300177945,nan,nan,nan,nan,nan,4.1589672565460205,5.358967256546021,0.0050008296966552734,0.0,-0.2817442933801944,0.0,-4.687606918899749,0.7340745618239555,0.0685462582591227,0.0024455086896130393,-0.0001430487411411392,nan,nan,nan,nan
14.264662504196167,0.026551247,-0.15937495,-2.4675906,0.0006103286736344748,nan,nan,nan,nan,nan,4.258281469345093,5.458281469345093,0.005041360855102539,0.0,-0.31619260607086636,0.0,-4.70417409221162,0.7342902594942546,0.05384521092268891,0.006872644188500096,-0.00034208152675355255,nan,nan,nan,nan
14.352339029312134,0.025829287,-0.16412601,-2.4618053,0.0008715055801585617,nan,nan,nan,nan,nan,4.346017360687256,5.546017360687256,0.004911899566650391,0.0,-0.3369884819821061,0.0,-4.721081767285966,0.7343934767734706,0.032530034615180635,0.009123884721522008,-0.0005166244300369269,nan,nan,nan,nan
14.461601734161377,0.026919132,-0.15715478,-2.4540968,0.0011165088777077628,nan,nan,nan,nan,nan,4.4552130699157715,5.655213069915772,0.005814075469970703,0.0,-0.34931837806868543,0.0,-4.744910332731208,0.7345530267681328,0.006359172518061199,0.010315623245034303,-0.0007277414997687177,nan,nan,nan,nan
14.552876472473145,0.02846069,-0.14682241,-2.4512882,0.0011998931658990554,nan,nan,nan,nan,nan,4.546561002731323,5.746561002731323,0.0053424835205078125,0.0,-0.34772091353920004,0.0,-4.767037461379425,0.7346283838795619,-0.020119308329525774,0.011505616118785783,-0.000839099764706935,nan,nan,nan,nan
14.664074659347534,0.031346537,-0.1321371,-2.4521902,0.0010678817610081624,nan,nan,nan,nan,nan,4.657689094543457,5.857689094543457,0.005304098129272461,0.0,-0.33122529929781935,0.0,-4.7963854143142,0.7345486638143884,-0.03965172844543223,0.012662267117900968,-0.0008438422457996905,nan,nan,nan,nan
14.753183841705322,0.03550498,-0.1174508,-2.4569185,0.001105975791195559,nan,nan,nan,nan,nan,4.746822118759155,5.9468221187591555,0.0052051544189453125,0.0,-0.30692804959581915,0.0,-4.821638136373405,0.7341246680678263,-0.05467166303955477,0.013257427837482284,-0.0007847722894845009,nan,nan,nan,nan
14.85838007926941,0.03496117,-0.09777552,-2.4676354,0.0011544520761201625,nan,nan,nan,nan,nan,4.852019786834717,6.052019786834717,0.00591731071472168,0.0,-0.26662716542449655,0.0,-4.853129601159773,0.7336348768138673,-0.059414831435169256,0.008489690151488663,-0.0008488329501248255,nan,nan,nan,nan
14.96544885635376,0.032698054,-0.07594033,-2.4757705,0.0008618376772374925,nan,nan,nan,nan,nan,4.9590582847595215,6.159058284759522,0.005085468292236328,0.0,-0.2143526034782623,0.0,-4.886727585889329,0.7331267057959683,-0.06532327039391486,0.002460330060723704,-0.000671257646194217,nan,nan,nan,nan
15.062269449234009,0.030989584,-0.05600432,-2.482732,0.00038097325459055496,nan,nan,nan,nan,nan,5.055880069732666,6.255880069732666,0.0067713260650634766,0.0,-0.15911966528941265,0.0,-4.918172429177195,0.7327968856589191,-0.07101634858829466,-0.0016537084730671918,-0.0005086139987337476,nan,nan,nan,nan
15.156914710998535,0.025690217,-0.02486191,-2.4939437,-0.0001907234058541058,nan,nan,nan,nan,nan,5.150646209716797,6.350646209716797,0.006685972213745117,0.0,-0.099661908529708,0.0,-4.949645177432955,0.7322350999261787,-0.07732713868980855,-0.005676577850925747,-7.455292539458739e-05,nan,nan,nan,nan
15.265162706375122,0.017665701,0.00015020142,-2.5044546,-0.0003829385438213653,nan,nan,nan,nan,nan,5.258771896362305,6.458771896362305,0.0059244632720947266,0.0,-0.027867497253336305,0.0,-4.986055178885496,0.731723921011531,-0.079736314637857,-0.013672824917083116,0.00017383383160641204,nan,nan,nan,nan
15.353626489639282,0.011161597,0.019079486,-2.5125506,-0.00015781914996247155,nan,nan,nan,nan,nan,5.347280740737915,6.547280740737915,0.005125284194946289,0.0,0.03194801495357339,0.0,-5.015990705443722,0.7314053817441171,-0.08392396703550994,-0.017314876831807574,2.477494074116808e-05,nan,nan,nan,nan
15.46574878692627,0.0009206073,0.04613607,-2.5240698,0.00019618710493635866,nan,nan,nan,nan,nan,5.459360837936401,6.6593608379364015,0.005233287811279297,0.0,0.10613381402382845,0.0,-5.053702829852801,0.7309364039905628,-0.07898280654159918,-0.019428423846175363,-0.00018364079266612577,nan,nan,nan,nan
15.557475805282593,-0.004500818,0.059467543,-2.529539,0.00018419548626299152,nan,nan,nan,nan,nan,5.551087856292725,6.751087856292725,0.0069119930267333984,0.0,0.1633045330850586,0.0,-5.084117790652538,0.7306056438670422,-0.0739536085102659,-0.018348593122050547,-0.0002655965094642726,nan,nan,nan,nan
15.649558544158936,-0.012131986,0.07942478,-2.5389845,-0.0002631934595251021,nan,nan,nan,nan,nan,5.643173933029175,6.843173933029175,0.005239725112915039,0.0,0.21554463054205547,0.0,-5.1139867214290105,0.7302450342084842,-0.05885360112943406,-0.014172687146754445,9.30585341637753e-06,nan,nan,nan,nan
15.758798599243164,-0.01770086,0.100538515,-2.5536063,-0.0007581313887375513,nan,nan,nan,nan,nan,5.752439975738525,6.952439975738526,0.0060749053955078125,0.0,0.2685721637751542,0.0,-5.148238606719645,0.7296398499907544,-0.05104095684038316,-0.00895133564941305,0.00037374634484384727,nan,nan,nan,nan
15.865331649780273,-0.0131950965,0.11562154,-2.5696867,-0.0011773624713269544,nan,nan,nan,nan,nan,5.8589417934417725,7.058941793441773,0.0051457881927490234,0.0,0.3087833883827368,0.0,-5.180036949476253,0.72903440513396,-0.044532737310489574,0.002162128271267642,0.0006228702943434442,nan,nan,nan,nan
15.960059642791748,-0.011624206,0.12053712,-2.5835624,-0.0014634914550800925,nan,nan,nan,nan,nan,5.953744173049927,7.153744173049927,0.007910728454589844,0.0,0.3336439470023096,0.0,-5.206748309880844,0.7284425621351966,-0.04217016570234586,0.009140842221225185,0.0010035943073590013,nan,nan,nan,nan
16.052544832229614,-0.009225713,0.12721601,-2.6075447,-0.001911517611357428,nan,nan,nan,nan,nan,6.046278476715088,7.246278476715088,0.005048513412475586,0.0,0.34713558377735765,0.0,-5.231148991447597,0.7275347902004751,-0.023030435680660658,0.01463128406981635,0.0012442220682500132,nan,nan,nan,nan
16.16616439819336,-0.009544646,0.1289734,-2.634935,-0.002126432839601941,nan,nan,nan,nan,nan,6.159777641296387,7.359777641296387,0.005277156829833984,0.0,0.34853903336933884,0.0,-5.258535369209102,0.7267107082260894,-0.010355304691909699,0.015600017046285134,0.0014061206061895676,nan,nan,nan,nan
16.261499881744385,-0.011702008,0.1241266,-2.6540866,-0.002114708224430925,nan,nan,nan,nan,nan,6.255112648010254,7.455112648010254,0.007235527038574219,0.0,0.3367811318853178,0.0,-5.279149019745786,0.7258692572052637,0.000889925816042189,0.010662815514438009,0.0015113977227611335,nan,nan,nan,nan
16.357787370681763,-0.018113706,0.114619575,-2.6878374,-0.0017222463575690301,nan,nan,nan,nan,nan,6.351506471633911,7.551506471633911,0.006402492523193359,0.0,0.31329632845787286,0.0,-5.297582388351707,0.7248123905285876,0.0274858418025647,0.002444310763357993,0.001243075575707105,nan,nan,nan,nan
16.450336694717407,-0.019122215,0.10583292,-2.704342,-0.0013897629554296999,nan,nan,nan,nan,nan,6.443965673446655,7.6439656734466555,0.0049021244049072266,0.0,0.28056233167821176,0.0,-5.312839290962685,0.7242064882016959,0.03295463747504221,-0.0006487096837159031,0.0010557313606754512,nan,nan,nan,nan
16.56498432159424,-0.019581512,0.080886625,-2.7279932,-0.0010206760009905426,nan,nan,nan,nan,nan,6.558598756790161,7.758598756790161,0.005129337310791016,0.0,0.22770596064147217,0.0,-5.328275976923071,0.7235143095115562,0.05677867631525948,-0.0007430498358805676,0.000793870702174828,nan,nan,nan,nan
16.65464448928833,-0.019661427,0.06181798,-2.7388775,-0.0008132635129244684,nan,nan,nan,nan,nan,6.64831805229187,7.84831805229187,0.005369663238525391,0.0,0.17841600908703595,0.0,-5.337556504925268,0.7232336248890043,0.08097287203800048,-0.0003580940796000143,0.0006358381381936812,nan,nan,nan,nan
16.75136971473694,-0.010446668,0.023059562,-2.740083,-0.0006917978885420169,nan,nan,nan,nan,nan,6.744981288909912,7.944981288909912,0.0051670074462890625,0.0,0.11936563658424484,0.0,-5.344714206530328,0.7234525175807246,0.10549700104067038,0.006292369313646987,0.0006321279589969033,nan,nan,nan,nan
16.854912757873535,-0.003837349,-0.00021581011,-2.73861,-0.0008627748636814599,nan,nan,nan,nan,nan,6.848603248596191,8.04860324859619,0.0056591033935546875,0.0,0.051506177050721344,0.0,-5.3490460546965615,0.7236160412712651,0.11877909737006936,0.011126313169839808,0.000624725243278589,nan,nan,nan,nan
16.964683532714844,0.001876513,-0.030843517,-2.7366192,-0.0013106071293335696,nan,nan,nan,nan,nan,6.958293676376343,8.158293676376342,0.0057373046875,0.0,-0.02251263772067915,0.0,-5.349818758731082,0.7240257736216732,0.12147810944997,0.013825785884668144,0.0009066156458111736,nan,nan,nan,nan
17.058162212371826,0.004985255,-0.059360027,-2.735739,-0.0016987078106299569,nan,nan,nan,nan,nan,7.051852464675903,8.251852464675903,0.006149768829345703,0.0,-0.08497699070262242,0.0,-5.347372004275826,0.7242835814406068,0.11317214000307418,0.010336112407655957,0.001123116552712605,nan,nan,nan,nan
17.148398876190186,0.0068159206,-0.09036224,-2.7383323,-0.0021346576615342925,nan,nan,nan,nan,nan,7.142009735107422,8.342009735107421,0.00591731071472168,0.0,-0.14256986191650065,0.0,-5.342327509381157,0.7244085962571354,0.10096658055748223,0.004907949012044073,0.0013817886294654172,nan,nan,nan,nan
17.25584077835083,0.007879601,-0.11780168,-2.7483184,-0.002415727106365246,nan,nan,nan,nan,nan,7.24946141242981,8.449461412429809,0.005133152008056641,0.0,-0.20542989218274535,0.0,-5.3329260439966735,0.7241285857499058,0.09129274444258959,0.0008535745006243125,0.0016135166674595208,nan,nan,nan,nan
17.36476445198059,0.010546383,-0.14330621,-2.7555263,-0.0027920239623852247,nan,nan,nan,nan,nan,7.3583824634552,8.5583824634552,0.005337238311767578,0.0,-0.26012293227655603,0.0,-5.319734149051563,0.7239227583810371,0.07335881749350211,-0.0011740020157906374,0.001885895844396244,nan,nan,nan,nan
17.462857961654663,0.014430777,-0.16418406,-2.761797,-0.003000777244845959,nan,nan,nan,nan,nan,7.456531524658203,8.656531524658202,0.00826120376586914,0.0,-0.2996219506163612,0.0,-5.304808805216085,0.7237462518172191,0.07357846888768134,-0.0005077553609014987,0.0020539877138281222,nan,nan,nan,nan
17.560325860977173,0.020456854,-0.18024383,-2.7698138,-0.002860595266817055,nan,nan,nan,nan,nan,7.553951263427734,8.753951263427734,0.007982969284057617,0.0,-0.3281942081357262,0.0,-5.287282857742126,0.7236612992216642,0.0595463115720646,0.002299039478973826,0.0020091645449195044,nan,nan,nan,nan
17.65175986289978,0.031397343,-0.18508494,-2.7825105,-0.0024099316992800754,nan,nan,nan,nan,nan,7.645386457443237,8.845386457443237,0.004988193511962891,0.0,-0.34446484239612213,0.0,-5.268514358986642,0.7233712969370496,0.015526586702111404,0.009180004684538863,0.001721339329643906,nan,nan,nan,nan
17.765387058258057,0.041053437,-0.18202628,-2.7854607,-0.002101970490642452,nan,nan,nan,nan,nan,7.758997917175293,8.958997917175292,0.005951404571533203,0.0,-0.3496977534741567,0.0,-5.242291314534543,0.7232708349133794,-0.002535883933225811,0.014065178302958723,0.0013165852588916272,nan,nan,nan,nan
17.862422943115234,0.048625477,-0.16823247,-2.7898576,-0.0016725318407936896,nan,nan,nan,nan,nan,7.856040000915527,9.056040000915527,0.007464170455932617,0.0,-0.3408491943999246,0.0,-5.2175678394707665,0.7234143518214609,-0.041466099200259114,0.014877130333202804,0.0010810382862833903,nan,nan,nan,nan
17.95853543281555,0.053096484,-0.15228656,-2.7860014,-0.0014687449844916801,nan,nan,nan,nan,nan,7.952244997024536,9.152244997024535,0.006762027740478516,0.0,-0.3202675817001076,0.0,-5.191168594378283,0.7235126742629077,-0.05792675037844896,0.0126783649681407,0.000812478873040594,nan,nan,nan,nan
18.054357528686523,0.057203624,-0.1304234,-2.7788298,-0.0014075710560362276,nan,nan,nan,nan,nan,8.048061609268188,9.248061609268188,0.0049664974212646484,0.0,-0.28878741013207787,0.0,-5.16323351238418,0.7242356509987775,-0.08883684841007108,0.00781479735905931,0.00076769063969323,nan,nan,nan,nan
18.146239519119263,0.056997437,-0.09939107,-2.7754698,-0.0015045361390650866,nan,nan,nan,nan,nan,8.139859437942505,9.339859437942504,0.0053997039794921875,0.0,-0.24934185032299963,0.0,-5.135154331564435,0.7245361431336366,-0.10139554214685266,0.0007553366445947182,0.0008349847203084855,nan,nan,nan,nan
18.263176679611206,0.047288917,-0.059258558,-2.7651885,-0.001563642781191461,nan,nan,nan,nan,nan,8.256793022155762,9.456793022155761,0.005919694900512695,0.0,-0.18794311006402858,0.0,-5.097876555534241,0.7250849408825297,-0.11312122774882874,-0.012883511977070902,0.0009863659743140551,nan,nan,nan,nan
18.35960030555725,0.036311198,-0.0221259,-2.7610223,-0.001412348455357577,nan,nan,nan,nan,nan,8.353246688842773,9.553246688842773,0.0068438053131103516,0.0,-0.1299459186821643,0.0,-5.066166048247727,0.7253616285432828,-0.12072037128324299,-0.021906525019176278,0.0007253808000281228,nan,nan,nan,nan
18.454647064208984,0.026928091,0.010383165,-2.7537508,-0.0012594180125407861,nan,nan,nan,nan,nan,8.448294401168823,9.648294401168823,0.0049932003021240234,0.0,-0.06837657749787167,0.0,-5.0343541796244775,0.7256097212580339,-0.12766420276375032,-0.030261603976028284,0.0006040564113670404,nan,nan,nan,nan
18.56381845474243,0.010843517,0.06472511,-2.7358346,-0.0010225378773441882,nan,nan,nan,nan,nan,8.557475805282593,9.757475805282592,0.0060214996337890625,0.0,0.005058332960691779,0.0,-4.997470767479838,0.7265013168137857,-0.11676924169418851,-0.032857192102249244,0.0005858681044370451,nan,nan,nan,nan
18.655874013900757,0.0027025905,0.09079268,-2.727056,-0.000724310973391349,nan,nan,nan,nan,nan,8.649574518203735,9.849574518203735,0.0062634944915771484,0.0,0.06696178937810139,0.0,-4.966363409798833,0.7268937374383913,-0.12010474253060632,-0.0342756078134439,0.00032518335274271497,nan,nan,nan,nan
18.751028060913086,-0.0016596434,0.13325839,-2.7132885,-0.0003107705720499683,nan,nan,nan,nan,nan,8.744641542434692,9.944641542434692,0.0052907466888427734,0.0,0.12861804470093985,0.0,-4.934535670996743,0.7275739172380553,-0.10215654336885652,-0.025763018667126793,2.2469624032109696e-05,nan,nan,nan,nan
18.857313871383667,-0.0010501397,0.16800721,-2.6984978,5.9403004720324365e-05,nan,nan,nan,nan,nan,8.850942611694336,10.050942611694335,0.005284786224365234,0.0,0.19233757524745893,0.0,-4.899613460503915,0.7282071760908695,-0.08253826461873974,-0.010089378898189939,-0.00012845656506259303,nan,nan,nan,nan
18.950135707855225,-0.0024203318,0.1945665,-2.6869369,0.0005433551731591907,nan,nan,nan,nan,nan,8.943753957748413,10.143753957748412,0.005487918853759766,0.0,0.24143682758542978,0.0,-4.869976386339066,0.7287214580029827,-0.0652440561073399,0.001210656899345264,-0.00023659140966191127,nan,nan,nan,nan
19.059884548187256,-0.00841624,0.21503769,-2.674565,0.0013243355119914972,nan,nan,nan,nan,nan,9.053560256958008,10.253560256958007,0.008048772811889648,0.0,0.2894060157673113,0.0,-4.836281300994905,0.7291567012445526,-0.04006043176369986,0.005782855878347209,-0.0006135559632836481,nan,nan,nan,nan
19.153298377990723,-0.014486937,0.22014776,-2.665208,0.0018304270771349468,nan,nan,nan,nan,nan,9.146916627883911,10.34691662788391,0.0052623748779296875,0.0,0.3200383515950271,0.0,-4.809069064501143,0.7295922056133034,-0.021335909745903353,0.0035081950948281653,-0.000924941360253832,nan,nan,nan,nan
19.266180992126465,-0.015895749,0.22233161,-2.647045,0.0023840133364202917,nan,nan,nan,nan,nan,9.259807825088501,10.4598078250885,0.0054776668548583984,0.0,0.343124903449522,0.0,-4.778257925665711,0.7302147615686262,0.008388394534623112,0.004691765373881645,-0.0013433760196703756,nan,nan,nan,nan
19.359706163406372,-0.01884162,0.2176009,-2.6424553,0.0024790730396819713,nan,nan,nan,nan,nan,9.353344678878784,10.553344678878783,0.005762577056884766,0.0,0.34994517648350576,0.0,-4.754712536935056,0.7306005706574449,0.025115911744801198,0.006795046345132245,-0.0014323507213218976,nan,nan,nan,nan
19.451143741607666,-0.024338089,0.19907634,-2.6355896,0.0023932156590748717,nan,nan,nan,nan,nan,9.444754123687744,10.644754123687743,0.005385398864746094,0.0,0.34558397991601103,0.0,-4.733637406621122,0.7307281281454191,0.05169149180576809,0.004664419101375289,-0.0015200848708218997,nan,nan,nan,nan
19.564188241958618,-0.028708091,0.17211604,-2.6243591,0.0021458726947617413,nan,nan,nan,nan,nan,9.5578031539917,10.757803153991699,0.006515026092529297,0.0,0.3253462010179632,0.0,-4.710464161529854,0.73102985455513,0.07199670499006058,0.0016220445322003493,-0.0013900731646959035,nan,nan,nan,nan
19.655561447143555,-0.030246435,0.15088418,-2.61264,0.0021726893255526077,nan,nan,nan,nan,nan,9.64932632446289,10.84932632446289,0.0050296783447265625,0.0,0.29755404619594317,0.0,-4.694222019510028,0.7315765584596953,0.08169211488262562,0.0013024739224744295,-0.0013354790361317919,nan,nan,nan,nan
19.75139856338501,-0.028467504,0.109953634,-2.6008825,0.002531958390941589,nan,nan,nan,nan,nan,9.7450110912323,10.945011091232299,0.005213260650634766,0.0,0.2585810151845365,0.0,-4.679800537502695,0.7321204947946792,0.10047146095520099,0.005010674840680037,-0.001427381136460374,nan,nan,nan,nan
19.862764596939087,-0.02338991,0.062622696,-2.591692,0.0025917286050932686,nan,nan,nan,nan,nan,9.85643219947815,11.056432199478149,0.010566949844360352,0.0,0.20218789587915856,0.0,-4.666464182401101,0.7324692835640781,0.10784704542881311,0.010222814813588511,-0.0015831218928694139,nan,nan,nan,nan
19.95837926864624,-0.017573599,0.034663234,-2.5847745,0.0023750583805524465,nan,nan,nan,nan,nan,9.952006816864014,11.152006816864013,0.00577235221862793,0.0,0.14625782329249679,0.0,-4.658099757333214,0.7327419923822304,0.10998928397219078,0.012377102159442228,-0.0014838209246277828,nan,nan,nan,nan
20.065671682357788,-0.0013238895,-0.012222734,-2.5672011,0.002256949724326963,nan,nan,nan,nan,nan,10.059284448623657,11.259284448623657,0.006810426712036133,0.0,0.07764754138089568,0.0,-4.6521872663386725,0.7332771849771054,0.10229778736763544,0.019752506278851573,-0.001264659785847459,nan,nan,nan,nan
20.16345453262329,0.012746091,-0.04159306,-2.5519435,0.0026102191108705966,nan,nan,nan,nan,nan,10.157146215438843,11.357146215438842,0.005817890167236328,0.0,0.01207837759975722,0.0,-4.6500521219760635,0.7339516087721593,0.09349392556622689,0.026461322046788856,-0.0013767402811639563,nan,nan,nan,nan
20.25359797477722,0.023975372,-0.06412659,-2.5436938,0.0027526105981258864,nan,nan,nan,nan,nan,10.247208833694458,11.447208833694457,0.005030393600463867,0.0,-0.048701614127721754,0.0,-4.650852266463901,0.7343934067134452,0.0852317778993524,0.02911758828408923,-0.0015666636911798029,nan,nan,nan,nan
20.349791526794434,0.04006537,-0.10291001,-2.535622,0.0029509688193800135,nan,nan,nan,nan,nan,10.343426942825317,11.543426942825317,0.005771160125732422,0.0,-0.11196294815479518,0.0,-4.654628440455768,0.7345958198544735,0.06746430829285051,0.027446926549289874,-0.001652143888366698,nan,nan,nan,nan
20.461122035980225,0.05000274,-0.13843873,-2.5294492,0.002977583069275116,nan,nan,nan,nan,nan,10.454755067825317,11.654755067825317,0.0060579776763916016,0.0,-0.18020181701999538,0.0,-4.662719755402139,0.7346446734719637,0.059952469587578196,0.020769678615547214,-0.0017077065266054437,nan,nan,nan,nan
20.55397653579712,0.053915396,-0.15670407,-2.5257046,0.0029209541966910973,nan,nan,nan,nan,nan,10.54758596420288,11.74758596420288,0.004959583282470703,0.0,-0.23086774553108172,0.0,-4.672455590037331,0.734866521160995,0.062297629559198896,0.01366991172689245,-0.0016155324122490962,nan,nan,nan,nan
20.653862476348877,0.054971687,-0.18378372,-2.519565,0.0026664953059675235,nan,nan,nan,nan,nan,10.64770221710205,11.84770221710205,0.00498652458190918,0.0,-0.277155432880278,0.0,-4.685906809839393,0.7349235966216751,0.04569262823719049,0.0004146822454472716,-0.001525035356939817,nan,nan,nan,nan
20.750145196914673,0.057647068,-0.19753957,-2.5161188,0.0025968700228734994,nan,nan,nan,nan,nan,10.743813037872314,11.943813037872314,0.005652427673339844,0.0,-0.3118716459431764,0.0,-4.701587086519493,0.7350715811983599,0.04179811891579313,-0.0065123827478905235,-0.0012685349338381953,nan,nan,nan,nan
20.854504108428955,0.05786564,-0.20418689,-2.516135,0.0024163397930331773,nan,nan,nan,nan,nan,10.848112106323242,12.048112106323241,0.0053594112396240234,0.0,-0.3373686009373509,0.0,-4.721510467160903,0.7350817025206706,0.021943949412698564,-0.011677457314540118,-0.0012551152227676977,nan,nan,nan,nan
20.950204372406006,0.057297394,-0.20555109,-2.5181172,0.0020009006774576177,nan,nan,nan,nan,nan,10.943845748901367,12.143845748901366,0.005336284637451172,0.0,-0.3487542630322104,0.0,-4.742292540354868,0.7348226924566212,-0.007063827997795967,-0.017259504133838276,-0.0010967097984756868,nan,nan,nan,nan
21.06227731704712,0.066006966,-0.2002058,-2.520375,0.0014260735349999783,nan,nan,nan,nan,nan,11.055903911590576,12.255903911590575,0.00651860237121582,0.0,-0.34694395382500415,0.0,-4.769405948656061,0.7347934331427681,-0.019710652234078477,-0.00990821099445964,-0.0008283445198213321,nan,nan,nan,nan
21.152259588241577,0.06553107,-0.18732265,-2.5221276,0.001117939667422383,nan,nan,nan,nan,nan,11.145899534225464,12.345899534225463,0.00504302978515625,0.0,-0.3337167057929273,0.0,-4.793154438232755,0.7345491509585638,-0.04489092652452411,-0.0064754533873613565,-0.0007315920325909986,nan,nan,nan,nan
21.26549458503723,0.06303059,-0.16360176,-2.5309117,0.0009013369280186714,nan,nan,nan,nan,nan,11.259121894836426,12.459121894836425,0.005543708801269531,0.0,-0.30284174883615766,0.0,-4.825231098044653,0.7342229465587483,-0.0611405697579577,-0.008086055032413345,-0.0006397379997081446,nan,nan,nan,nan
21.360387802124023,0.06363829,-0.13951007,-2.5398097,0.000837577810890635,nan,nan,nan,nan,nan,11.354018449783325,12.554018449783324,0.006216287612915039,0.0,-0.26574906507693496,0.0,-4.853743657017239,0.7338924697542565,-0.07230085622321994,-0.008017669459550467,-0.0006281123906583172,nan,nan,nan,nan
21.459150552749634,0.06474548,-0.115024894,-2.5480115,0.000878136879167421,nan,nan,nan,nan,nan,11.452835083007812,12.652835083007812,0.005357027053833008,0.0,-0.21766583774004666,0.0,-4.884737492791138,0.7335589950242658,-0.08218131903561861,-0.005451542250723893,-0.0007029344700508316,nan,nan,nan,nan
21.562411546707153,0.06427848,-0.07555949,-2.5588908,0.0009538274271562643,nan,nan,nan,nan,nan,11.55602502822876,12.756025028228759,0.008029699325561523,0.0,-0.15903229540376615,0.0,-4.918220113953315,0.7329549601615892,-0.09469902380950747,-0.0019152718742105764,-0.0008324600264723901,nan,nan,nan,nan
21.661848068237305,0.056139126,-0.045611557,-2.5643952,0.0011121255881866464,nan,nan,nan,nan,nan,11.655649185180664,12.855649185180663,0.006055355072021484,0.0,-0.09641217264999775,0.0,-4.951320783859232,0.7327262762793815,-0.10203417022709006,-0.00651317273755207,-0.000906253502382805,nan,nan,nan,nan
21.754099130630493,0.04797451,0.0016275231,-2.5829835,0.0012474767419569282,nan,nan,nan,nan,nan,11.747711896896362,12.947711896896362,0.005093812942504883,0.0,-0.035320555638360576,0.0,-4.9823171398453665,0.732082424456035,-0.106709162971718,-0.013458338465944197,-0.00096812858580599,nan,nan,nan,nan
21.86592745780945,0.044648897,0.042434692,-2.6037242,0.0010446504625852594,nan,nan,nan,nan,nan,11.859580755233765,13.059580755233764,0.005992412567138672,0.0,0.0402262697600898,0.0,-5.020146538645641,0.7310831571166696,-0.10665729065879785,-0.012663907591441956,-0.001035874220593742,nan,nan,nan,nan
21.963948011398315,0.042481333,0.07062707,-2.6190028,0.0007276869902389134,nan,nan,nan,nan,nan,11.957614660263062,13.15761466026306,0.008099794387817383,0.0,0.10500729312010891,0.0,-5.053118973117517,0.7305662319278451,-0.10817382653601806,-0.009082801394807823,-0.0008302637702353586,nan,nan,nan,nan
22.057504177093506,0.035235014,0.10481715,-2.6386251,0.0006121767554966052,nan,nan,nan,nan,nan,12.051213264465332,13.251213264465331,0.005305051803588867,0.0,0.16337958279279036,0.0,-5.084158975196754,0.729863345270977,-0.09213455163976408,-0.007702403828286273,-0.0006275486665925754,nan,nan,nan,nan
22.15550184249878,0.03191745,0.13095742,-2.6527622,0.0005650666239506129,nan,nan,nan,nan,nan,12.149126529693604,13.349126529693603,0.00513768196105957,0.0,0.21870369257289995,0.0,-5.115888942393685,0.7293954428798878,-0.08802883958201159,-0.006782512973421773,-0.0006032150920629625,nan,nan,nan,nan
22.25911855697632,0.02083158,0.16133818,-2.6781387,0.0007517951842567899,nan,nan,nan,nan,nan,12.252889156341553,13.452889156341552,0.005137443542480469,0.0,0.26876695678280194,0.0,-5.148376258277116,0.7285889041500446,-0.06480873930867134,-0.006415288641665823,-0.0004943795602950376,nan,nan,nan,nan
22.355620861053467,0.014694862,0.17595868,-2.697819,0.0009906628953157484,nan,nan,nan,nan,nan,12.349230527877808,13.549230527877807,0.0050618648529052734,0.0,0.3056354390442177,0.0,-5.177211501541388,0.7280018924411569,-0.058853870587824327,-0.010102310629759007,-0.000775437791848076,nan,nan,nan,nan
22.448615312576294,0.011560893,0.1884238,-2.7314186,0.000914194328025239,nan,nan,nan,nan,nan,12.442224979400635,13.642224979400634,0.011832952499389648,0.0,0.33120650790742834,0.0,-5.203590939725612,0.7269636672323361,-0.029004036015690307,-0.007481805731194364,-0.0007446169140283947,nan,nan,nan,nan
22.563891887664795,0.010933396,0.18925135,-2.7595,0.0007239884972072494,nan,nan,nan,nan,nan,12.557564496994019,13.757564496994018,0.008420705795288086,0.0,0.3480278996583309,0.0,-5.234002343087687,0.7258472577028561,0.0016235504726640848,-0.0002457508284879704,-0.0005649376006280942,nan,nan,nan,nan
22.661134004592896,0.0073358836,0.18568984,-2.7736132,0.0005834720092203136,nan,nan,nan,nan,nan,12.654816150665283,13.854816150665282,0.005428791046142578,0.0,0.3488294198904161,0.0,-5.2574009167778755,0.7254543466699831,0.010285467106739943,0.000981877185719183,-0.0003824828128966174,nan,nan,nan,nan
22.754908561706543,0.0051821317,0.17393574,-2.788126,0.0005611251934258682,nan,nan,nan,nan,nan,12.748523235321045,13.948523235321044,0.005539417266845703,0.0,0.33796757834692415,0.0,-5.2777985498991695,0.7251191049561555,0.038618767879335145,0.0022097249054702233,-0.0003354115504322375,nan,nan,nan,nan
22.857116222381592,0.008162204,0.14923929,-2.8056643,0.00013142160444686024,nan,nan,nan,nan,nan,12.850807905197144,14.050807905197143,0.005393266677856445,0.0,0.3135067660831063,0.0,-5.297457909063582,0.7248557975047395,0.06659793071607589,0.005533456223033584,-0.00012425539325048256,nan,nan,nan,nan
22.951576471328735,0.012352396,0.13071312,-2.8158123,-0.00022791435106058952,nan,nan,nan,nan,nan,12.94518494606018,14.14518494606018,0.0065686702728271484,0.0,0.2800683119780994,0.0,-5.313024048812591,0.7245740615224228,0.07972743062926432,0.010866044524757748,0.00020135347761543658,nan,nan,nan,nan
23.06583070755005,0.017927233,0.09372801,-2.8340585,-0.0007622573472904209,nan,nan,nan,nan,nan,13.059569835662842,14.259569835662841,0.006771087646484375,0.0,0.22720655214533841,0.0,-5.328389777039998,0.7242048773350949,0.09792866447736971,0.014643654817274343,0.0006405854977666967,nan,nan,nan,nan
23.15012764930725,0.02069139,0.053142432,-2.847298,-0.0007068437482917606,nan,nan,nan,nan,nan,13.143840551376343,14.343840551376342,0.007546901702880859,0.0,0.18101579705344725,0.0,-5.337153005770976,0.7239591703723439,0.1114355476029052,0.014486134935508151,0.0006032810479546833,nan,nan,nan,nan
23.25009822845459,0.018592224,0.0103614535,-2.854986,-0.0003755892599362591,nan,nan,nan,nan,nan,13.243735074996948,14.443735074996948,0.005608558654785156,0.0,0.12015798554085864,0.0,-5.344640957364488,0.7237567188525021,0.12733700479867952,0.012619482360012741,0.0005943389347084352,nan,nan,nan,nan
23.348958015441895,0.017630259,-0.021811888,-2.8568523,-0.00012871233590412787,nan,nan,nan,nan,nan,13.342724561691284,14.542724561691283,0.00763702392578125,0.0,0.05543727568598772,0.0,-5.348893675441536,0.7237667357897736,0.13762523249489403,0.005081596957948303,0.0003732037786416912,nan,nan,nan,nan
23.449723720550537,0.022427905,-0.078311846,-2.8497016,0.00018408423021235194,nan,nan,nan,nan,nan,13.443339347839355,14.643339347839355,0.007642984390258789,0.0,-0.012406733274066389,0.0,-5.3499450044596,0.7243373845747475,0.13381264127181894,0.0030403220058696392,0.00015721883950396335,nan,nan,nan,nan
23.55254054069519,0.025854394,-0.115643576,-2.848908,0.0002391408677936812,nan,nan,nan,nan,nan,13.546152830123901,14.7461528301239,0.005613803863525391,0.0,-0.08123064272553555,0.0,-5.347602592965035,0.724533154464222,0.13323110296975327,0.0032432817641893097,0.00015177763679160804,nan,nan,nan,nan
23.648993015289307,0.026517397,-0.15037248,-2.847339,0.00013556164595683248,nan,nan,nan,nan,nan,13.642620086669922,14.842620086669921,0.0067441463470458984,0.0,-0.14294694062722968,0.0,-5.3422844495957005,0.7246769400628751,0.12416027170634292,0.002400867138367129,0.00016282091578620532,nan,nan,nan,nan
23.75910520553589,0.025769414,-0.19213149,-2.844895,-8.999346763560734e-05,nan,nan,nan,nan,nan,13.752985000610352,14.95298500061035,0.005200624465942383,0.0,-0.2073554584401011,0.0,-5.332556318747176,0.7249586787531588,0.10434658415111445,-0.002015751131447258,0.000301249889733432,nan,nan,nan,nan
23.852367401123047,0.024421837,-0.21805784,-2.8451397,-0.00029722961531876424,nan,nan,nan,nan,nan,13.845978498458862,15.045978498458862,0.006132841110229492,0.0,-0.25443315838667757,0.0,-5.321418208370825,0.7251068182043943,0.07744640070289813,-0.006619530884115264,0.00044490704835167566,nan,nan,nan,nan
23.960743188858032,0.023256982,-0.24452358,-2.8546598,-0.00028935656108345503,nan,nan,nan,nan,nan,13.954401969909668,15.154401969909667,0.004954814910888672,0.0,-0.29887461913555147,0.0,-5.305162270208977,0.7247791360812452,0.05529887089502605,-0.008170725071660405,0.0005018719105607479,nan,nan,nan,nan
24.055473566055298,0.02594216,-0.25560236,-2.8628917,5.7376058423791454e-05,nan,nan,nan,nan,nan,14.049085855484009,15.249085855484008,0.0051081180572509766,0.0,-0.32703583080925147,0.0,-5.2882199306663855,0.7245454594022882,0.014254401381424291,-0.004568992964140145,0.00024675982743494027,nan,nan,nan,nan
24.149076223373413,0.03053857,-0.25520408,-2.8683572,0.00045346521806744616,nan,nan,nan,nan,nan,14.142740964889526,15.342740964889526,0.00850534439086914,0.0,-0.34414324075325176,0.0,-5.2690875816321325,0.7243505805867022,0.0006470165131697587,-0.001386838451886201,-2.4650061707585025e-05,nan,nan,nan,nan
24.26172924041748,0.035117585,-0.24826568,-2.8767385,0.0005999835098021364,nan,nan,nan,nan,nan,14.255459308624268,15.455459308624267,0.005649089813232422,0.0,-0.34978905625042955,0.0,-5.243153852310551,0.7241720146277555,-0.029489139184156944,0.004404722113076337,-0.0003701804508403909,nan,nan,nan,nan
24.353674173355103,0.039976418,-0.23046361,-2.8848252,0.00029550280944833085,nan,nan,nan,nan,nan,14.347293376922607,15.547293376922607,0.005441188812255859,0.0,-0.3421448924958987,0.0,-5.219878031009102,0.7239241808525406,-0.06100727861668025,0.005232142655719953,-0.00034906391356565643,nan,nan,nan,nan
24.452679872512817,0.04662894,-0.20841347,-2.8868847,-9.40964194744709e-05,nan,nan,nan,nan,nan,14.446290731430054,15.646290731430053,0.005921125411987305,0.0,-0.3218713662271403,0.0,-5.192852861926204,0.7238229061099475,-0.07802578598354959,0.009720553824032722,-0.00022913442002398709,nan,nan,nan,nan
24.56315851211548,0.05853094,-0.16913983,-2.8853996,-0.00019354195029026508,nan,nan,nan,nan,nan,14.5568265914917,15.756826591491699,0.005677938461303711,0.0,-0.2853953287199004,0.0,-5.16060452644103,0.7240079235195028,-0.10520088256088293,0.01511720303794059,-0.0001307500959545769,nan,nan,nan,nan
24.65537714958191,0.0602466,-0.13252234,-2.8862963,-7.564852589163687e-05,nan,nan,nan,nan,nan,14.648993730545044,15.848993730545043,0.0057222843170166016,0.0,-0.24496576119279476,0.0,-5.132298445000558,0.7241752437515274,-0.12061496702309363,0.014374251714251338,-0.00026062977102774703,nan,nan,nan,nan
24.76689314842224,0.056728106,-0.07272521,-2.8863168,-0.00023463154224565887,nan,nan,nan,nan,nan,14.76065993309021,15.96065993309021,0.009630203247070312,0.0,-0.18573057244061622,0.0,-5.096619797116715,0.7243820161724402,-0.1356910811222013,0.0006494248023691308,-4.458363335010243e-05,nan,nan,nan,nan
24.865686178207397,0.05181026,-0.030020826,-2.882,-0.0003099788016527076,nan,nan,nan,nan,nan,14.859344482421875,16.059344482421874,0.00705265998840332,0.0,-0.1261058196214958,0.0,-5.064139072491284,0.7244392998570789,-0.14033546587567094,-0.006684674368398966,-0.0001447692517053776,nan,nan,nan,nan
24.9606454372406,0.0453729,0.019424267,-2.8710957,-0.00023774521896962665,nan,nan,nan,nan,nan,14.954363107681274,16.154363107681274,0.006094455718994141,0.0,-0.06434469417175837,0.0,-5.032310317458341,0.7250791454133841,-0.13286482133453864,-0.016937099302539036,-3.791960018525433e-05,nan,nan,nan,nan
25.05656337738037,0.042483512,0.05835452,-2.8631253,-0.00015865950421931584,nan,nan,nan,nan,nan,15.050171375274658,16.250171375274657,0.005407571792602539,0.0,0.0001159612017881866,0.0,-4.99994201939831,0.7254872179350071,-0.12998794234740904,-0.019316696464585278,-0.00027668575835271074,nan,nan,nan,nan
25.163740634918213,0.036587786,0.1089048,-2.8519077,-0.00028293027622955727,nan,nan,nan,nan,nan,15.157451391220093,16.357451391220092,0.005510807037353516,0.0,0.0721852603074106,0.0,-4.963711799925229,0.7261134721275613,-0.11586233052894405,-0.018653893715328884,-0.00027436439443478765,nan,nan,nan,nan
25.258421182632446,0.036304876,0.16062988,-2.83804,-0.0008337878339041184,nan,nan,nan,nan,nan,15.252031564712524,16.452031564712524,0.005038261413574219,0.0,0.1332553483289365,0.0,-4.932081254024477,0.7267679811271495,-0.09295569098124655,-0.013860747349568065,-8.568298507193659e-07,nan,nan,nan,nan
25.353707313537598,0.038932364,0.18383448,-2.8301039,-0.0012217151848274467,nan,nan,nan,nan,nan,15.34733247756958,16.54733247756958,0.00588679313659668,0.0,0.1902920210037919,0.0,-4.900784152067168,0.7272188887948174,-0.08284961564008703,-0.004441486179079895,0.0004338417962381873,nan,nan,nan,nan
25.464646816253662,0.042260762,0.21630476,-2.8200738,-0.0018819208167018472,nan,nan,nan,nan,nan,15.458270788192749,16.65827078819275,0.005774497985839844,0.0,0.24845235732257437,0.0,-4.865429413049675,0.7277382394159816,-0.052008212074958975,0.005901011500571475,0.0010079597330842098,nan,nan,nan,nan
25.557597160339355,0.047024015,0.2437359,-2.816215,-0.0022221561768138373,nan,nan,nan,nan,nan,15.551206827163696,16.751206827163696,0.0052793025970458984,0.0,0.2885074505910639,0.0,-4.83698546863731,0.7279454008247651,-0.02992201997081599,0.011116217604205622,0.0012539575934520382,nan,nan,nan,nan
25.64898991584778,0.051670194,0.2562229,-2.8074915,-0.0024806801084793426,nan,nan,nan,nan,nan,15.642688512802124,16.842688512802123,0.0063440799713134766,0.0,0.31886949275104265,0.0,-4.810269539618213,0.7282818023724419,-0.011782436722020692,0.013607083044212202,0.001436025852572748,nan,nan,nan,nan
25.7574520111084,0.061304826,0.2581834,-2.7940416,-0.0028189753964553976,nan,nan,nan,nan,nan,15.751075029373169,16.95107502937317,0.004939079284667969,0.0,0.34191060498521303,0.0,-4.780551724120547,0.7289286315781744,0.018491314968368134,0.015489357877988424,0.0016657175345894738,nan,nan,nan,nan
25.854166269302368,0.06904767,0.25166252,-2.786339,-0.0029049619057815307,nan,nan,nan,nan,nan,15.84778356552124,17.04778356552124,0.005423545837402344,0.0,0.3498583531339707,0.0,-4.756058193355818,0.7293170255559605,0.03258880456662832,0.01867728186129972,0.001961180481233554,nan,nan,nan,nan
25.953797578811646,0.08616419,0.23282854,-2.7742069,-0.002627869010123407,nan,nan,nan,nan,nan,15.947442531585693,17.147442531585693,0.005283832550048828,0.0,0.34529125413092054,0.0,-4.733048268566439,0.7298142162471497,0.06938245954217805,0.02445916472639572,0.0017921455546711556,nan,nan,nan,nan
26.062215566635132,0.095139086,0.19727658,-2.763051,-0.0026325266578881568,nan,nan,nan,nan,nan,16.05626392364502,17.25626392364502,0.006356477737426758,0.0,0.32572873700446564,0.0,-4.710757066595285,0.7302474704154276,0.09340537966435516,0.020825536371236263,0.001746493948477302,nan,nan,nan,nan
26.16052484512329,0.10257511,0.16788106,-2.7521925,-0.002542810935179926,nan,nan,nan,nan,nan,16.154181003570557,17.354181003570556,0.005097866058349609,0.0,0.29581134493287736,0.0,-4.693426245893205,0.7306318997694576,0.10267154129771751,0.015553950023600245,0.0019698839508059006,nan,nan,nan,nan
26.25291895866394,0.10864146,0.13696314,-2.7394955,-0.0024996479534750704,nan,nan,nan,nan,nan,16.246545553207397,17.446545553207397,0.005708456039428711,0.0,0.25788014913494306,0.0,-4.679591267880682,0.7310949015373654,0.10930393221754912,0.01033726868814339,0.001971580831701459,nan,nan,nan,nan
26.34948182106018,0.1125187,0.10790784,-2.7269619,-0.0024755295275662535,nan,nan,nan,nan,nan,16.34331464767456,17.54331464767456,0.0069732666015625,0.0,0.20936726219001978,0.0,-4.6678361071985,0.7316524055779831,0.11060046094371012,0.0046193980850813875,0.0020066114463632404,nan,nan,nan,nan
26.465327501296997,0.11872743,0.057092134,-2.6975734,-0.0021899932479849836,nan,nan,nan,nan,nan,16.459081172943115,17.659081172943115,0.007427215576171875,0.0,0.14189539850223082,0.0,-4.6575958248173075,0.7326789622654377,0.1102786887039126,-0.0019233012006247747,0.0019953228314674447,nan,nan,nan,nan
26.56464409828186,0.11483679,0.0025129947,-2.672574,-0.0019746370739797355,nan,nan,nan,nan,nan,16.558653593063354,17.758653593063354,0.0072934627532958984,0.0,0.07806371516050323,0.0,-4.65221115512027,0.7335593489128436,0.10657203660961133,-0.011599738755372648,0.0016250306859025784,nan,nan,nan,nan
26.66225028038025,0.11308297,-0.02954185,-2.660757,-0.0019156418778786817,nan,nan,nan,nan,nan,16.65590262413025,17.85590262413025,0.0049610137939453125,0.0,0.012919317629037797,0.0,-4.650059635673777,0.7340951963067958,0.10616024738068876,-0.01738840878426864,0.0018431874123039425,nan,nan,nan,nan
26.75749945640564,0.110759825,-0.072588064,-2.6491761,-0.0018274817916677736,nan,nan,nan,nan,nan,16.75112009048462,17.95112009048462,0.00523829460144043,0.0,-0.05132100502758395,0.0,-4.650947051747518,0.7343906846378705,0.09146305638451391,-0.02031153565895395,0.0016931407135800396,nan,nan,nan,nan
26.855830192565918,0.10976852,-0.094352774,-2.6466165,-0.001656581904408051,nan,nan,nan,nan,nan,16.849477767944336,18.049477767944335,0.005364179611206055,0.0,-0.11583435257579468,0.0,-4.654966169580491,0.7343922310884596,0.0833434525164656,-0.018362628958952274,0.001742845763718949,nan,nan,nan,nan
26.965988636016846,0.10590083,-0.12848303,-2.639229,-0.0013809949120253545,nan,nan,nan,nan,nan,16.95968794822693,18.159687948226928,0.008006095886230469,0.0,-0.18305501638953978,0.0,-4.663169422313577,0.7342114838290621,0.04832614838083228,-0.013940092930851345,0.0013643171823304204,nan,nan,nan,nan
27.06233048439026,0.09929606,-0.14448678,-2.6380327,-0.0013794505406853654,nan,nan,nan,nan,nan,17.056063175201416,18.256063175201415,0.005031585693359375,0.0,-0.23514779426134408,0.0,-4.673477341786744,0.7342582419673583,0.04064230916755732,-0.013882278491360978,0.0013821052384633522,nan,nan,nan,nan
27.157129287719727,0.091101766,-0.16188386,-2.6402383,-0.0012670704467232646,nan,nan,nan,nan,nan,17.150787353515625,18.350787353515624,0.005238533020019531,0.0,-0.2784253395067248,0.0,-4.686368720907418,0.73399540703331,0.017457682087467716,-0.01524627257261822,0.00124318355286597,nan,nan,nan,nan
27.26685094833374,0.08154774,-0.17139174,-2.6480477,-0.0010135377406383303,nan,nan,nan,nan,nan,17.26049780845642,18.46049780845642,0.0057179927825927734,0.0,-0.3168327422188375,0.0,-4.70457550489108,0.7336852858356318,0.007589288963464613,-0.014606744742448942,0.0010390601743729244,nan,nan,nan,nan
27.36539053916931,0.07282475,-0.17411543,-2.655652,-0.0008302187549138612,nan,nan,nan,nan,nan,17.359036684036255,18.559036684036254,0.006035327911376953,0.0,-0.33926119733541277,0.0,-4.72376470053553,0.7332786337124242,0.0006025039149440436,-0.015930491180234162,0.000916018364877665,nan,nan,nan,nan
27.45616316795349,0.060335077,-0.17543548,-2.6752477,-0.0007800046829996958,nan,nan,nan,nan,nan,17.449774265289307,18.649774265289306,0.005206584930419922,0.0,-0.34906950520156943,0.0,-4.743653962400822,0.7325160852942859,-0.012886173129835332,-0.015694089424713013,0.0006906674878429794,nan,nan,nan,nan
27.56707215309143,0.05893031,-0.16646205,-2.6914527,-0.0007056949525970947,nan,nan,nan,nan,nan,17.560771703720093,18.760771703720092,0.0063838958740234375,0.0,-0.3464942793965587,0.0,-4.770647429834564,0.731838313348711,-0.024027258349112755,-0.007149183151995487,0.0005869324244824882,nan,nan,nan,nan
27.659815549850464,0.055865202,-0.1514109,-2.7061136,-0.0005391627813276408,nan,nan,nan,nan,nan,17.65343165397644,18.85343165397644,0.004988431930541992,0.0,-0.3321449132866812,0.0,-4.795215573176385,0.7314382143878235,-0.03467209611968158,0.00010343554380393927,0.0004257788398144992,nan,nan,nan,nan
27.756393432617188,0.05248476,-0.13441138,-2.7161303,-0.0003646129812389168,nan,nan,nan,nan,nan,17.75003457069397,18.95003457069397,0.005880117416381836,0.0,-0.3058774424735162,0.0,-4.822574132984435,0.7310843542673383,-0.04590257164463206,0.0028860299572210043,0.0002914243250471582,nan,nan,nan,nan
27.852837324142456,0.047148775,-0.10762724,-2.7204158,-0.00020324093644931776,nan,nan,nan,nan,nan,17.846494436264038,19.046494436264037,0.007838726043701172,0.0,-0.26903393992234526,0.0,-4.8514348889930705,0.7309642697569737,-0.06838348616974005,0.005511326986745517,0.00011895220143941137,nan,nan,nan,nan
27.950780391693115,0.036319584,-0.08513789,-2.7352514,-6.071594499955715e-05,nan,nan,nan,nan,nan,17.944409608840942,19.14440960884094,0.007249116897583008,0.0,-0.22210126870853134,0.0,-4.882049803551123,0.7307334909222676,-0.07514913898176348,0.0011061882010604234,5.3635667897005216e-05,nan,nan,nan,nan
28.06308627128601,0.01931387,-0.042043794,-2.7540092,0.00033755571148266425,nan,nan,nan,nan,nan,18.05684995651245,19.25684995651245,0.0051860809326171875,0.0,-0.15853485419691135,0.0,-4.918491508516831,0.7299954295997856,-0.0900992722528523,-0.009904111849263647,-8.221491778944413e-05,nan,nan,nan,nan
28.159351348876953,0.0129714,-0.014735155,-2.7646692,0.0005215804238305572,nan,nan,nan,nan,nan,18.152962684631348,19.352962684631347,0.005697965621948242,0.0,-0.09815835827362944,0.0,-4.95042087175736,0.7297352471137546,-0.09911769059176825,-0.013929953763623274,-0.00025077014184683656,nan,nan,nan,nan
28.25456929206848,0.010270817,0.013826628,-2.7754016,0.0005325416714389158,nan,nan,nan,nan,nan,18.248183250427246,19.448183250427245,0.01052403450012207,0.0,-0.035003227517986936,0.0,-4.982476408873414,0.7293140772924999,-0.10247204173011724,-0.008450165398436538,-0.00034387138742488627,nan,nan,nan,nan
28.355607748031616,0.010061465,0.044093743,-2.783879,0.0002624817946154214,nan,nan,nan,nan,nan,18.349218130111694,19.549218130111694,0.006013393402099609,0.0,0.03325325091403269,0.0,-5.01664546052283,0.7290823723176523,-0.09982228587054678,-0.0004491105036375502,-0.00023360346695981137,nan,nan,nan,nan
28.452690601348877,0.010421589,0.07433405,-2.784318,-0.00020328232545228572,nan,nan,nan,nan,nan,18.44629669189453,19.64629669189453,0.007707357406616211,0.0,0.09767722633471845,0.0,-5.0493310705832695,0.7290393269601889,-0.08194984855793797,0.0089704494302525,-4.746668830525009e-05,nan,nan,nan,nan
28.548691987991333,0.007683454,0.09058235,-2.7869716,-0.0003284197537593708,nan,nan,nan,nan,nan,18.54232954978943,19.742329549789428,0.005906105041503906,0.0,0.15803968711191363,0.0,-5.0812385044499395,0.7290913792881262,-0.07754030999944277,0.010662690481328733,0.00025421860017957673,nan,nan,nan,nan
28.66285276412964,0.0041987463,0.113823906,-2.7970808,-0.00023688813701314843,nan,nan,nan,nan,nan,18.656519174575806,19.856519174575805,0.006105661392211914,0.0,0.22258662429983186,0.0,-5.118245998742945,0.7288721577853589,-0.06428137011242337,0.007970267902596195,0.00022955766642079563,nan,nan,nan,nan
28.7622127532959,0.004070509,0.1292153,-2.8085237,-0.00017728861108374724,nan,nan,nan,nan,nan,18.75586247444153,19.955862474441528,0.004987478256225586,0.0,0.27005125669756275,0.0,-5.149286726026677,0.7282172089457688,-0.04095090122545911,0.006648253780915917,0.00012765152970593577,nan,nan,nan,nan
28.861168146133423,0.006445569,0.13813955,-2.8133254,-0.000203307781908392,nan,nan,nan,nan,nan,18.854811668395996,20.054811668395995,0.005174875259399414,0.0,0.3074578278633621,0.0,-5.17883723307995,0.7280625511199982,-0.03749162826618952,0.00827784719803557,0.00015304990976982134,nan,nan,nan,nan
28.96075987815857,0.011582223,0.14682737,-2.825431,-0.00038602041960994135,nan,nan,nan,nan,nan,18.954383373260498,20.154383373260497,0.0051648616790771484,0.0,0.33377436575601066,0.0,-5.206922765309669,0.7276878132474023,-0.025516096165405976,0.011393940669830325,0.00029838403427671884,nan,nan,nan,nan
29.05775284767151,0.023731807,0.1497898,-2.8425066,-0.0007614159359761001,nan,nan,nan,nan,nan,19.051377296447754,20.251377296447753,0.005240201950073242,0.0,0.3475592080894219,0.0,-5.232441511375196,0.7270757700848471,-0.003591811364916777,0.018433232560189406,0.0004081468612402942,nan,nan,nan,nan
29.150166749954224,0.033591654,0.14488989,-2.8562732,-0.0013671006521119994,nan,nan,nan,nan,nan,19.143827438354492,20.34382743835449,0.0059680938720703125,0.0,0.3493582763071023,0.0,-5.254867290901867,0.7265596780278797,0.007321982664077485,0.025084200105455905,0.0007827236817469369,nan,nan,nan,nan
29.261396169662476,0.040675662,0.13114294,-2.8678615,-0.0020951201184679566,nan,nan,nan,nan,nan,19.255018711090088,20.455018711090087,0.005517244338989258,0.0,0.3367984300378858,0.0,-5.279129847252626,0.7260274405973753,0.029498230250080658,0.02330307333347931,0.0013170922808951654,nan,nan,nan,nan
29.36271023750305,0.044497754,0.11863851,-2.8725445,-0.0024948460521830133,nan,nan,nan,nan,nan,19.356389045715332,20.55638904571533,0.005528450012207031,0.0,0.3118095583283902,0.0,-5.298448634567365,0.7258123388221844,0.04041869935256144,0.019838005248081613,0.0017199915988265258,nan,nan,nan,nan
29.460713624954224,0.047178943,0.102823146,-2.8838286,-0.002669122048207285,nan,nan,nan,nan,nan,19.45433735847473,20.65433735847473,0.004955291748046875,0.0,0.2763104844269638,0.0,-5.314397024801579,0.7254835367089785,0.05501873106867427,0.013709840244825671,0.0019439028378195281,nan,nan,nan,nan
29.55407977104187,0.053292435,0.08356723,-2.8958197,-0.0026006370662287545,nan,nan,nan,nan,nan,19.54775309562683,20.74775309562683,0.0065653324127197266,0.0,0.23322874995336593,0.0,-5.3269853480322515,0.7250219652693999,0.0663861270581489,0.00810478545040505,0.0019429619387527324,nan,nan,nan,nan
29.664724826812744,0.0612671,0.05246717,-2.9089806,-0.00222951003340913,nan,nan,nan,nan,nan,19.6583833694458,20.8583833694458,0.005040407180786133,0.0,0.17252323844870138,0.0,-5.338440465548902,0.7244846063264511,0.07966020002023413,0.006226159146162976,0.0017560013738451656,nan,nan,nan,nan
29.75670838356018,0.06501828,0.028828926,-2.9162536,-0.0020281317159705926,nan,nan,nan,nan,nan,19.75032877922058,20.95032877922058,0.00627899169921875,0.0,0.11595786779113555,0.0,-5.345022837988139,0.7242156774268395,0.08764903227628676,0.0023326053359008477,0.0016619952864417545,nan,nan,nan,nan
