time,x,y,z,yaw,platform,trajectory,traj_double,traj_short,traj_spin,traj_time,ref_time,comptime,x_ref,y_ref,yaw_ref,z_ref,throttle_input,p_input,q_input,r_input,cbf_term_pitch_cbf,cbf_term_roll_cbf,cbf_term_thrust_cbf,cbf_term_yaw_cbf
10.049919366836548,-0.11568978,-0.036073007,-2.9184885,-0.004180158011693479,SIM,HOVER,NormSpd,Not Short,NoSpin,0.039772987365722656,1.2397729873657226,0.00606536865234375,1.0,1.0,1e-05,-9.0,0.8785971096381059,0.7179287259835272,-0.5917025846773836,0.025744638347906402,nan,nan,nan,nan
10.146788120269775,-0.11405347,-0.029729778,-2.9290123,-0.00013094462524101264,nan,nan,nan,nan,nan,0.1366441249847412,1.3366441249847412,0.008076906204223633,1.0,1.0,1e-05,-9.0,0.8785971096381059,0.8,-0.8,-0.019048533621214288,nan,nan,nan,nan
10.248029470443726,-0.109636575,-0.02146647,-2.938046,0.003054559333732317,nan,nan,nan,nan,nan,0.23788928985595703,1.437889289855957,0.007440090179443359,1.0,1.0,1e-05,-9.0,0.8785971096381059,0.6641383301945548,-0.5299331792569596,0.019424888416705,nan,nan,nan,nan
10.355278015136719,-0.10131028,-0.005676962,-2.963313,0.007743697698419139,nan,nan,nan,nan,nan,0.3452260494232178,1.5452260494232177,0.00608515739440918,1.0,1.0,1e-05,-9.0,0.8785971096381059,0.782027642672322,-0.8,-0.027395459399608153,nan,nan,nan,nan
10.458187103271484,-0.09580962,0.007052669,-2.9915264,0.009639159351606813,nan,nan,nan,nan,nan,0.44806909561157227,1.6480690956115722,0.0058290958404541016,1.0,1.0,1e-05,-9.0,0.8785971096381059,0.47849707779482203,-0.35392916378751416,0.010743929498324952,nan,nan,nan,nan
10.555541038513184,-0.08290693,0.028378407,-3.0263803,0.01152069377596761,nan,nan,nan,nan,nan,0.5455236434936523,1.7455236434936523,0.0059146881103515625,1.0,1.0,1e-05,-9.0,0.8785971096381059,0.5604256455949876,-0.7243545469213427,-0.032401957350927234,nan,nan,nan,nan
10.653838634490967,-0.06927927,0.044674203,-3.052996,0.010591410368539972,nan,nan,nan,nan,nan,0.6437950134277344,1.8437950134277343,0.005722761154174805,1.0,1.0,1e-05,-9.0,0.8785971096381056,0.6128875925226769,-0.4608149258516872,0.012619892835030165,nan,nan,nan,nan
10.749920129776001,-0.044692375,0.06658225,-3.1143072,0.003554141640914013,nan,nan,nan,nan,nan,0.7398138046264648,1.9398138046264648,0.007664680480957031,1.0,1.0,1e-05,-9.0,0.8785971096381059,0.4010688149522209,-0.4082790760143682,-0.016461351121053833,nan,nan,nan,nan
10.853113174438477,-0.022895033,0.08401819,-3.1822321,-0.002717471895993015,nan,nan,nan,nan,nan,0.8430020809173584,2.0430020809173586,0.006929636001586914,1.0,1.0,1e-05,-9.0,0.8785971096381058,-2.96246063093573e-05,0.10106646284738065,0.004836941028740061,nan,nan,nan,nan
10.955883502960205,0.021653865,0.12798227,-3.3240736,-0.006916465968661266,nan,nan,nan,nan,nan,0.9458158016204834,2.1458158016204836,0.005690574645996094,1.0,1.0,1e-05,-9.0,0.8785971096381059,-0.22004655710755877,0.1879883189476993,0.01595913844402824,nan,nan,nan,nan
11.053073644638062,0.06701885,0.17302655,-3.4476612,-0.005166238708577554,nan,nan,nan,nan,nan,1.0429606437683105,2.2429606437683107,0.005982398986816406,1.0,1.0,1e-05,-9.0,0.8785971096381059,-0.2034924975346617,0.12408221698440765,0.01826900809461184,nan,nan,nan,nan
11.153008460998535,0.1495614,0.25616014,-3.6814787,-4.678097388041008e-05,nan,nan,nan,nan,nan,1.1429564952850342,2.3429564952850344,0.006246805191040039,1.0,1.0,1e-05,-9.0,0.8785971096381059,-0.1256691860140342,0.09680496713191993,0.016473816177992137,nan,nan,nan,nan
11.259780645370483,0.22853109,0.3395854,-3.9258597,0.007395246507006849,nan,nan,nan,nan,nan,1.2496452331542969,2.449645233154297,0.00559544563293457,1.0,1.0,1e-05,-9.0,0.8785971096381059,-0.10716136641130894,0.1312531406531296,0.012720694127283213,nan,nan,nan,nan
11.351438283920288,0.29677042,0.41374514,-4.1631393,0.014634691972176993,nan,nan,nan,nan,nan,1.3412916660308838,2.541291666030884,0.0063648223876953125,1.0,1.0,1e-05,-9.0,0.8785971096381059,-0.14128478776062586,0.1719490546025607,0.005774481211286879,nan,nan,nan,nan
11.459202527999878,0.36344653,0.48951748,-4.431652,0.02364665795152554,nan,nan,nan,nan,nan,1.4491519927978516,2.6491519927978517,0.005722761154174805,1.0,1.0,1e-05,-9.0,0.8785971096381058,-0.2008593900180253,0.21201955470111514,-0.00544842503431462,nan,nan,nan,nan
11.555626630783081,0.45868275,0.5885268,-4.837668,0.030714329891295872,nan,nan,nan,nan,nan,1.5457549095153809,2.745754909515381,0.010376214981079102,1.0,1.0,1e-05,-9.0,0.8785971096381057,-0.2145107819572789,0.22638639133770494,-0.012700363316199554,nan,nan,nan,nan
11.652319431304932,0.5206256,0.6474581,-5.13784,0.03129368277868529,nan,nan,nan,nan,nan,1.6421701908111572,2.8421701908111574,0.0057942867279052734,1.0,1.0,1e-05,-9.0,0.8785971096381059,-0.19604743679033398,0.22577658123929017,-0.0146853705091101,nan,nan,nan,nan
11.751033067703247,0.59760535,0.7156777,-5.595142,0.027913224842820335,nan,nan,nan,nan,nan,1.7409005165100098,2.94090051651001,0.006423234939575195,1.0,1.0,1e-05,-9.0,0.8785971096381057,-0.08495663148877057,0.1526719936683554,-0.01378782521628806,nan,nan,nan,nan
11.85043716430664,0.65231603,0.76058185,-6.0553093,0.023241304316653263,nan,nan,nan,nan,nan,1.8402884006500244,3.0402884006500246,0.006748199462890625,1.0,1.0,1e-05,-9.0,0.8785971096381059,0.08920248476291406,-0.005356559957603437,-0.010602991185144002,nan,nan,nan,nan
11.950430631637573,0.6807099,0.78286004,-6.42979,0.02050759519591923,nan,nan,nan,nan,nan,1.9402880668640137,3.140288066864014,0.006175994873046875,1.0,1.0,1e-05,-9.0,0.8588326192337591,0.2082884200973945,-0.14534688057064504,-0.010095085948428903,nan,nan,nan,nan
12.04750394821167,0.7000519,0.7932899,-6.9067087,0.018250684680135947,nan,nan,nan,nan,nan,2.0373852252960205,3.2373852252960207,0.006879091262817383,1.0,1.0,1e-05,-9.0,0.6995684209169623,0.2459691063485708,-0.2088561138883636,-0.013084924378413102,nan,nan,nan,nan
12.158822298049927,0.7091719,0.7938643,-7.470146,0.01579216013282614,nan,nan,nan,nan,nan,2.148735523223877,3.348735523223877,0.005613803863525391,1.0,1.0,1e-05,-9.0,0.5225008006910832,0.21908242741700912,-0.20890273039710353,-0.014447380104749977,nan,nan,nan,nan
12.25912618637085,0.7077066,0.78527576,-7.957408,0.012945134100650702,nan,nan,nan,nan,nan,2.2490336894989014,3.4490336894989015,0.005405426025390625,1.0,1.0,1e-05,-9.0,0.39291602103629353,0.18202108803841005,-0.1997964026707167,-0.011795645556173032,nan,nan,nan,nan
12.359953165054321,0.7020149,0.7723776,-8.354824,0.01099025929523545,nan,nan,nan,nan,nan,2.349853754043579,3.5498537540435793,0.005320549011230469,1.0,1.0,1e-05,-9.0,0.3447349669215608,0.1753224687344396,-0.20268773890927078,-0.009122728112993047,nan,nan,nan,nan
12.446499586105347,0.6949918,0.7576289,-8.696102,0.010299664349374316,nan,nan,nan,nan,nan,2.436356782913208,3.636356782913208,0.006093502044677734,1.0,1.0,1e-05,-9.0,0.3415502912644669,0.17080894112932973,-0.20173225292809327,-0.007444870019891192,nan,nan,nan,nan
12.547654151916504,0.69208527,0.74753493,-8.992105,0.007875229814107808,nan,nan,nan,nan,nan,2.537510633468628,3.737510633468628,0.006441593170166016,1.0,1.0,1e-05,-9.0,0.3850876168407072,0.1554177858475699,-0.18688746663136396,-0.004123789927269733,nan,nan,nan,nan
12.660079956054688,0.6891201,0.7425189,-9.231831,0.0045120836010880995,nan,nan,nan,nan,nan,2.649989128112793,3.849989128112793,0.0054454803466796875,1.0,1.0,1e-05,-9.0,0.45225295628421414,0.11629845865541316,-0.150655463009393,0.0018687842980227357,nan,nan,nan,nan
12.757949113845825,0.68869066,0.74430525,-9.360433,0.0019680086015793907,nan,nan,nan,nan,nan,2.747880697250366,3.9478806972503664,0.0055789947509765625,1.0,1.0,1e-05,-9.0,0.5007000499295056,0.08050385003521252,-0.11911434606087469,0.006860904042999861,nan,nan,nan,nan
12.8467538356781,0.69111717,0.7524327,-9.468476,-0.0012180796113290537,nan,nan,nan,nan,nan,2.836742401123047,4.036742401123047,0.007234334945678711,1.0,1.0,1e-05,-9.0,0.5433344247463688,0.00869316188708503,-0.060758986656258056,0.013079105881627404,nan,nan,nan,nan
12.953195810317993,0.70644075,0.7795211,-9.555748,-0.006729849173317398,nan,nan,nan,nan,nan,2.9430723190307617,4.143072319030762,0.006101131439208984,1.0,1.0,1e-05,-9.0,0.5915892047966451,-0.1035623838677307,0.036105459247046334,0.02268809719441088,nan,nan,nan,nan
13.056766510009766,0.7231735,0.80710626,-9.593104,-0.009984182286903474,nan,nan,nan,nan,nan,3.0468974113464355,4.246897411346436,0.005842685699462891,1.0,1.0,1e-05,-9.0,0.621789146033979,-0.16742891020961242,0.09419733814363339,0.0298229224198194,nan,nan,nan,nan
13.146312236785889,0.7452842,0.839333,-9.613443,-0.0117746029511844,nan,nan,nan,nan,nan,3.136441230773926,4.336441230773926,0.006757497787475586,1.0,1.0,1e-05,-9.0,0.6430237394921776,-0.20944253630371157,0.13955987727149496,0.03448029026858787,nan,nan,nan,nan
13.260325908660889,0.7851581,0.8890105,-9.617269,-0.011482326014913856,nan,nan,nan,nan,nan,3.2504615783691406,4.450461578369141,0.005496978759765625,1.0,1.0,1e-05,-9.0,0.6755601611914327,-0.22744753385864203,0.18464062601759748,0.035868533705061725,nan,nan,nan,nan
13.348346710205078,0.8173553,0.9231579,-9.608065,-0.010569323225617816,nan,nan,nan,nan,nan,3.3381996154785156,4.538199615478516,0.006379127502441406,1.0,1.0,1e-05,-9.0,0.6878980411984074,-0.21419895114829723,0.19230507763427265,0.035617736666651814,nan,nan,nan,nan
13.44825291633606,0.8630551,0.97543705,-9.592762,-0.00872066905528602,nan,nan,nan,nan,nan,3.438119649887085,4.638119649887085,0.006199836730957031,1.0,1.0,1e-05,-9.0,0.7060440047805971,-0.16895274614525663,0.17878568834503236,0.03172188147333049,nan,nan,nan,nan
13.554253816604614,0.91825515,1.0310287,-9.572729,-0.0067719452401199184,nan,nan,nan,nan,nan,3.544119119644165,4.744119119644165,0.006298542022705078,1.0,1.0,1e-05,-9.0,0.719507773981878,-0.11660360481164814,0.15263857919465101,0.02653661894214257,nan,nan,nan,nan
13.653214693069458,0.9618798,1.0657618,-9.552456,-0.005413498022174203,nan,nan,nan,nan,nan,3.6430790424346924,4.843079042434693,0.009853363037109375,1.0,1.0,1e-05,-9.0,0.7267049914984273,-0.08028013440321219,0.13502645447178144,0.023061514580224436,nan,nan,nan,nan
13.756622314453125,1.0224402,1.1114969,-9.519656,-0.003241261626510245,nan,nan,nan,nan,nan,3.7465362548828125,4.946536254882813,0.005832195281982422,1.0,1.0,1e-05,-9.0,0.737044706923418,-0.019357538697683425,0.10529114060231179,0.016619701083052718,nan,nan,nan,nan
13.857506513595581,1.054375,1.1387569,-9.500109,-0.001880771774474467,nan,nan,nan,nan,nan,3.8475327491760254,5.047532749176026,0.005451202392578125,1.0,1.0,1e-05,-9.0,0.741362801397195,0.010820954735248276,0.06609537240477871,0.012300722458958383,nan,nan,nan,nan
13.960021495819092,1.102953,1.1688291,-9.46726,-0.00016396414238869714,nan,nan,nan,nan,nan,3.9502146244049072,5.150214624404907,0.005881547927856445,1.0,1.0,1e-05,-9.0,0.7454507134110431,0.04237670103257419,0.02393077326433957,0.007507058001816719,nan,nan,nan,nan
14.058915615081787,1.129417,1.1817126,-9.448394,0.0007095579655399462,nan,nan,nan,nan,nan,4.048799276351929,5.248799276351929,0.0057833194732666016,1.0,1.0,1e-05,-9.0,0.7464603188101366,0.06053915879996062,-0.003369609497381558,0.004629900197465323,nan,nan,nan,nan
14.158158779144287,1.1527306,1.19039,-9.433375,0.001579033258532054,nan,nan,nan,nan,nan,4.148437023162842,5.348437023162842,0.0055849552154541016,1.0,1.0,1e-05,-9.0,0.7451962897013725,0.07636576099211977,-0.03442075149864903,0.002185642238460583,nan,nan,nan,nan
14.247909784317017,1.1657861,1.1927568,-9.426642,0.002339463124038859,nan,nan,nan,nan,nan,4.237783193588257,5.437783193588257,0.006526470184326172,1.0,1.0,1e-05,-9.0,0.7420179173779475,0.08208180355118479,-0.055825542143401734,0.0006716902323124135,nan,nan,nan,nan
14.346872091293335,1.1684859,1.1907146,-9.425256,0.0022893617045966694,nan,nan,nan,nan,nan,4.336797714233398,5.536797714233399,0.005453824996948242,1.0,1.0,1e-05,-9.0,0.7363181906710363,0.08103287958924145,-0.08903987000740432,0.00012221353982027786,nan,nan,nan,nan
14.451582193374634,1.1639271,1.185914,-9.428022,4.887339588654366e-06,nan,nan,nan,nan,nan,4.441439867019653,5.6414398670196535,0.00702357292175293,1.0,1.0,1e-05,-9.0,0.7328163848284838,0.07286513878442454,-0.10343342239041545,0.0024573787917282074,nan,nan,nan,nan
14.551379680633545,1.1498835,1.1735417,-9.4328375,-0.003966069002210591,nan,nan,nan,nan,nan,4.5412468910217285,5.741246891021729,0.012067794799804688,1.0,1.0,1e-05,-9.0,0.7290444259416602,0.058727301976700674,-0.11358093018529505,0.008202800371778625,nan,nan,nan,nan
14.65251350402832,1.1365587,1.1631042,-9.437049,-0.005908481662327292,nan,nan,nan,nan,nan,4.642439126968384,5.842439126968384,0.0065250396728515625,1.0,1.0,1e-05,-9.0,0.7278002196232329,0.052741314343904194,-0.11141230025537328,0.011413005319633416,nan,nan,nan,nan
14.748758792877197,1.1162862,1.1486889,-9.443558,-0.00683013059137714,nan,nan,nan,nan,nan,4.73862886428833,5.93862886428833,0.00622868537902832,1.0,1.0,1e-05,-9.0,0.7260053234549317,0.04467294937409863,-0.10093316159131546,0.013957135664768838,nan,nan,nan,nan
14.855145692825317,1.0911212,1.1359581,-9.449419,-0.007762644398088054,nan,nan,nan,nan,nan,4.845017671585083,6.045017671585083,0.005853414535522461,1.0,1.0,1e-05,-9.0,0.7256207702570933,0.030222539698801,-0.08177091437204664,0.015679554705639486,nan,nan,nan,nan
14.95000147819519,1.078171,1.1327173,-9.450986,-0.007314949306453418,nan,nan,nan,nan,nan,4.939861059188843,6.139861059188843,0.006506204605102539,1.0,1.0,1e-05,-9.0,0.7263880960269168,0.0141511730687683,-0.061447471952417246,0.016139203965824696,nan,nan,nan,nan
15.059888362884521,1.0674014,1.1264591,-9.445156,-0.005418046125664995,nan,nan,nan,nan,nan,5.049906969070435,6.249906969070435,0.005282402038574219,1.0,1.0,1e-05,-9.0,0.7284789552890437,-0.005008717004509913,-0.02502584741702832,0.014707555729768082,nan,nan,nan,nan
15.1566002368927,1.0620246,1.1189626,-9.43499,-0.0027548178951149614,nan,nan,nan,nan,nan,5.146503925323486,6.3465039253234865,0.005786895751953125,1.0,1.0,1e-05,-9.0,0.7314129404796968,-0.010738499521812092,0.010763302158298028,0.011283325925798213,nan,nan,nan,nan
15.256567239761353,1.0598569,1.1144909,-9.429229,-0.0013913900262777657,nan,nan,nan,nan,nan,5.2466113567352295,6.44661135673523,0.005657672882080078,1.0,1.0,1e-05,-9.0,0.7331125536071851,-0.009593370884436441,0.027375171549179133,0.009243928810970286,nan,nan,nan,nan
15.352232933044434,1.0563706,1.1126016,-9.426497,-0.001172585774135048,nan,nan,nan,nan,nan,5.342106819152832,6.542106819152832,0.008849859237670898,1.0,1.0,1e-05,-9.0,0.7324508427727676,-0.0146552233423091,0.035611917997872784,0.008646671569031735,nan,nan,nan,nan
15.45254635810852,1.0563725,1.1166846,-9.426531,-0.0021815272002413317,nan,nan,nan,nan,nan,5.442406892776489,6.642406892776489,0.008058309555053711,1.0,1.0,1e-05,-9.0,0.7314594399034935,-0.02267020929933326,0.035769038278155266,0.009535617548499596,nan,nan,nan,nan
15.553743124008179,1.0543481,1.1216697,-9.423271,-0.0031702249373245193,nan,nan,nan,nan,nan,5.54360032081604,6.74360032081604,0.00613093376159668,1.0,1.0,1e-05,-9.0,0.7306197797684983,-0.032851729280551904,0.03255835115157038,0.011430739702007085,nan,nan,nan,nan
15.651625394821167,1.0528722,1.1270704,-9.41931,-0.003382289995790812,nan,nan,nan,nan,nan,5.64148473739624,6.84148473739624,0.0072286128997802734,1.0,1.0,1e-05,-9.0,0.7309411616593066,-0.033561912757376425,0.023446897379031287,0.011964872085264703,nan,nan,nan,nan
15.750909090042114,1.0536484,1.1322298,-9.418803,-0.003257337895830168,nan,nan,nan,nan,nan,5.740776062011719,6.940776062011719,0.008142709732055664,1.0,1.0,1e-05,-9.0,0.73057935433577,-0.029894138934225527,0.01797042095795421,0.011996545433379342,nan,nan,nan,nan
15.851364374160767,1.0553267,1.1384039,-9.422508,-0.002947534605433838,nan,nan,nan,nan,nan,5.841222286224365,7.041222286224365,0.008535623550415039,1.0,1.0,1e-05,-9.0,0.7288992891242125,-0.02706644562570149,0.015363143002197405,0.01160776399772236,nan,nan,nan,nan
15.951622486114502,1.0576661,1.1468925,-9.421086,-0.0024298194481482205,nan,nan,nan,nan,nan,5.941503524780273,7.141503524780274,0.009378671646118164,1.0,1.0,1e-05,-9.0,0.7284456862162454,-0.019233744903426254,0.010848025438304537,0.010748007511886976,nan,nan,nan,nan
16.05516028404236,1.0616821,1.1519426,-9.417673,-0.0018611376009211459,nan,nan,nan,nan,nan,6.0450217723846436,7.245021772384644,0.006043434143066406,1.0,1.0,1e-05,-9.0,0.7291852991488732,-0.00993547667992288,0.00962868133711515,0.009842262579563924,nan,nan,nan,nan
16.152862787246704,1.0700442,1.1583428,-9.413192,-0.0005329798268055705,nan,nan,nan,nan,nan,6.142763137817383,7.342763137817383,0.006449222564697266,1.0,1.0,1e-05,-9.0,0.7301967239907858,0.0003076676124930919,0.012915133191805575,0.007995376636010312,nan,nan,nan,nan
16.24897289276123,1.0788242,1.163643,-9.411484,0.0007957348446287066,nan,nan,nan,nan,nan,6.238851547241211,7.438851547241211,0.006068229675292969,1.0,1.0,1e-05,-9.0,0.7302911701201278,0.0042098540892053825,0.019223268779575156,0.00595656800076011,nan,nan,nan,nan
16.35813021659851,1.0850521,1.1641214,-9.412826,0.001236638844728473,nan,nan,nan,nan,nan,6.348096132278442,7.548096132278443,0.005501747131347656,1.0,1.0,1e-05,-9.0,0.7294300481865645,0.01068441977733997,0.015151762120026366,0.004795065410145083,nan,nan,nan,nan
16.456403732299805,1.0942105,1.1644444,-9.406529,0.0009697814161014808,nan,nan,nan,nan,nan,6.446264266967773,7.646264266967774,0.005969524383544922,1.0,1.0,1e-05,-9.0,0.730011115416246,0.014975873759992271,0.010843714325041009,0.004645582595569453,nan,nan,nan,nan
16.538695096969604,1.0995424,1.1642519,-9.403511,0.0007969299989487675,nan,nan,nan,nan,nan,6.52855110168457,7.7285511016845705,0.010606527328491211,1.0,1.0,1e-05,-9.0,0.7306630752758267,0.015567724126062193,0.008655926280786612,0.004818875875110817,nan,nan,nan,nan
16.652491807937622,1.1033962,1.1626644,-9.401956,0.0006849521837556131,nan,nan,nan,nan,nan,6.6423845291137695,7.84238452911377,0.009732961654663086,1.0,1.0,1e-05,-9.0,0.7304276165507613,0.014839651907537865,0.004264437421061109,0.004683353538466731,nan,nan,nan,nan
16.753960847854614,1.1035217,1.1592752,-9.400879,0.00022438877875055087,nan,nan,nan,nan,nan,6.743849515914917,7.943849515914917,0.005983829498291016,1.0,1.0,1e-05,-9.0,0.7300537136713181,0.013104984668979788,-0.007844856616935507,0.005205728557584365,nan,nan,nan,nan
16.849202632904053,1.1021148,1.1570332,-9.397968,-0.0002914581946382726,nan,nan,nan,nan,nan,6.8390913009643555,8.039091300964355,0.005494356155395508,1.0,1.0,1e-05,-9.0,0.7302292557230118,0.010598620989034684,-0.015255307979918177,0.005783407731475425,nan,nan,nan,nan
16.952457427978516,1.0982755,1.1506922,-9.395241,-0.0006477716052628209,nan,nan,nan,nan,nan,6.942343711853027,8.142343711853027,0.007722616195678711,1.0,1.0,1e-05,-9.0,0.7304567582190132,0.01064186624547003,-0.02166663233701089,0.006512216194938934,nan,nan,nan,nan
17.05178689956665,1.0931178,1.1451461,-9.395621,-0.0007095355880218785,nan,nan,nan,nan,nan,7.04172158241272,8.241721582412719,0.006018877029418945,1.0,1.0,1e-05,-9.0,0.7300781012858798,0.013210870215030576,-0.02296413529554157,0.006596154702600051,nan,nan,nan,nan
17.148963451385498,1.0847952,1.138035,-9.398795,-0.0007054105418488208,nan,nan,nan,nan,nan,7.13889217376709,8.33889217376709,0.0054781436920166016,1.0,1.0,1e-05,-9.0,0.7288946198666709,0.01638690327583303,-0.02906795642450186,0.00682486891962482,nan,nan,nan,nan
17.252832889556885,1.0722661,1.1321545,-9.407399,-0.001114385155520592,nan,nan,nan,nan,nan,7.242705583572388,8.442705583572387,0.007539987564086914,1.0,1.0,1e-05,-9.0,0.7263687984749019,0.011652286091780973,-0.033184398342845575,0.007437716759896425,nan,nan,nan,nan
17.351210832595825,1.0643297,1.1247191,-9.409498,-0.0010335600478579721,nan,nan,nan,nan,nan,7.341110944747925,8.541110944747924,0.005820512771606445,1.0,1.0,1e-05,-9.0,0.7261640879497102,0.01343894702053302,-0.03181645020852293,0.0076650605850906925,nan,nan,nan,nan
17.446866512298584,1.0600237,1.1141,-9.410772,-0.00040476920020114464,nan,nan,nan,nan,nan,7.436755657196045,8.636755657196044,0.005532264709472656,1.0,1.0,1e-05,-9.0,0.726548127829141,0.016502773361357585,-0.02026375724096278,0.007240671533767308,nan,nan,nan,nan
17.558666229248047,1.0593046,1.1058263,-9.412906,0.0005525896328447051,nan,nan,nan,nan,nan,7.548559904098511,8.74855990409851,0.005601167678833008,1.0,1.0,1e-05,-9.0,0.7271714381678174,0.017173533229214423,-0.0010078541448380514,0.0060457736191766465,nan,nan,nan,nan
17.656116008758545,1.0595489,1.1010752,-9.413378,0.0013700926392552705,nan,nan,nan,nan,nan,7.645991802215576,8.845991802215575,0.006088972091674805,1.0,1.0,1e-05,-9.0,0.7267376666613757,0.010092835762555442,0.014826394491889787,0.004909111840093882,nan,nan,nan,nan
17.75789499282837,1.0604886,1.1005876,-9.40938,0.001742486105664107,nan,nan,nan,nan,nan,7.74777626991272,8.947776269912719,0.006135225296020508,1.0,1.0,1e-05,-9.0,0.7285842123404257,-0.0008223022811422997,0.020992177423193148,0.0044868422620217745,nan,nan,nan,nan
17.859836101531982,1.0639635,1.1084262,-9.407609,0.0017227022633914163,nan,nan,nan,nan,nan,7.8497443199157715,9.04974431991577,0.005656719207763672,1.0,1.0,1e-05,-9.0,0.7293394291789357,-0.028031787295422446,0.02585885371692872,0.004722726181991797,nan,nan,nan,nan
17.95306706428528,1.0662911,1.1153196,-9.411367,0.0015398909016124925,nan,nan,nan,nan,nan,7.942948579788208,9.142948579788207,0.010022163391113281,1.0,1.0,1e-05,-9.0,0.7282895340804741,-0.04216361305128605,0.023557657657360197,0.005074051240749885,nan,nan,nan,nan
18.049652099609375,1.0703673,1.1214873,-9.417676,0.0014880589001161518,nan,nan,nan,nan,nan,8.03976321220398,9.239763212203979,0.0071735382080078125,1.0,1.0,1e-05,-9.0,0.7264911789190548,-0.045006212400624315,0.01895593015318282,0.005274088727645745,nan,nan,nan,nan
18.153300762176514,1.0747273,1.1258811,-9.423998,0.0016743109223853305,nan,nan,nan,nan,nan,8.143168210983276,9.343168210983276,0.00748753547668457,1.0,1.0,1e-05,-9.0,0.7242803844192559,-0.03753632342780886,0.017946554174228198,0.005014114315367127,nan,nan,nan,nan
18.257075786590576,1.0819266,1.1393608,-9.426322,0.0017222113063179016,nan,nan,nan,nan,nan,8.246939182281494,9.446939182281493,0.006304740905761719,1.0,1.0,1e-05,-9.0,0.7244034037786605,-0.0339331404691803,0.01787377175479008,0.00480063309621841,nan,nan,nan,nan
18.357643842697144,1.0860316,1.1460143,-9.422953,0.0017010925476595691,nan,nan,nan,nan,nan,8.347505569458008,9.547505569458007,0.0058803558349609375,1.0,1.0,1e-05,-9.0,0.72581333117823,-0.026180300217063603,0.015407821807827928,0.004697717401451604,nan,nan,nan,nan
18.44753074645996,1.090444,1.1470344,-9.420616,0.0018756156039848029,nan,nan,nan,nan,nan,8.437415361404419,9.637415361404418,0.005332231521606445,1.0,1.0,1e-05,-9.0,0.727086548885217,-0.00884790148824438,0.011191243422997446,0.004315432807256884,nan,nan,nan,nan
18.54908514022827,1.0920833,1.144606,-9.41839,0.0021612528155556896,nan,nan,nan,nan,nan,8.53900933265686,9.73900933265686,0.005526304244995117,1.0,1.0,1e-05,-9.0,0.7274913990015921,0.011939980402784755,0.0069270628829634405,0.003601397692984657,nan,nan,nan,nan
18.65149474143982,1.0902091,1.1404438,-9.412588,0.0024411462884632844,nan,nan,nan,nan,nan,8.64136552810669,9.841365528106689,0.006922006607055664,1.0,1.0,1e-05,-9.0,0.7286792966776736,0.03132303345097021,-0.0049714816132174384,0.0028550478545674523,nan,nan,nan,nan
18.753856420516968,1.0857552,1.1372147,-9.400014,0.002551513684644662,nan,nan,nan,nan,nan,8.743739604949951,9.94373960494995,0.006464719772338867,1.0,1.0,1e-05,-9.0,0.731819936701258,0.03561057451337794,-0.016270977856298136,0.0025457345313641922,nan,nan,nan,nan
18.850715398788452,1.0791721,1.1371258,-9.393774,0.0024553357571675317,nan,nan,nan,nan,nan,8.840596437454224,10.040596437454223,0.005692005157470703,1.0,1.0,1e-05,-9.0,0.7332888120134314,0.02625854404005984,-0.025634596168236875,0.002616283354554607,nan,nan,nan,nan
18.949961185455322,1.0714313,1.1332494,-9.390185,0.00240649862400809,nan,nan,nan,nan,nan,8.939855098724365,10.139855098724365,0.006224870681762695,1.0,1.0,1e-05,-9.0,0.7327756498976455,0.015534120685261487,-0.02987463474599326,0.002859808506352129,nan,nan,nan,nan
19.056965827941895,1.061559,1.1245763,-9.385885,0.002623039662253709,nan,nan,nan,nan,nan,9.047146320343018,10.247146320343017,0.005901336669921875,1.0,1.0,1e-05,-9.0,0.732367217624951,0.013350217593457418,-0.03137709157104067,0.002838349698120951,nan,nan,nan,nan
19.15669298171997,1.0568265,1.1185093,-9.384191,0.002915559260699874,nan,nan,nan,nan,nan,9.146574258804321,10.34657425880432,0.00579833984375,1.0,1.0,1e-05,-9.0,0.7323140814255816,0.014751869423213921,-0.024086649708331645,0.0025092811165360164,nan,nan,nan,nan
19.25769305229187,1.0483516,1.1152633,-9.378114,0.0031667411670836198,nan,nan,nan,nan,nan,9.247602939605713,10.447602939605712,0.0064280033111572266,1.0,1.0,1e-05,-9.0,0.7327647140282474,0.008445978274985949,-0.016823748382886312,0.0024060293900086123,nan,nan,nan,nan
19.35226821899414,1.0474529,1.114744,-9.376375,0.003289533063607554,nan,nan,nan,nan,nan,9.342159748077393,10.542159748077392,0.006929636001586914,1.0,1.0,1e-05,-9.0,0.7325245617426347,0.0012089889956362183,-0.007312641850092274,0.002398271784273034,nan,nan,nan,nan
19.454955101013184,1.0450482,1.1143231,-9.3755245,0.0033534602658745766,nan,nan,nan,nan,nan,9.444819688796997,10.644819688796996,0.008548974990844727,1.0,1.0,1e-05,-9.0,0.7313035871670005,-0.008010791015197494,0.006260300850253288,0.0024447992310682154,nan,nan,nan,nan
19.55663537979126,1.0401424,1.1133975,-9.375428,0.00344425504041647,nan,nan,nan,nan,nan,9.546525478363037,10.746525478363036,0.007536172866821289,1.0,1.0,1e-05,-9.0,0.7304033883405165,-0.0127394833749256,0.010721087567083653,0.002546941173244696,nan,nan,nan,nan
19.64720630645752,1.0321687,1.1112647,-9.377767,0.0036789821706010393,nan,nan,nan,nan,nan,9.6371328830719,10.837132883071899,0.0055844783782958984,1.0,1.0,1e-05,-9.0,0.7296469357392285,-0.009881568077902922,0.0012096232826941183,0.0023790291917142096,nan,nan,nan,nan
19.747637271881104,1.0250345,1.1095946,-9.386182,0.0038545685804268646,nan,nan,nan,nan,nan,9.737714529037476,10.937714529037475,0.005602598190307617,1.0,1.0,1e-05,-9.0,0.7273444538815881,-0.005171539413624254,-0.006231770057485054,0.0022008344262951915,nan,nan,nan,nan
19.848626852035522,1.0159123,1.1096668,-9.395948,0.004501027162660263,nan,nan,nan,nan,nan,9.838523149490356,11.038523149490356,0.005336761474609375,1.0,1.0,1e-05,-9.0,0.7248317440344867,-0.0023268434517782774,-0.011338904326796578,0.0018103588605358223,nan,nan,nan,nan
19.948907136917114,1.0115231,1.1094197,-9.401088,0.00511017118163843,nan,nan,nan,nan,nan,9.939003705978394,11.139003705978393,0.005380868911743164,1.0,1.0,1e-05,-9.0,0.7232779422728839,-0.003945229936283673,-0.014775199132264681,0.0008441424993845632,nan,nan,nan,nan
20.048150777816772,1.00968,1.1053656,-9.404727,0.005801480758144036,nan,nan,nan,nan,nan,10.038092613220215,11.238092613220214,0.005403041839599609,1.0,1.0,1e-05,-9.0,0.7236547060007144,-0.0021067410410919437,-0.004543024766140459,-9.42409339767646e-05,nan,nan,nan,nan
20.149901628494263,1.009914,1.0985783,-9.40542,0.0061327307841671525,nan,nan,nan,nan,nan,10.139795303344727,11.339795303344726,0.005316019058227539,1.0,1.0,1e-05,-9.0,0.7251304671397633,0.011306659523470299,0.0036562026686526423,-0.0007105134181871872,nan,nan,nan,nan
20.25216054916382,1.011485,1.0853139,-9.405351,0.006604082005498264,nan,nan,nan,nan,nan,10.24204134941101,11.44204134941101,0.006130695343017578,1.0,1.0,1e-05,-9.0,0.7263359813202892,0.027779420631141142,0.01209516327069906,-0.00146108841357217,nan,nan,nan,nan
20.352064847946167,1.0186262,1.0763171,-9.412894,0.00702627609143857,nan,nan,nan,nan,nan,10.341936826705933,11.541936826705932,0.005923271179199219,1.0,1.0,1e-05,-9.0,0.7257761944032075,0.03329290061411876,0.02024202917975492,-0.0021547943287630908,nan,nan,nan,nan
20.451003551483154,1.024687,1.0713067,-9.420207,0.007362510149838296,nan,nan,nan,nan,nan,10.44088625907898,11.640886259078979,0.005527019500732422,1.0,1.0,1e-05,-9.0,0.723739543907403,0.02712069333767903,0.02994412096459287,-0.0027925032609655794,nan,nan,nan,nan
20.55470609664917,1.0340886,1.0668529,-9.4286785,0.007868272336860908,nan,nan,nan,nan,nan,10.544574737548828,11.744574737548827,0.007259845733642578,1.0,1.0,1e-05,-9.0,0.7223943182702921,0.011542249688755649,0.02974705644881745,-0.003266826033529057,nan,nan,nan,nan
20.65924906730652,1.0427699,1.0655427,-9.431706,0.008019301681157843,nan,nan,nan,nan,nan,10.649107933044434,11.849107933044433,0.006240367889404297,1.0,1.0,1e-05,-9.0,0.7232287957233019,-0.003315135008893528,0.029916432889952965,-0.003701250278473951,nan,nan,nan,nan
20.74734377861023,1.055671,1.0653615,-9.435359,0.008036583867079459,nan,nan,nan,nan,nan,10.737437725067139,11.937437725067138,0.005398750305175781,1.0,1.0,1e-05,-9.0,0.7235891365871872,-0.015339273244181663,0.032397602973694845,-0.0037747951969984823,nan,nan,nan,nan
20.859331369400024,1.068425,1.0664397,-9.434953,0.007928753711754728,nan,nan,nan,nan,nan,10.849195957183838,12.049195957183837,0.006925821304321289,1.0,1.0,1e-05,-9.0,0.724919534130364,-0.022140459309262315,0.02795142532416623,-0.003545790755756887,nan,nan,nan,nan
20.957151889801025,1.076979,1.0721109,-9.435014,0.008001905818138685,nan,nan,nan,nan,nan,10.947017192840576,12.147017192840575,0.006618499755859375,1.0,1.0,1e-05,-9.0,0.7259296796450365,-0.02401939268785913,0.018755109585882314,-0.0035603358462442717,nan,nan,nan,nan
21.055384159088135,1.0824623,1.0789009,-9.437253,0.00829224597998193,nan,nan,nan,nan,nan,11.045246124267578,12.245246124267577,0.007646083831787109,1.0,1.0,1e-05,-9.0,0.7256682434265523,-0.031039220370828777,0.007165331757744856,-0.004048537667112602,nan,nan,nan,nan
21.15786862373352,1.0851349,1.0918696,-9.44062,0.009353509206576596,nan,nan,nan,nan,nan,11.147738933563232,12.347738933563232,0.010207653045654297,1.0,1.0,1e-05,-9.0,0.725032377762661,-0.040050752383827,-0.008125028703285155,-0.005286625324631848,nan,nan,nan,nan
21.252877950668335,1.0877938,1.1009265,-9.432393,0.009961521863236525,nan,nan,nan,nan,nan,11.242796897888184,12.442796897888183,0.006403684616088867,1.0,1.0,1e-05,-9.0,0.726745426752925,-0.03939736506628927,-0.01613482833642557,-0.00622725652991022,nan,nan,nan,nan
21.3547682762146,1.0908189,1.106976,-9.428963,0.010158213260142926,nan,nan,nan,nan,nan,11.344637393951416,12.544637393951415,0.007303476333618164,1.0,1.0,1e-05,-9.0,0.7289462388933439,-0.025004547372714507,-0.018896563303120815,-0.0068758969122876224,nan,nan,nan,nan
21.454716682434082,1.0953833,1.1110066,-9.43165,0.009884424796163641,nan,nan,nan,nan,nan,11.444586992263794,12.644586992263793,0.006842851638793945,1.0,1.0,1e-05,-9.0,0.7279312103859339,-0.005616513596917349,-0.014650187747150722,-0.006875528789273896,nan,nan,nan,nan
21.556384563446045,1.1001555,1.114186,-9.43508,0.009161071069998406,nan,nan,nan,nan,nan,11.546245813369751,12.74624581336975,0.00800180435180664,1.0,1.0,1e-05,-9.0,0.7261019106827786,0.009315518149866588,-0.002900907485211629,-0.006199083431934112,nan,nan,nan,nan
21.649725914001465,1.100024,1.1150795,-9.434283,0.008474574717260281,nan,nan,nan,nan,nan,11.639612197875977,12.839612197875976,0.005338907241821289,1.0,1.0,1e-05,-9.0,0.7268338666267258,0.01860351844366524,-0.004489958656751748,-0.005330001550813219,nan,nan,nan,nan
21.749117136001587,1.0983912,1.1153928,-9.428435,0.008024967544012149,nan,nan,nan,nan,nan,11.73904800415039,12.93904800415039,0.005458831787109375,1.0,1.0,1e-05,-9.0,0.728287945877028,0.022219598846065985,-0.009034984512364825,-0.004724482470781251,nan,nan,nan,nan
21.847005605697632,1.0921079,1.115136,-9.419981,0.007626740769131741,nan,nan,nan,nan,nan,11.836998224258423,13.036998224258422,0.005415916442871094,1.0,1.0,1e-05,-9.0,0.7307741793529581,0.021896166719917207,-0.019624528499643062,-0.004149246207812451,nan,nan,nan,nan
21.949398279190063,1.0870972,1.1142086,-9.413952,0.0074294499757885475,nan,nan,nan,nan,nan,11.93927812576294,13.139278125762939,0.005496978759765625,1.0,1.0,1e-05,-9.0,0.7317945876253701,0.018523065262414738,-0.026965760112573702,-0.003906474563229887,nan,nan,nan,nan
22.048534870147705,1.0872517,1.1116422,-9.409559,0.007131610788091639,nan,nan,nan,nan,nan,12.038497924804688,13.238497924804687,0.005500316619873047,1.0,1.0,1e-05,-9.0,0.7323169239411054,0.013769122119897148,-0.018380445722884064,-0.0034632217859587758,nan,nan,nan,nan
22.14842391014099,1.0936713,1.109919,-9.4082155,0.006615670691214602,nan,nan,nan,nan,nan,12.13842511177063,13.33842511177063,0.0053904056549072266,1.0,1.0,1e-05,-9.0,0.7314124523264712,0.009045315112418002,0.0013313485908468257,-0.0027512223611631022,nan,nan,nan,nan
22.256117820739746,1.098888,1.1043105,-9.410981,0.006111257197587285,nan,nan,nan,nan,nan,12.245975732803345,13.445975732803344,0.007642030715942383,1.0,1.0,1e-05,-9.0,0.7295863150955673,0.010228684909196165,0.015203065041840356,-0.002127504731266332,nan,nan,nan,nan
22.348828315734863,1.1035253,1.0954709,-9.410354,0.005704553662988424,nan,nan,nan,nan,nan,12.339086771011353,13.539086771011352,0.005748748779296875,1.0,1.0,1e-05,-9.0,0.728586032992497,0.01789870537434048,0.021745740779135277,-0.0015777004387328476,nan,nan,nan,nan
22.45911478996277,1.1082159,1.0807217,-9.406092,0.0051600300042063535,nan,nan,nan,nan,nan,12.448997020721436,13.648997020721435,0.006368875503540039,1.0,1.0,1e-05,-9.0,0.7288618278735585,0.029849344964839458,0.02345582857181126,-0.0011529461996408982,nan,nan,nan,nan
22.545796155929565,1.1086357,1.0687073,-9.4002495,0.004791871978213384,nan,nan,nan,nan,nan,12.535678148269653,13.735678148269653,0.0057871341705322266,1.0,1.0,1e-05,-9.0,0.730556107516784,0.03349274316390321,0.013646745951866157,-0.0005594396890039604,nan,nan,nan,nan
22.649548053741455,1.1085335,1.0639833,-9.400128,0.004561099817961493,nan,nan,nan,nan,nan,12.639433860778809,13.839433860778808,0.005440235137939453,1.0,1.0,1e-05,-9.0,0.7303096448794774,0.024285393562532544,0.004506327218551004,-0.0002911205328710207,nan,nan,nan,nan
22.749422073364258,1.1148869,1.0633754,-9.402474,0.004343379264388969,nan,nan,nan,nan,nan,12.739325761795044,13.939325761795043,0.005596637725830078,1.0,1.0,1e-05,-9.0,0.7289832962781645,0.0018220066898656055,0.00435731910327327,0.00020303175053191,nan,nan,nan,nan
22.856363773345947,1.1224775,1.0672593,-9.4058,0.004141114178887451,nan,nan,nan,nan,nan,12.846228837966919,14.046228837966918,0.006565570831298828,1.0,1.0,1e-05,-9.0,0.7273479430255243,-0.026820812350863775,0.010927904109334691,0.0008307397235619068,nan,nan,nan,nan
22.95789623260498,1.127151,1.0710945,-9.40829,0.004057876680850489,nan,nan,nan,nan,nan,12.94778037071228,14.14778037071228,0.006681203842163086,1.0,1.0,1e-05,-9.0,0.7268010930123358,-0.03856187681313405,0.009326271748668631,0.0009938656519114578,nan,nan,nan,nan
23.0568687915802,1.1360288,1.0752739,-9.413707,0.0037796494632879683,nan,nan,nan,nan,nan,13.046769618988037,14.246769618988036,0.006861448287963867,1.0,1.0,1e-05,-9.0,0.7254352142764187,-0.04066254063276916,0.014991232017741222,0.0013887869593827893,nan,nan,nan,nan
23.159775733947754,1.1401876,1.0795331,-9.417998,0.0035197985320726643,nan,nan,nan,nan,nan,13.149662494659424,14.349662494659423,0.005852699279785156,1.0,1.0,1e-05,-9.0,0.7246884318233877,-0.035254977975690056,0.012951512217880342,0.0017138404647189464,nan,nan,nan,nan
23.25687837600708,1.1431553,1.0853434,-9.423765,0.0032961445044282682,nan,nan,nan,nan,nan,13.246767520904541,14.44676752090454,0.0066645145416259766,1.0,1.0,1e-05,-9.0,0.7238626265781213,-0.022475061504959173,0.0037777429817591464,0.0019373129484096506,nan,nan,nan,nan
23.356817483901978,1.1417723,1.0889342,-9.42313,0.00343713475688802,nan,nan,nan,nan,nan,13.346681594848633,14.546681594848632,0.0065402984619140625,1.0,1.0,1e-05,-9.0,0.7239161222763942,-0.014338176252077556,-0.004231387033477086,0.0018420581854813015,nan,nan,nan,nan
23.4537832736969,1.1396351,1.0908169,-9.418373,0.0038592427918042937,nan,nan,nan,nan,nan,13.443712949752808,14.643712949752807,0.005591154098510742,1.0,1.0,1e-05,-9.0,0.7262238270699426,-0.0013346850400683648,-0.019850990236737826,0.0011444207303699123,nan,nan,nan,nan
23.55344533920288,1.1413782,1.0895824,-9.414942,0.004087042010299673,nan,nan,nan,nan,nan,13.543304681777954,14.743304681777953,0.0057561397552490234,1.0,1.0,1e-05,-9.0,0.7280982687670604,0.010905560956299437,-0.016066231383944994,0.0006574528735609082,nan,nan,nan,nan
23.65289330482483,1.1359516,1.0864061,-9.406569,0.004452062056728596,nan,nan,nan,nan,nan,13.642769575119019,14.842769575119018,0.005189180374145508,1.0,1.0,1e-05,-9.0,0.7300366939409851,0.01994820270754103,-0.018444157727059946,0.00015547077064973362,nan,nan,nan,nan
23.75930643081665,1.13403,1.0807738,-9.400997,0.004705198039877164,nan,nan,nan,nan,nan,13.749166488647461,14.94916648864746,0.007451295852661133,1.0,1.0,1e-05,-9.0,0.731076509575658,0.02661802192863594,-0.016668267557087283,-0.0002469355310753368,nan,nan,nan,nan
23.857527256011963,1.1320274,1.0764735,-9.395766,0.0048410880066432765,nan,nan,nan,nan,nan,13.84741997718811,15.04741997718811,0.007001399993896484,1.0,1.0,1e-05,-9.0,0.7314580364425997,0.028951998583303773,-0.011616553068896291,-0.0005189122806686995,nan,nan,nan,nan
23.95439052581787,1.1298064,1.0724416,-9.390402,0.004778253827571946,nan,nan,nan,nan,nan,13.944271802902222,15.144271802902221,0.005738258361816406,1.0,1.0,1e-05,-9.0,0.7323782483777268,0.01992161257864813,-0.006121483343400472,-0.00036253691415400477,nan,nan,nan,nan
24.05223321914673,1.1292886,1.0701274,-9.391124,0.004642221427563031,nan,nan,nan,nan,nan,14.04215693473816,15.242156934738158,0.005424022674560547,1.0,1.0,1e-05,-9.0,0.7314770507408744,0.012124436838625732,-0.0008286097285517308,-0.00013657088782005502,nan,nan,nan,nan
24.149240255355835,1.1266598,1.0677006,-9.389682,0.00450851238928967,nan,nan,nan,nan,nan,14.139139413833618,15.339139413833617,0.005814075469970703,1.0,1.0,1e-05,-9.0,0.7305591725005093,0.0023575498669755964,0.0009227640039169884,0.000241466359073265,nan,nan,nan,nan
24.250525951385498,1.1276159,1.0708097,-9.393451,0.004425376721891047,nan,nan,nan,nan,nan,14.240416288375854,15.440416288375854,0.005587100982666016,1.0,1.0,1e-05,-9.0,0.7294861350886237,-0.006693359836857247,0.00227834223270148,0.0003916215547285373,nan,nan,nan,nan
24.350178003311157,1.1271931,1.075358,-9.397638,0.004350474400036214,nan,nan,nan,nan,nan,14.340322971343994,15.540322971343993,0.005461692810058594,1.0,1.0,1e-05,-9.0,0.727565032284634,-0.017565141929986927,0.007543391927386917,0.0006184676390878494,nan,nan,nan,nan
24.455946683883667,1.12209,1.0832906,-9.403773,0.004229663354661835,nan,nan,nan,nan,nan,14.44582486152649,15.645824861526489,0.006777286529541016,1.0,1.0,1e-05,-9.0,0.726136018136173,-0.030333130487179047,0.0009944273884733609,0.000990331859570196,nan,nan,nan,nan
24.55613350868225,1.1164933,1.0878521,-9.408806,0.004153322474286981,nan,nan,nan,nan,nan,14.545997619628906,15.745997619628906,0.006186962127685547,1.0,1.0,1e-05,-9.0,0.725250519778613,-0.03092766049545031,-0.007299269441688962,0.001219535453304597,nan,nan,nan,nan
24.653182983398438,1.1108514,1.0900176,-9.407534,0.004109792405362524,nan,nan,nan,nan,nan,14.6430983543396,15.843098354339599,0.00546717643737793,1.0,1.0,1e-05,-9.0,0.7260462389776011,-0.01874178991436188,-0.011950754802552008,0.0012137121019190182,nan,nan,nan,nan
24.75625991821289,1.1046857,1.0955799,-9.408502,0.004080452092521492,nan,nan,nan,nan,nan,14.746188640594482,15.946188640594482,0.005640983581542969,1.0,1.0,1e-05,-9.0,0.7265762119376837,-0.01035844435523877,-0.013016917901160666,0.0013600406718983766,nan,nan,nan,nan
24.844661474227905,1.0988284,1.1019167,-9.410797,0.004051111104132565,nan,nan,nan,nan,nan,14.834526538848877,16.034526538848876,0.007962226867675781,1.0,1.0,1e-05,-9.0,0.7263742281449018,-0.009186214248482358,-0.013440684563800856,0.0014775062023219916,nan,nan,nan,nan
24.947208642959595,1.0898038,1.1138443,-9.414391,0.004075139032271987,nan,nan,nan,nan,nan,14.937061309814453,16.137061309814452,0.005998134613037109,1.0,1.0,1e-05,-9.0,0.7260194322852931,-0.017042563604459448,-0.01476169051019817,0.001545664291852906,nan,nan,nan,nan
25.04864525794983,1.0847938,1.1172501,-9.417157,0.004196600340166708,nan,nan,nan,nan,nan,15.03860068321228,16.23860068321228,0.0058155059814453125,1.0,1.0,1e-05,-9.0,0.7260501988224413,-0.011927060899600252,-0.010912326719069741,0.001535597733821485,nan,nan,nan,nan
25.14956831932068,1.0742795,1.1207497,-9.420091,0.004524867936097538,nan,nan,nan,nan,nan,15.139849185943604,16.339849185943603,0.005522251129150391,1.0,1.0,1e-05,-9.0,0.7258969768889622,-0.0028531660523050334,-0.011009375937833929,0.0011953480733038109,nan,nan,nan,nan
25.259247541427612,1.0658895,1.1247742,-9.423249,0.0049348496119397366,nan,nan,nan,nan,nan,15.24912142753601,16.44912142753601,0.006735324859619141,1.0,1.0,1e-05,-9.0,0.7256981304878519,0.006138509685344404,-0.01367513119085408,0.0006110538625283293,nan,nan,nan,nan
25.347805500030518,1.0602213,1.1253568,-9.424714,0.005243392689431045,nan,nan,nan,nan,nan,15.337727308273315,16.537727308273315,0.0056760311126708984,1.0,1.0,1e-05,-9.0,0.7257205361249466,0.011491693928961585,-0.007684851577790146,1.291441719167732e-05,nan,nan,nan,nan
25.452165126800537,1.0541861,1.1229371,-9.42613,0.0054837032146417344,nan,nan,nan,nan,nan,15.442065238952637,16.642065238952636,0.005416393280029297,1.0,1.0,1e-05,-9.0,0.7261521469245574,0.019911174402316854,-0.004206950156686622,-0.0004100713500435169,nan,nan,nan,nan
25.552390575408936,1.0487866,1.1197809,-9.429379,0.005583887232226215,nan,nan,nan,nan,nan,15.542258977890015,16.742258977890014,0.005362033843994141,1.0,1.0,1e-05,-9.0,0.726022350622093,0.023500048693453183,-0.0019535683102916922,-0.0006815224240273942,nan,nan,nan,nan
25.652294635772705,1.0452347,1.1175063,-9.425077,0.005629880434271229,nan,nan,nan,nan,nan,15.642290830612183,16.842290830612182,0.005694389343261719,1.0,1.0,1e-05,-9.0,0.7273754181466555,0.02208563822298247,0.000262619850518791,-0.0007893472891108242,nan,nan,nan,nan
25.754734992980957,1.047899,1.1145244,-9.419263,0.005574374191003597,nan,nan,nan,nan,nan,15.744606733322144,16.944606733322143,0.005561351776123047,1.0,1.0,1e-05,-9.0,0.7291437132843318,0.017690437059962937,0.007437265858620262,-0.000813208186971709,nan,nan,nan,nan
25.85873770713806,1.0539849,1.111917,-9.411394,0.0054492026325514645,nan,nan,nan,nan,nan,15.848613977432251,17.04861397743225,0.007313251495361328,1.0,1.0,1e-05,-9.0,0.7308634778571493,0.010231112479062441,0.02703149625497209,-0.0004983706874752173,nan,nan,nan,nan
25.954759120941162,1.0569531,1.1090539,-9.399077,0.005453653799129323,nan,nan,nan,nan,nan,15.944685220718384,17.144685220718383,0.006611824035644531,1.0,1.0,1e-05,-9.0,0.7333618654887335,0.004974908137514706,0.026762614483957985,-0.000521510227018295,nan,nan,nan,nan
26.052409887313843,1.0601819,1.1065128,-9.391342,0.005543084047781395,nan,nan,nan,nan,nan,16.042421340942383,17.242421340942382,0.005725383758544922,1.0,1.0,1e-05,-9.0,0.7347363992584776,0.001354382828758191,0.024126177255439793,-0.000670609125727882,nan,nan,nan,nan
26.159988403320312,1.0633523,1.104738,-9.385091,0.0056651425012118105,nan,nan,nan,nan,nan,16.14985752105713,17.349857521057128,0.007869720458984375,1.0,1.0,1e-05,-9.0,0.7343979044773031,-0.002395539404759752,0.016652167750061998,-0.0009127100675165237,nan,nan,nan,nan
26.249459981918335,1.0653706,1.1025414,-9.384035,0.005677046807517659,nan,nan,nan,nan,nan,16.239437341690063,17.439437341690063,0.005725383758544922,1.0,1.0,1e-05,-9.0,0.7330993131044029,-0.0038181845288798224,0.010118065054442281,-0.0010682476769334833,nan,nan,nan,nan
26.351070880889893,1.0685009,1.0980875,-9.383626,0.005579063292251551,nan,nan,nan,nan,nan,16.341335773468018,17.541335773468017,0.005759000778198242,1.0,1.0,1e-05,-9.0,0.7308943793765841,0.0009687224325437451,0.004066990137212827,-0.001014042194565566,nan,nan,nan,nan
26.45552968978882,1.0737114,1.0927206,-9.380213,0.005513043533784439,nan,nan,nan,nan,nan,16.44539499282837,17.64539499282837,0.0057604312896728516,1.0,1.0,1e-05,-9.0,0.7308820553255383,0.005240258214238968,0.0017515220359975198,-0.0009189781763860835,nan,nan,nan,nan
26.55641198158264,1.0814432,1.0899376,-9.380375,0.005350206635841513,nan,nan,nan,nan,nan,16.546265602111816,17.746265602111816,0.005809783935546875,1.0,1.0,1e-05,-9.0,0.7304114302407295,0.00567719366787373,0.008556173362924087,-0.0008248892615739305,nan,nan,nan,nan
26.657388925552368,1.0897661,1.082924,-9.386788,0.005057668123669424,nan,nan,nan,nan,nan,16.647277116775513,17.847277116775512,0.006455421447753906,1.0,1.0,1e-05,-9.0,0.7282386392074761,0.008032476285780653,0.014333836888633936,-0.00047150823602999897,nan,nan,nan,nan
26.746190547943115,1.0929731,1.0788851,-9.391288,0.004898675350946179,nan,nan,nan,nan,nan,16.736045598983765,17.936045598983764,0.009318351745605469,1.0,1.0,1e-05,-9.0,0.7264707767174521,0.009305014660130824,0.012073770228848571,-0.0002758507550383039,nan,nan,nan,nan
26.850995540618896,1.0946674,1.0757246,-9.396095,0.004787111147661316,nan,nan,nan,nan,nan,16.840973138809204,18.040973138809203,0.005725383758544922,1.0,1.0,1e-05,-9.0,0.7257196899386709,0.007182344157518502,0.006284586317719949,-0.00019077370600620446,nan,nan,nan,nan
26.957432985305786,1.096135,1.0683233,-9.406189,0.004535688351314642,nan,nan,nan,nan,nan,16.947293281555176,18.147293281555175,0.006299257278442383,1.0,1.0,1e-05,-9.0,0.7237759123248648,0.009148158993811814,-0.0018728059155296445,0.00011776307069096,nan,nan,nan,nan
27.04792022705078,1.0948614,1.0600722,-9.411784,0.004400740166878945,nan,nan,nan,nan,nan,17.03779649734497,18.23779649734497,0.005762338638305664,1.0,1.0,1e-05,-9.0,0.7231118180775356,0.01299978398764372,-0.009313833885837805,0.00032436138369892816,nan,nan,nan,nan
27.154836893081665,1.0956361,1.0546607,-9.410468,0.004292770957394847,nan,nan,nan,nan,nan,17.14472532272339,18.344725322723388,0.00540924072265625,1.0,1.0,1e-05,-9.0,0.7246049443714001,0.011175781390219677,-0.013265087572044476,0.0006062525994278797,nan,nan,nan,nan
27.246143579483032,1.0935698,1.0530481,-9.4068775,0.004292263717524111,nan,nan,nan,nan,nan,17.236000061035156,18.436000061035156,0.0068359375,1.0,1.0,1e-05,-9.0,0.7268318722943726,0.003158237854253604,-0.011128435543640569,0.0007816150081581975,nan,nan,nan,nan
27.36000680923462,1.0910994,1.0534854,-9.401566,0.004301060052274969,nan,nan,nan,nan,nan,17.349907875061035,18.549907875061034,0.0074079036712646484,1.0,1.0,1e-05,-9.0,0.7288871091657759,-0.008478064955415143,-0.017612720729018944,0.0009956304075823333,nan,nan,nan,nan
27.44652009010315,1.0967885,1.0557929,-9.395984,0.004284025943181853,nan,nan,nan,nan,nan,17.436384201049805,18.636384201049804,0.006695985794067383,1.0,1.0,1e-05,-9.0,0.730943688083472,-0.020223316729275947,-0.005175015321185261,0.0011974929658189984,nan,nan,nan,nan
27.5515615940094,1.1072967,1.0604209,-9.388262,0.004202207268281142,nan,nan,nan,nan,nan,17.541516065597534,18.741516065597533,0.005587100982666016,1.0,1.0,1e-05,-9.0,0.7322384891950017,-0.028512682338354342,0.01465875365248742,0.001338399073265544,nan,nan,nan,nan
27.653952598571777,1.1126835,1.0638492,-9.3898735,0.004133760831709473,nan,nan,nan,nan,nan,17.6438729763031,18.8438729763031,0.005628108978271484,1.0,1.0,1e-05,-9.0,0.7315495346476371,-0.02879908128591354,0.021061334730567878,0.0015299624572959773,nan,nan,nan,nan
27.74453043937683,1.1149386,1.0677334,-9.394861,0.004233694504791963,nan,nan,nan,nan,nan,17.734439849853516,18.934439849853515,0.01001119613647461,1.0,1.0,1e-05,-9.0,0.7291718560605914,-0.023914411909720948,0.018919326895910738,0.001433485059187417,nan,nan,nan,nan
27.84640073776245,1.112463,1.0741578,-9.402154,0.004529956741691151,nan,nan,nan,nan,nan,17.83626079559326,19.03626079559326,0.006860494613647461,1.0,1.0,1e-05,-9.0,0.7265996647750343,-0.019035970968134856,0.0024734923163463518,0.0009990264957766381,nan,nan,nan,nan
27.9482741355896,1.1148709,1.0843878,-9.413751,0.00455009675649885,nan,nan,nan,nan,nan,17.938133001327515,19.138133001327514,0.005919933319091797,1.0,1.0,1e-05,-9.0,0.723734725455404,-0.017455824372806992,-0.005307936482556433,0.0007020200260826776,nan,nan,nan,nan
28.04831314086914,1.1112843,1.0878425,-9.41538,0.004527154904738118,nan,nan,nan,nan,nan,18.038166761398315,19.238166761398315,0.006262540817260742,1.0,1.0,1e-05,-9.0,0.7235334350336478,-0.01362467400828024,-0.010155453495031748,0.0007734995076405143,nan,nan,nan,nan
28.156680583953857,1.1118579,1.0903256,-9.409775,0.004452996803833645,nan,nan,nan,nan,nan,18.146842002868652,19.34684200286865,0.007091522216796875,1.0,1.0,1e-05,-9.0,0.7260543345092656,-0.0012907814283277049,-0.012041689839368059,0.0006894777429581036,nan,nan,nan,nan
28.259761571884155,1.1130539,1.0892453,-9.403942,0.004392441455879932,nan,nan,nan,nan,nan,18.2496337890625,19.4496337890625,0.006749629974365234,1.0,1.0,1e-05,-9.0,0.7284232950029916,0.008077414336048857,-0.0058691607703879696,0.0007113584517158369,nan,nan,nan,nan
28.34771728515625,1.1129389,1.085938,-9.398453,0.004286042516443065,nan,nan,nan,nan,nan,18.33757519721985,19.537575197219848,0.005961894989013672,1.0,1.0,1e-05,-9.0,0.73057796111239,0.020191254878799126,-0.0022978196146199656,0.000709135523854343,nan,nan,nan,nan
28.450228214263916,1.1187295,1.0800874,-9.396184,0.004182582008062085,nan,nan,nan,nan,nan,18.440117597579956,19.640117597579955,0.005579471588134766,1.0,1.0,1e-05,-9.0,0.7308739939573472,0.027652701930318192,0.0049641439826103575,0.000762540921221327,nan,nan,nan,nan
28.555503129959106,1.1149325,1.0707607,-9.397061,0.004249006266259234,nan,nan,nan,nan,nan,18.545380353927612,19.74538035392761,0.005385637283325195,1.0,1.0,1e-05,-9.0,0.7298038270199282,0.0320156081251743,0.0003398941017364766,0.0006492519617398712,nan,nan,nan,nan
28.645551919937134,1.1093785,1.0607435,-9.395322,0.004423514563852572,nan,nan,nan,nan,nan,18.63540744781494,19.83540744781494,0.007447481155395508,1.0,1.0,1e-05,-9.0,0.7292338209854383,0.03496157657290675,-0.009494619433418741,0.0004202287901519834,nan,nan,nan,nan
28.749568462371826,1.1027727,1.0514777,-9.392471,0.004592549264362168,nan,nan,nan,nan,nan,18.739424228668213,19.939424228668212,0.0061075687408447266,1.0,1.0,1e-05,-9.0,0.7294625530980657,0.034851793960208155,-0.017142836572752687,0.00012007423302873574,nan,nan,nan,nan
28.849714040756226,1.0906322,1.039943,-9.385841,0.00486278048335964,nan,nan,nan,nan,nan,18.83957290649414,20.03957290649414,0.006185293197631836,1.0,1.0,1e-05,-9.0,0.7309773246522329,0.031303765287866915,-0.028237388501952506,-4.839588772900561e-05,nan,nan,nan,nan
28.9533953666687,1.0780057,1.0347186,-9.373013,0.005100928187357033,nan,nan,nan,nan,nan,18.94352912902832,20.14352912902832,0.005563497543334961,1.0,1.0,1e-05,-9.0,0.7337715034736179,0.020547824685086372,-0.03452571142707304,-6.856424427652043e-05,nan,nan,nan,nan
29.054816961288452,1.0723505,1.0307614,-9.360079,0.005282567746096598,nan,nan,nan,nan,nan,19.04475712776184,20.24475712776184,0.0054399967193603516,1.0,1.0,1e-05,-9.0,0.7361845112727152,0.005083436669628987,-0.028749359098716665,-8.666620045450754e-06,nan,nan,nan,nan
29.146723747253418,1.0680844,1.0275856,-9.354938,0.005345429163899849,nan,nan,nan,nan,nan,19.136590719223022,20.33659071922302,0.006441593170166016,1.0,1.0,1e-05,-9.0,0.7366880062055781,-0.009225660826334588,-0.011054995237396828,0.0002001724001658961,nan,nan,nan,nan
29.251384735107422,1.0602767,1.0234727,-9.354294,0.005495388150808029,nan,nan,nan,nan,nan,19.24129819869995,20.44129819869995,0.006040811538696289,1.0,1.0,1e-05,-9.0,0.7339689472384272,-0.014643066784077728,0.0008253971021922644,0.0002726787962017045,nan,nan,nan,nan
29.354674339294434,1.0545111,1.0219553,-9.355097,0.00565700133839929,nan,nan,nan,nan,nan,19.34459948539734,20.544599485397338,0.0054128170013427734,1.0,1.0,1e-05,-9.0,0.7326122220018318,-0.015082492297151655,0.0023721765422633685,0.00039718437245506887,nan,nan,nan,nan
29.449569940567017,1.0544138,1.0229611,-9.351327,0.005685398291142429,nan,nan,nan,nan,nan,19.43943476676941,20.63943476676941,0.006109952926635742,1.0,1.0,1e-05,-9.0,0.7319607518633293,-0.016178766126570713,0.009725525952964862,0.0004346785497056334,nan,nan,nan,nan
29.551176071166992,1.0570214,1.0332196,-9.346044,0.005600536897543575,nan,nan,nan,nan,nan,19.54105234146118,20.74105234146118,0.005780935287475586,1.0,1.0,1e-05,-9.0,0.7319841723980027,-0.02637222477435064,0.022966026375507948,0.0006848811548498934,nan,nan,nan,nan
29.653093099594116,1.0591098,1.0455834,-9.344839,0.005597595360225857,nan,nan,nan,nan,nan,19.642984628677368,20.842984628677367,0.005496501922607422,1.0,1.0,1e-05,-9.0,0.7318239164876302,-0.037562348420170505,0.028119905827809814,0.0010127191765116645,nan,nan,nan,nan
29.75720500946045,1.0606517,1.0562756,-9.347357,0.005754551786984209,nan,nan,nan,nan,nan,19.747084617614746,20.947084617614745,0.005361318588256836,1.0,1.0,1e-05,-9.0,0.7302104382261422,-0.04226625131378174,0.025313742286995757,0.0008822343018587896,nan,nan,nan,nan
29.85860586166382,1.0628066,1.0694592,-9.352131,0.006098526832628607,nan,nan,nan,nan,nan,19.84846544265747,21.04846544265747,0.008734464645385742,1.0,1.0,1e-05,-9.0,0.7286449026695359,-0.04233141152350415,0.018916759010264763,0.00041340927278236603,nan,nan,nan,nan
29.94739532470703,1.0699042,1.0814569,-9.355956,0.006284470726131308,nan,nan,nan,nan,nan,19.937254667282104,21.137254667282104,0.007304668426513672,1.0,1.0,1e-05,-9.0,0.7274294564993857,-0.03663378371879555,0.018076892877371412,-5.3782002963063e-05,nan,nan,nan,nan
30.047890186309814,1.0708263,1.0950781,-9.356203,0.00661677053040252,nan,nan,nan,nan,nan,20.037760257720947,21.237760257720947,0.007055521011352539,1.0,1.0,1e-05,-9.0,0.7270412469059279,-0.028435115255075406,0.013628610627282241,-0.000586963303190542,nan,nan,nan,nan
30.14937663078308,1.0678474,1.1052403,-9.352873,0.007088638039854786,nan,nan,nan,nan,nan,20.139235973358154,21.339235973358154,0.0062274932861328125,1.0,1.0,1e-05,-9.0,0.7275540106555898,-0.0210395655256709,0.0009707655307797779,-0.0013553528317526073,nan,nan,nan,nan
30.25398063659668,1.0590453,1.1155996,-9.348177,0.007785549164891062,nan,nan,nan,nan,nan,20.243953943252563,21.443953943252563,0.005533933639526367,1.0,1.0,1e-05,-9.0,0.7302707949921919,-0.008933058386607745,-0.020894932626312826,-0.0027928903397567966,nan,nan,nan,nan
30.345120668411255,1.0493453,1.120922,-9.350823,0.008279291346326406,nan,nan,nan,nan,nan,20.33503532409668,21.53503532409668,0.008492231369018555,1.0,1.0,1e-05,-9.0,0.7295203285621763,0.00010939542055731015,-0.036416964873167826,-0.0036109527381382187,nan,nan,nan,nan
30.45050287246704,1.0412799,1.1245207,-9.349567,0.008674269033009909,nan,nan,nan,nan,nan,20.44036054611206,21.64036054611206,0.0062885284423828125,1.0,1.0,1e-05,-9.0,0.7292297742031559,0.010995418253773452,-0.04071669211578726,-0.0042299667864211365,nan,nan,nan,nan
30.553215980529785,1.0402118,1.1245178,-9.346623,0.008832661415010847,nan,nan,nan,nan,nan,20.543092012405396,21.743092012405395,0.005902767181396484,1.0,1.0,1e-05,-9.0,0.7298120422787454,0.023099726152752652,-0.02459426089445612,-0.00468557416534736,nan,nan,nan,nan
30.646322011947632,1.0426534,1.1224024,-9.347138,0.00868836941217205,nan,nan,nan,nan,nan,20.636183261871338,21.836183261871337,0.006713390350341797,1.0,1.0,1e-05,-9.0,0.7302947379153747,0.029789367835134722,-0.0046997555142257565,-0.004609939970514762,nan,nan,nan,nan
30.74978017807007,1.0480039,1.118303,-9.354798,0.008237872484184007,nan,nan,nan,nan,nan,20.739649534225464,21.939649534225463,0.006181240081787109,1.0,1.0,1e-05,-9.0,0.7279399235784707,0.033530634844789915,0.01872739702314615,-0.004158455786783037,nan,nan,nan,nan
30.856769323349,1.0544561,1.1162195,-9.363135,0.007698300862944147,nan,nan,nan,nan,nan,20.84675621986389,22.04675621986389,0.0054819583892822266,1.0,1.0,1e-05,-9.0,0.7261862559569234,0.028642136804509288,0.028532450261194657,-0.003812375467646142,nan,nan,nan,nan
30.948681592941284,1.058474,1.1114377,-9.36973,0.007216258959634016,nan,nan,nan,nan,nan,20.93853998184204,22.13853998184204,0.007120609283447266,1.0,1.0,1e-05,-9.0,0.7244962612437498,0.024260186046870687,0.030240817941820285,-0.0032395194701346484,nan,nan,nan,nan
31.056135654449463,1.067912,1.1053714,-9.38067,0.006790598214807662,nan,nan,nan,nan,nan,21.046144008636475,22.246144008636474,0.005886554718017578,1.0,1.0,1e-05,-9.0,0.7231914204304992,0.018221433108407237,0.026724940526042625,-0.0025611565652792234,nan,nan,nan,nan
31.14774179458618,1.0758841,1.1012045,-9.389148,0.006734069780191392,nan,nan,nan,nan,nan,21.13762354850769,22.33762354850769,0.007534980773925781,1.0,1.0,1e-05,-9.0,0.7220977363550989,0.012316402613589935,0.025450302628848332,-0.002535611052476208,nan,nan,nan,nan
31.251509428024292,1.0834943,1.0966628,-9.398321,0.006746447164171646,nan,nan,nan,nan,nan,21.24138569831848,22.44138569831848,0.006392002105712891,1.0,1.0,1e-05,-9.0,0.7211768069232887,0.008478510373214298,0.02376103019809532,-0.0028481792186324075,nan,nan,nan,nan
31.3571515083313,1.0934287,1.0910064,-9.399467,0.006767008195980959,nan,nan,nan,nan,nan,21.34705090522766,22.54705090522766,0.005378246307373047,1.0,1.0,1e-05,-9.0,0.722664625413508,0.0034626584558715956,0.017672212376202277,-0.0028571528836618724,nan,nan,nan,nan
31.445897817611694,1.0963454,1.0903633,-9.405202,0.0067614017879539055,nan,nan,nan,nan,nan,21.43578791618347,22.63578791618347,0.0066072940826416016,1.0,1.0,1e-05,-9.0,0.7230363624710061,-0.003554239579529445,0.008608400130646765,-0.002866389909975664,nan,nan,nan,nan
31.548302173614502,1.0984206,1.0878161,-9.41321,0.006545750438414337,nan,nan,nan,nan,nan,21.53815984725952,22.73815984725952,0.007322788238525391,1.0,1.0,1e-05,-9.0,0.7223070952410146,-0.009482453595171116,-0.0012367790263092928,-0.002737491347341453,nan,nan,nan,nan
31.65044355392456,1.1005908,1.0825717,-9.424366,0.006052128223108697,nan,nan,nan,nan,nan,21.640321969985962,22.84032196998596,0.006796836853027344,1.0,1.0,1e-05,-9.0,0.7208113257310559,-0.004956983294638099,-0.011451774296264355,-0.0020516250994799365,nan,nan,nan,nan
31.753546476364136,1.1022367,1.0783668,-9.432454,0.005584214529838341,nan,nan,nan,nan,nan,21.74349284172058,22.94349284172058,0.005783557891845703,1.0,1.0,1e-05,-9.0,0.7203907294383892,0.0005483640026448509,-0.013610699585665161,-0.0014203469942309249,nan,nan,nan,nan
31.8473641872406,1.1031468,1.0750291,-9.434937,0.005207002103040062,nan,nan,nan,nan,nan,21.83722186088562,23.03722186088562,0.00706791877746582,1.0,1.0,1e-05,-9.0,0.72153731081896,0.0031238452891543876,-0.014215927242579376,-0.000851544683560165,nan,nan,nan,nan
31.95473337173462,1.108278,1.0660905,-9.433103,0.004809592278727943,nan,nan,nan,nan,nan,21.944629430770874,23.144629430770873,0.005733489990234375,1.0,1.0,1e-05,-9.0,0.7242441258648764,0.007873588806057869,-0.009118224073303269,-0.0002760536612307792,nan,nan,nan,nan
32.04640316963196,1.1070302,1.0567424,-9.429548,0.004573966271951641,nan,nan,nan,nan,nan,22.03627371788025,23.23627371788025,0.007997512817382812,1.0,1.0,1e-05,-9.0,0.7263510518938248,0.015319147254456086,-0.006613575413333837,7.785041165703657e-05,nan,nan,nan,nan
32.15182018280029,1.1024204,1.0474331,-9.424081,0.0043611784052581615,nan,nan,nan,nan,nan,22.141682863235474,23.341682863235473,0.006031990051269531,1.0,1.0,1e-05,-9.0,0.7281059065560165,0.022658589993088292,-0.014799690770423337,0.00040119839463265513,nan,nan,nan,nan
32.24588370323181,1.0943689,1.036904,-9.4081,0.004125075458043553,nan,nan,nan,nan,nan,22.23576283454895,23.43576283454895,0.0063664913177490234,1.0,1.0,1e-05,-9.0,0.7327089292234454,0.024463757751921764,-0.024973969495926875,0.0008763848716607194,nan,nan,nan,nan
32.347673177719116,1.0881311,1.0257052,-9.38956,0.004001616289257584,nan,nan,nan,nan,nan,22.337539672851562,23.537539672851562,0.007034778594970703,1.0,1.0,1e-05,-9.0,0.7366521052338804,0.02182746380629534,-0.025922684746546878,0.001305969574707739,nan,nan,nan,nan
