time,x,y,z,yaw,platform,trajectory,traj_double,traj_short,traj_spin,traj_time,ref_time,comptime,x_ref,y_ref,yaw_ref,z_ref,throttle_input,p_input,q_input,r_input,cbf_term_pitch_cbf,cbf_term_roll_cbf,cbf_term_thrust_cbf,cbf_term_yaw_cbf
10.05598759651184,0.0056871264,-0.03359804,-3.157222,0.00029133180929264476,SIM,CIRCLE_HORIZONTAL,DblSpd,Not Short,NoSpin,0.05292034149169922,1.2529203414916992,0.0056056976318359375,0.21117839519000822,0.5616081244114731,0.0,-5.0,0.8785971096381054,0.650281815042559,0.29751359024127244,-0.019298012067134874,nan,nan,nan,nan
10.157085657119751,0.020129118,-0.032304373,-3.1591494,-0.0013338777153224417,nan,nan,nan,nan,nan,0.1540355682373047,1.3540355682373046,0.005594968795776367,0.15536487027214108,0.5795358117367042,0.0,-5.0,0.8785971096381059,0.6580253768628543,0.3279252510665695,0.012933595700709647,nan,nan,nan,nan
10.252419233322144,0.028428387,-0.030680712,-3.1623988,-0.0018489399556052277,nan,nan,nan,nan,nan,0.2492971420288086,1.4492971420288085,0.006962299346923828,0.10141603074773409,0.5913668816457129,0.0,-5.0,0.8785971096381059,0.5504524328859806,0.42589761064434356,0.009230010787422601,nan,nan,nan,nan
10.350943088531494,0.03350763,-0.03042975,-3.1692986,-0.002235194104966166,nan,nan,nan,nan,nan,0.34784555435180664,1.5478455543518066,0.007832050323486328,0.04470705160754642,0.5983320813198638,0.0,-5.0,0.8785971096381059,0.43479940435726555,0.43560844956450856,0.007522037430213621,nan,nan,nan,nan
10.445295333862305,0.03468207,-0.029898057,-3.1858876,-0.0028545283957672526,nan,nan,nan,nan,nan,0.4421963691711426,1.6421963691711425,0.005303144454956055,-0.009973199841094548,0.5999171070114017,0.0,-5.0,0.8785971096381059,0.3268522630612702,0.4268513321469629,0.007906669962314391,nan,nan,nan,nan
10.559629201889038,0.026360929,-0.023281902,-3.2143102,-0.002927763497893,nan,nan,nan,nan,nan,0.5565152168273926,1.7565152168273925,0.0055789947509765625,-0.07607173458033979,0.5951580388417335,0.0,-5.0,0.8785971096381054,0.2782471936925844,0.4557221503041099,0.004716692146067222,nan,nan,nan,nan
10.652905941009521,0.023441337,-0.020068537,-3.2203126,-0.0027811286641201563,nan,nan,nan,nan,nan,0.6498463153839111,1.849846315383911,0.006165504455566406,-0.1293834815788383,0.5858838747521034,0.0,-5.0,0.8785971096381059,0.23975551557090466,0.4802877073053953,0.010298117008985289,nan,nan,nan,nan
10.748917818069458,0.012242901,-0.009594175,-3.2462134,-0.0015729603823326646,nan,nan,nan,nan,nan,0.7458510398864746,1.9458510398864746,0.006209611892700195,-0.18312014612975505,0.5713729185754407,0.0,-5.0,0.8785971096381059,0.16294729970034505,0.40488732659643956,0.01727869474872998,nan,nan,nan,nan
10.862653493881226,-0.0047162315,0.0010755626,-3.3253531,0.0006426966547354272,nan,nan,nan,nan,nan,0.8597650527954102,2.0597650527954103,0.005446672439575195,-0.24480033968890674,0.5477890047164107,0.0,-5.0,0.8785971096381059,-0.05464744143692261,0.10625740966305926,0.0220460074409259,nan,nan,nan,nan
10.95856237411499,-0.024911156,0.011853567,-3.4086015,0.0014300730729856059,nan,nan,nan,nan,nan,0.9554424285888672,2.1554424285888674,0.005586385726928711,-0.29434471006438434,0.5228395467608714,0.0,-5.0,0.8785971096381059,-0.21084487618465408,-0.10769700143224151,-0.004627699349407736,nan,nan,nan,nan
11.054075241088867,-0.07096633,0.032770146,-3.5677238,0.0013920447635862453,nan,nan,nan,nan,nan,1.051006555557251,2.251006555557251,0.006499052047729492,-0.34131913511990225,0.4934584562057903,0.0,-5.0,0.8785971096380529,-0.2986516203662072,-0.25749867637891016,0.01798381127421523,nan,nan,nan,nan
11.147321939468384,-0.11213636,0.044682212,-3.6960847,0.003704500707610979,nan,nan,nan,nan,nan,1.1442766189575195,2.3442766189575197,0.005463123321533203,-0.38436228646566134,0.46072294575253014,0.0,-5.0,0.878597109637396,-0.3007558445400062,-0.31680963550751384,-0.009407855441938218,nan,nan,nan,nan
11.261476278305054,-0.18766636,0.060209524,-3.951636,0.013639992351598688,nan,nan,nan,nan,nan,1.2583537101745605,2.4583537101745607,0.005057811737060547,-0.432729655139287,0.41562608864583284,0.0,-5.0,0.8175619058100775,-0.20914505446527631,-0.3332762014345743,-0.01969342517609376,nan,nan,nan,nan
11.355056762695312,-0.25840253,0.06533295,-4.1921,0.0237082636307402,nan,nan,nan,nan,nan,1.3519699573516846,2.5519699573516847,0.005913734436035156,-0.46851921070128083,0.37481962222360876,0.0,-5.0,0.7107458014945834,-0.09395828001810579,-0.3105832684472781,-0.0017062985301811878,nan,nan,nan,nan
11.461591243743896,-0.33703753,0.05933647,-4.4625993,0.03392133498179992,nan,nan,nan,nan,nan,1.4584712982177734,2.6584712982177736,0.005362033843994141,-0.5045577413332085,0.3246867500541577,0.0,-5.0,0.6438104459796832,-0.04244371175506903,-0.29785340515864167,-0.0468176022495808,nan,nan,nan,nan
11.551528453826904,-0.40902773,0.038791467,-4.717388,0.04624642308381238,nan,nan,nan,nan,nan,1.5484042167663574,2.7484042167663576,0.006715536117553711,-0.530842867101297,0.27965308946563544,0.0,-5.0,0.5835762823730656,0.04960147076613173,-0.23523479950039744,-0.028827326454972272,nan,nan,nan,nan
11.66298532485962,-0.4772874,-0.0010404838,-4.9569726,0.0648368062660898,nan,nan,nan,nan,nan,1.6598925590515137,2.859892559051514,0.005156517028808594,-0.5578429491071293,0.2209326687736803,0.0,-5.0,0.5594494795783256,0.11238736193511291,-0.1724827503253283,-0.05304033591364673,nan,nan,nan,nan
11.752766132354736,-0.50776494,-0.025583295,-5.0705724,0.07457506181683367,nan,nan,nan,nan,nan,1.7497365474700928,2.949736547470093,0.007395505905151367,-0.5749037866462683,0.1717138203517177,0.0,-5.0,0.5590992995427835,0.1342597144100499,-0.13086781506502573,-0.09801007941664461,nan,nan,nan,nan
11.845516204833984,-0.5508408,-0.072348274,-5.2332087,0.0852750618888505,nan,nan,nan,nan,nan,1.842397928237915,3.042397928237915,0.005109310150146484,-0.587959079589478,0.11959983582051356,0.0,-5.0,0.5720545273446707,0.16976551449491523,-0.029460092289100008,-0.09279961837497287,nan,nan,nan,nan
11.958061695098877,-0.58159477,-0.124262966,-5.3485436,0.08666620635528861,nan,nan,nan,nan,nan,1.9549560546875,3.1549560546875,0.005887031555175781,-0.5974695504297726,0.0550466739162819,0.0,-5.0,0.5952800817127005,0.16840943556188426,0.04533735729331705,-0.10423072881992328,nan,nan,nan,nan
12.04898476600647,-0.59515244,-0.16043253,-5.397284,0.08383442490551832,nan,nan,nan,nan,nan,2.0458993911743164,3.2458993911743166,0.0050466060638427734,-0.5999952864253045,0.002378290860434565,0.0,-5.0,0.6130827160902614,0.14944948735398822,0.05485735686998787,-0.11865428273458999,nan,nan,nan,nan
12.145772933959961,-0.6024491,-0.20988089,-5.447064,0.07907004475892085,nan,nan,nan,nan,nan,2.142652750015259,3.342652750015259,0.005496978759765625,-0.5975951910302904,-0.05366551646514547,0.0,-5.0,0.6403340962445304,0.1368768456869967,0.10243653070575977,-0.10560433255681473,nan,nan,nan,nan
12.259971618652344,-0.5947875,-0.27063984,-5.487526,0.07335675369520503,nan,nan,nan,nan,nan,2.256847381591797,3.456847381591797,0.005633115768432617,-0.5880461731983555,-0.11917087809850917,0.0,-5.0,0.662841025372261,0.10784800630973258,0.1183343016337126,-0.10640168995641705,nan,nan,nan,nan
12.355390071868896,-0.5665051,-0.32296133,-5.502022,0.06897016164059117,nan,nan,nan,nan,nan,2.3522729873657227,3.552272987365723,0.006792783737182617,-0.5745691473251627,-0.17283024892082802,0.0,-5.0,0.6802388688499876,0.0820017323600284,0.14014033187418953,-0.09779502738324192,nan,nan,nan,nan
12.44876503944397,-0.5274444,-0.36860287,-5.501046,0.06473881998458397,nan,nan,nan,nan,nan,2.4457759857177734,3.6457759857177736,0.00497889518737793,-0.5566239880544182,-0.22398601724749448,0.0,-5.0,0.6933918212556796,0.06342571900879444,0.1471482072708952,-0.09711191617276903,nan,nan,nan,nan
12.558476448059082,-0.4873128,-0.40595528,-5.4920335,0.06102391312748541,nan,nan,nan,nan,nan,2.5553572177886963,3.7553572177886965,0.0059468746185302734,-0.529822550792277,-0.2815813642128417,0.0,-5.0,0.7079559013927724,0.041841010343760324,0.14853172236345924,-0.0913186232957785,nan,nan,nan,nan
12.653459310531616,-0.4238319,-0.45054716,-5.483833,0.05431761079102926,nan,nan,nan,nan,nan,2.6503398418426514,3.8503398418426515,0.0063648223876953125,-0.5017740404756408,-0.3289723579645409,0.0,-5.0,0.718793317134179,0.025135300397137426,0.1459146712571407,-0.08451370314352163,nan,nan,nan,nan
12.746995687484741,-0.38378385,-0.47631526,-5.4777074,0.04791316037968831,nan,nan,nan,nan,nan,2.7438998222351074,3.9438998222351076,0.0052623748779296875,-0.47001192218677207,-0.37294609932575473,0.0,-5.0,0.7241543105519924,0.020204442441090986,0.11133650119335466,-0.07568781804697246,nan,nan,nan,nan
12.859431743621826,-0.3092607,-0.51793015,-5.467388,0.034755513340407745,nan,nan,nan,nan,nan,2.8563387393951416,4.056338739395142,0.006462812423706055,-0.42678333786266504,-0.42172975057826106,0.0,-5.0,0.7296140848921779,0.02655289982645034,0.07981730533200788,-0.059698860234505664,nan,nan,nan,nan
12.955750465393066,-0.26063195,-0.5398024,-5.461166,0.026684923812537543,nan,nan,nan,nan,nan,2.952638626098633,4.152638626098633,0.006407499313354492,-0.3857343867611527,-0.45957478485008013,0.0,-5.0,0.7312609442713414,0.03560770038564223,0.0477899514639714,-0.046406959279512536,nan,nan,nan,nan
13.04909610748291,-0.20404361,-0.5571231,-5.4562387,0.020131552099018984,nan,nan,nan,nan,nan,3.0460281372070312,4.246028137207031,0.0052220821380615234,-0.342732178416173,-0.4924780745151042,0.0,-5.0,0.7319926865554952,0.03353378852802247,0.03553040481626895,-0.03464335176700277,nan,nan,nan,nan
13.161554336547852,-0.13307282,-0.5767905,-5.457479,0.014288594583580927,nan,nan,nan,nan,nan,3.1584279537200928,4.358427953720093,0.0055561065673828125,-0.2873083773263289,-0.5267389261466365,0.0,-5.0,0.7311543013221552,0.03150876511496499,0.0183275222461628,-0.02549521319160601,nan,nan,nan,nan
13.25290560722351,-0.078883514,-0.5881801,-5.4576306,0.010353516635681317,nan,nan,nan,nan,nan,3.2498621940612793,4.4498621940612795,0.006836652755737305,-0.23969202314419302,-0.5500433928710021,0.0,-5.0,0.7298892712148469,0.021701991937854492,0.025083231120121095,-0.01841271308296443,nan,nan,nan,nan
13.346089839935303,-0.012799057,-0.6000192,-5.4548993,0.0050790887040871695,nan,nan,nan,nan,nan,3.3429646492004395,4.54296464920044,0.005408287048339844,-0.1892865771718513,-0.5693598086470143,0.0,-5.0,0.7300551364510143,0.01997303983697723,0.022397083639731658,-0.011936013449420075,nan,nan,nan,nan
13.460627555847168,0.052411996,-0.60872394,-5.45063,-6.872015081837643e-05,nan,nan,nan,nan,nan,3.4575107097625732,4.657510709762573,0.005537748336791992,-0.1252136594247289,-0.5867891780643777,0.0,-5.0,0.7305937959416975,0.029745562568796888,0.015270646140668259,-0.002971533489631882,nan,nan,nan,nan
13.556246519088745,0.08902574,-0.60906136,-5.4463415,-0.0015461788117819009,nan,nan,nan,nan,nan,3.553152322769165,4.753152322769165,0.006892204284667969,-0.07050670146033226,-0.5958429365606205,0.0,-5.0,0.7307242789641997,0.030711574262044312,0.005112281984160675,0.0005293720067398701,nan,nan,nan,nan
13.652350187301636,0.1406373,-0.602124,-5.4405513,-0.0013444501569152938,nan,nan,nan,nan,nan,3.6493160724639893,4.849316072463989,0.00560307502746582,-0.014894796748481383,-0.5998150923658235,0.0,-5.0,0.7316070673092641,0.01443678630075063,0.00579572941120684,0.0015710066596821288,nan,nan,nan,nan
13.747344493865967,0.18988757,-0.5899675,-5.4344215,0.0006176062392577938,nan,nan,nan,nan,nan,3.7442526817321777,4.944252681732178,0.005089521408081055,0.04013561668465034,-0.5986561051833872,0.0,-5.0,0.7325212428661495,0.007305650912690001,0.004652429621444361,0.0003802973512625268,nan,nan,nan,nan
13.851768255233765,0.23318323,-0.5745811,-5.432041,0.0028862703717711727,nan,nan,nan,nan,nan,3.8487281799316406,5.048728179931641,0.00563812255859375,0.10028703938136131,-0.5915593881700478,0.0,-5.0,0.7329231394384175,0.01235194085834334,0.0018929283226202397,-0.00041562684835866966,nan,nan,nan,nan
13.962664365768433,0.28791016,-0.54952216,-5.4317126,0.005319609254151824,nan,nan,nan,nan,nan,3.959594249725342,5.159594249725342,0.005208492279052734,0.16298665384391997,-0.5774386120348743,0.0,-5.0,0.7309707044309904,-0.010948688713865907,0.020516027115686085,-0.005043626751536115,nan,nan,nan,nan
14.061843872070312,0.32764456,-0.5290393,-5.429248,0.005896475510539508,nan,nan,nan,nan,nan,4.058742046356201,5.258742046356201,0.00509190559387207,0.21749606155081697,-0.5591917946553608,0.0,-5.0,0.7304988742726564,0.0015422125110087516,0.034697069900038756,-0.005207066688054178,nan,nan,nan,nan
14.152660608291626,0.38442075,-0.5014925,-5.4266906,0.0063245798412330245,nan,nan,nan,nan,nan,4.149581432342529,5.3495814323425295,0.006197929382324219,0.2656972858390065,-0.5379637090899211,0.0,-5.0,0.7305926859253615,-0.012121415630519158,0.06928754954836515,-0.0040894605935104895,nan,nan,nan,nan
14.247271060943604,0.42352095,-0.47448614,-5.4247932,0.007047055958778515,nan,nan,nan,nan,nan,4.244144678115845,5.444144678115845,0.004984855651855469,0.3136942920912657,-0.5114644573275445,0.0,-5.0,0.7316361628871882,0.006167161093704025,0.08314339016914504,-0.006757265046427035,nan,nan,nan,nan
14.345970630645752,0.47542757,-0.42931616,-5.425712,0.008277765536253753,nan,nan,nan,nan,nan,4.342867612838745,5.542867612838745,0.005162954330444336,0.3610019533017559,-0.4792468984900339,0.0,-5.0,0.7317249115484576,-0.02239294760601052,0.08290416325268046,-0.004319469614838977,nan,nan,nan,nan
14.445394277572632,0.52028674,-0.38453132,-5.4331884,0.00867020645376634,nan,nan,nan,nan,nan,4.442294359207153,5.6422943592071535,0.005248069763183594,0.4053255798917665,-0.44239255676989325,0.0,-5.0,0.728216664812397,-0.03402541888096546,0.08613340563443775,-0.00426869509480678,nan,nan,nan,nan
14.558336973190308,0.56438106,-0.32070792,-5.442926,0.00914794175027599,nan,nan,nan,nan,nan,4.555217504501343,5.755217504501343,0.005610227584838867,0.4511073916303572,-0.3956034898941812,0.0,-5.0,0.7251216592759768,-0.0536621621860509,0.07235926259293396,-0.005107765770497479,nan,nan,nan,nan
14.654868364334106,0.58635086,-0.2807598,-5.4454618,0.009469259567032932,nan,nan,nan,nan,nan,4.651769638061523,5.851769638061524,0.007097482681274414,0.48601276886745853,-0.35184028833802755,0.0,-5.0,0.7252420844847494,-0.043604258529628764,0.06363828862280656,-0.010189851223130743,nan,nan,nan,nan
14.748111963272095,0.61209255,-0.21638899,-5.440976,0.010150915780556583,nan,nan,nan,nan,nan,4.745028257369995,5.945028257369995,0.005081892013549805,0.5157139927331432,-0.30665791641377776,0.0,-5.0,0.7269603108103047,-0.06773587448571801,0.0287205029591748,-0.00801591243349806,nan,nan,nan,nan
14.861573457717896,0.62775326,-0.15233585,-5.436625,0.01113293953818198,nan,nan,nan,nan,nan,4.8584535121917725,6.058453512191773,0.005300760269165039,0.546172523507346,-0.24838593874375725,0.0,-5.0,0.7297541292302556,-0.06569715932448,0.0018088558063870347,-0.010854821557948492,nan,nan,nan,nan
14.96288514137268,0.63991535,-0.080895655,-5.436668,0.01184762841772277,nan,nan,nan,nan,nan,4.959784746170044,6.159784746170044,0.005064725875854492,0.567845326666147,-0.19378257141295457,0.0,-5.0,0.7296482724839357,-0.06728618319420063,-0.009474854080589283,-0.013467470691110404,nan,nan,nan,nan
15.061028957366943,0.64714617,-0.0285905,-5.438492,0.011063514290437207,nan,nan,nan,nan,nan,5.057923316955566,6.257923316955567,0.005354642868041992,0.5836477478852936,-0.13912334954429698,0.0,-5.0,0.7284734883147275,-0.058834599621484615,-0.007408491587344058,-0.013937866446797837,nan,nan,nan,nan
15.158765316009521,0.6518235,0.021336509,-5.4433184,0.009770117684681284,nan,nan,nan,nan,nan,5.1556572914123535,6.355657291412354,0.006005525588989258,0.5941690503372415,-0.08344542900207604,0.0,-5.0,0.7280208037867645,-0.03574037617476521,0.01606843852345294,-0.01466239769304467,nan,nan,nan,nan
15.25390100479126,0.65131867,0.09864243,-5.445961,0.0076479324934258875,nan,nan,nan,nan,nan,5.250825643539429,6.450825643539429,0.0065212249755859375,0.5993222806696046,-0.02850971576469374,0.0,-5.0,0.7270886294466042,-0.049210574494606994,0.010707402125459,-0.010960822325621714,nan,nan,nan,nan
15.3548264503479,0.64616054,0.15013164,-5.445361,0.006481163477381958,nan,nan,nan,nan,nan,5.351762056350708,6.551762056350708,0.006566286087036133,0.5992490920328291,0.03000876035143677,0.0,-5.0,0.7276596804272144,-0.049463319990462676,0.022213869070603923,-0.012188351002725795,nan,nan,nan,nan
15.45330286026001,0.6331354,0.21812603,-5.4463873,0.00576773478435854,nan,nan,nan,nan,nan,5.450196266174316,6.650196266174317,0.0068552494049072266,0.593687381551946,0.08680606537560673,0.0,-5.0,0.7277911724607483,-0.06448945271937821,-0.0048615453418920955,-0.008972847617262534,nan,nan,nan,nan
15.553420066833496,0.6124531,0.2799572,-5.449972,0.004837693668827589,nan,nan,nan,nan,nan,5.55031681060791,6.75031681060791,0.006111860275268555,0.5825210898845842,0.14376779834050504,0.0,-5.0,0.7271229107334021,-0.0587689645393135,-0.004428642538738839,-0.009784588401923073,nan,nan,nan,nan
15.650654554367065,0.59084266,0.32971653,-5.4521575,0.0035302654403119756,nan,nan,nan,nan,nan,5.6478564739227295,6.84785647392273,0.005306720733642578,0.566398505784543,0.1979715450387682,0.0,-5.0,0.7274593164831247,-0.054376656412977245,-0.00028487627584987125,-0.011465561767463115,nan,nan,nan,nan
15.749230861663818,0.55081713,0.3977929,-5.4487777,0.002056273505685326,nan,nan,nan,nan,nan,5.746169090270996,6.946169090270996,0.0057353973388671875,0.5450571842582379,0.25082397391095074,0.0,-5.0,0.7279819158572793,-0.06164629091668773,-0.028994733342286246,-0.006774624676010449,nan,nan,nan,nan
15.847403287887573,0.5165194,0.44273868,-5.4414487,0.0014295418639005651,nan,nan,nan,nan,nan,5.844277381896973,7.044277381896973,0.005209207534790039,0.518856498853202,0.30131036092009383,0.0,-5.0,0.7297311782294645,-0.05293523728599895,-0.02609542401023448,-0.009553998176899383,nan,nan,nan,nan
15.946629285812378,0.4761208,0.489925,-5.429044,-0.00031834890349143746,nan,nan,nan,nan,nan,5.943531513214111,7.1435315132141115,0.005314350128173828,0.4876058484636123,0.34962914144001317,0.0,-5.0,0.7330357716991136,-0.04751869247154941,-0.05295788163758806,-0.0053914451090771665,nan,nan,nan,nan
16.058506965637207,0.42347455,0.54565114,-5.4200907,-0.004835950517531978,nan,nan,nan,nan,nan,6.055603504180908,7.255603504180908,0.005961894989013672,0.446944751813759,0.4003003732525581,0.0,-5.0,0.7343804316738525,-0.050074242740565794,-0.04861435969938643,-0.0006384256602544106,nan,nan,nan,nan
16.152818202972412,0.38764596,0.5776556,-5.417917,-0.007853443276157248,nan,nan,nan,nan,nan,6.149760484695435,7.349760484695435,0.0058498382568359375,0.40871122786361147,0.4392665844543824,0.0,-5.0,0.7348449855792895,-0.057497536135253435,-0.030446099883371713,0.0006882139125461226,nan,nan,nan,nan
16.246577501296997,0.34204432,0.6129108,-5.412999,-0.010950346053962081,nan,nan,nan,nan,nan,6.243454217910767,7.443454217910767,0.005774259567260742,0.36730677767976333,0.47443200890170645,0.0,-5.0,0.7345631169353168,-0.06410750911035673,-0.030748291116044216,0.005242716540830833,nan,nan,nan,nan
16.357008695602417,0.2808107,0.65203273,-5.4063697,-0.014661291514140452,nan,nan,nan,nan,nan,6.35396409034729,7.55396409034729,0.007098674774169922,0.3146287997942399,0.5108901235491209,0.0,-5.0,0.7344451722902547,-0.06420699175374252,-0.04479497779573948,0.011513216160665909,nan,nan,nan,nan
16.44997239112854,0.21392222,0.68032527,-5.401582,-0.017047409546795983,nan,nan,nan,nan,nan,6.446879625320435,7.646879625320435,0.005012035369873047,0.26753604602318526,0.5370516400480312,0.0,-5.0,0.733808314273489,-0.04498257647563439,-0.06673725192943905,0.020407196651440425,nan,nan,nan,nan
16.56316637992859,0.14520463,0.69781804,-5.3987336,-0.016337608280283283,nan,nan,nan,nan,nan,6.560062885284424,7.760062885284424,0.0056056976318359375,0.2072958837340503,0.5630527653665499,0.0,-5.0,0.7332253572545664,-0.0199011929165289,-0.07035347046566587,0.021216936541956118,nan,nan,nan,nan
16.656707525253296,0.08176493,0.705088,-5.4054213,-0.014313171503778043,nan,nan,nan,nan,nan,6.653594970703125,7.853594970703125,0.0061604976654052734,0.15561168100673572,0.5794695891367018,0.0,-5.0,0.7311787134995357,0.003942453807587698,-0.07398408446401696,0.019420458721561586,nan,nan,nan,nan
16.74820590019226,0.034614798,0.7044844,-5.410039,-0.012133700132552116,nan,nan,nan,nan,nan,6.745091438293457,7.945091438293457,0.005204916000366211,0.10381933951013829,0.590949697303991,0.0,-5.0,0.7298641439900061,0.002486364426243755,-0.0612670036370415,0.015024414182590446,nan,nan,nan,nan
16.861551523208618,-0.036810767,0.69325024,-5.417311,-0.00809033232622055,nan,nan,nan,nan,nan,6.858504056930542,8.058504056930541,0.005804777145385742,0.038540186503502674,0.5987609322795495,0.0,-5.0,0.7268254948329465,0.026724759547682622,-0.05809223178903741,0.011259212725269599,nan,nan,nan,nan
16.955665349960327,-0.10621998,0.67761207,-5.418536,-0.006523477525274379,nan,nan,nan,nan,nan,6.952592372894287,8.152592372894286,0.007125377655029297,-0.016001301891261237,0.5997865939963852,0.0,-5.0,0.7260357417764751,0.04752330886265269,-0.06166185652935586,0.009366134616764825,nan,nan,nan,nan
17.057685613632202,-0.15538189,0.66043,-5.4198008,-0.006503171948381608,nan,nan,nan,nan,nan,7.054567813873291,8.25456781387329,0.006338834762573242,-0.07495124808042192,0.5953001851261152,0.0,-5.0,0.7268149191742417,0.022094303134482962,-0.04347790700912655,0.009650711270075,nan,nan,nan,nan
17.150408267974854,-0.21201107,0.63250333,-5.4208627,-0.0058194703965631055,nan,nan,nan,nan,nan,7.147335767745972,8.347335767745971,0.0050199031829833984,-0.12796127574506172,0.5861961377471675,0.0,-5.0,0.7274295819559118,0.027694576270261794,-0.03607026541112838,0.010316475767682794,nan,nan,nan,nan
17.261094570159912,-0.264769,0.598963,-5.428285,-0.005140993688666922,nan,nan,nan,nan,nan,7.258010625839233,8.458010625839233,0.0058155059814453125,-0.1898232533273606,0.5691811069389221,0.0,-5.0,0.7274166445053544,0.02266855987712762,-0.02390477596036705,0.009853966186794672,nan,nan,nan,nan
17.354406595230103,-0.30130145,0.5717845,-5.433477,-0.00476251730278765,nan,nan,nan,nan,nan,7.3512961864471436,8.551296186447143,0.0061342716217041016,-0.24030777913345652,0.5497746550068908,0.0,-5.0,0.725277447656037,0.009721065353380146,-0.02616737881621436,0.010423435578188912,nan,nan,nan,nan
17.448176383972168,-0.35395533,0.5329077,-5.4463196,-0.004843296865032137,nan,nan,nan,nan,nan,7.445058584213257,8.645058584213256,0.0053327083587646484,-0.28908197918375084,0.5257676381360927,0.0,-5.0,0.7225452584820159,0.02585342902245981,-0.040348981025358194,0.010926755503559699,nan,nan,nan,nan
17.560704946517944,-0.39805168,0.49388155,-5.4499955,-0.0044525231189082755,nan,nan,nan,nan,nan,7.557590007781982,8.757590007781982,0.0057599544525146484,-0.3444524999835891,0.49127637359744414,0.0,-5.0,0.7230283380254732,0.017712968247107472,-0.043282470407266196,0.011513267814321038,nan,nan,nan,nan
17.655781984329224,-0.43114367,0.4590915,-5.4487476,-0.0038223251103098217,nan,nan,nan,nan,nan,7.652845859527588,8.852845859527587,0.007234096527099609,-0.38816541075390054,0.4575233479225466,0.0,-5.0,0.7249864447816508,-0.010256895111928852,-0.04479956216807482,0.010548387039469505,nan,nan,nan,nan
17.754931449890137,-0.47421584,0.40080288,-5.4436417,-0.0022614106977964787,nan,nan,nan,nan,nan,7.7518837451934814,8.95188374519348,0.00566864013671875,-0.4301218203363592,0.4183242996414823,0.0,-5.0,0.7281455415850606,0.018805532926614323,-0.045822948286443586,0.01066589615707152,nan,nan,nan,nan
17.851641416549683,-0.4962562,0.35903573,-5.439084,-0.0009616495884519904,nan,nan,nan,nan,nan,7.848554849624634,9.048554849624633,0.005082130432128906,-0.46727930809474183,0.37636424940009816,0.0,-5.0,0.7291766697745089,0.018890726595707775,-0.04072395553581902,0.006927710693602744,nan,nan,nan,nan
17.94656467437744,-0.5286418,0.29297435,-5.4409127,0.0006569665230544558,nan,nan,nan,nan,nan,7.943447589874268,9.143447589874267,0.005731105804443359,-0.4997894131044296,0.331979732135457,0.0,-5.0,0.7290186741081542,0.05335293790020063,-0.0317414718759252,0.005570898518638253,nan,nan,nan,nan
18.048906326293945,-0.54722756,0.23011908,-5.4420686,0.0018642755424174255,nan,nan,nan,nan,nan,8.045802116394043,9.245802116394042,0.0055043697357177734,-0.53013777593097,0.2809874348275464,0.0,-5.0,0.728715123163705,0.06842057867658326,-0.02591630941487683,0.0025511916322708142,nan,nan,nan,nan
18.160818099975586,-0.5593694,0.180063,-5.4430785,0.002465766390744868,nan,nan,nan,nan,nan,8.15794587135315,9.357945871353149,0.006163597106933594,-0.5574262208088879,0.22198200006919697,0.0,-5.0,0.7289818367660625,0.0552077791881222,-0.026753282544079538,4.3134590977318674e-05,nan,nan,nan,nan
18.258363962173462,-0.57291675,0.1103391,-5.442664,0.0021834677464883543,nan,nan,nan,nan,nan,8.25524091720581,9.45524091720581,0.007531642913818359,-0.5758092933875886,0.16865247596310576,0.0,-5.0,0.7290125384290478,0.052824832239720745,-0.012852161519586543,8.773870435057002e-05,nan,nan,nan,nan
18.354874849319458,-0.5805042,0.05593858,-5.4405127,0.001210851847090755,nan,nan,nan,nan,nan,8.35178279876709,9.55178279876709,0.005701303482055664,-0.5890198600417276,0.11426112408174337,0.0,-5.0,0.7289129938959915,0.040830286524936144,-0.026534723429996545,-0.0004657700647913714,nan,nan,nan,nan
18.457406282424927,-0.5854666,0.0013756683,-5.4420547,-0.0008829642232331217,nan,nan,nan,nan,nan,8.454404830932617,9.654404830932616,0.008459806442260742,-0.5974401347069701,0.05536502001550622,0.0,-5.0,0.7289093435414781,0.037376903630372806,-0.040051546817619035,0.00047156835199496384,nan,nan,nan,nan
18.552324295043945,-0.5871936,-0.06407396,-5.4431586,-0.002775162437173093,nan,nan,nan,nan,nan,8.549245595932007,9.749245595932006,0.005110025405883789,-0.5999998404626764,0.000437544012515429,0.0,-5.0,0.7285348265091772,0.04884794730951798,-0.03194298487672661,0.004111346784657378,nan,nan,nan,nan
18.65754723548889,-0.58092046,-0.12556319,-5.448593,-0.003574922692893244,nan,nan,nan,nan,nan,8.654435873031616,9.854435873031616,0.006808280944824219,-0.5969451857198019,-0.06046854757600161,0.0,-5.0,0.7279337343427205,0.050446674224187166,-0.021218816252141514,0.0051672458590955525,nan,nan,nan,nan
18.75051474571228,-0.5708543,-0.17301293,-5.4514127,-0.003744889141916865,nan,nan,nan,nan,nan,8.7473886013031,9.9473886013031,0.005214691162109375,-0.5891111898037739,-0.11378930550795113,0.0,-5.0,0.7269082705453415,0.04759272064647934,-0.02502166861061897,0.002157078346304014,nan,nan,nan,nan
18.863260984420776,-0.54508257,-0.24616998,-5.452095,-0.004183157304290918,nan,nan,nan,nan,nan,8.86014199256897,10.060141992568969,0.005774021148681641,-0.5732379002647953,-0.17719568194515517,0.0,-5.0,0.7268831712121225,0.058851171505785824,0.008394667156509134,0.003589377800602102,nan,nan,nan,nan
18.955442667007446,-0.5251056,-0.283503,-5.450588,-0.00443521045066282,nan,nan,nan,nan,nan,8.95232605934143,10.15232605934143,0.0056400299072265625,-0.5551946529845917,-0.22750581816146762,0.0,-5.0,0.7275742917554393,0.05500792455616336,0.01400659160720349,0.0008936841357237735,nan,nan,nan,nan
19.050233364105225,-0.48879814,-0.33852798,-5.450159,-0.0049074445050633145,nan,nan,nan,nan,nan,9.047112703323364,10.247112703323364,0.0051877498626708984,-0.5320497671696812,-0.2773500410216086,0.0,-5.0,0.7282370591141634,0.055267163752981865,0.046718397957759374,0.002245415805756725,nan,nan,nan,nan
19.15982961654663,-0.44178566,-0.3977316,-5.451646,-0.005657899697333511,nan,nan,nan,nan,nan,9.156762838363647,10.356762838363647,0.006693124771118164,-0.4997218750432667,-0.3320813870171614,0.0,-5.0,0.7281586065920467,0.05869369444383436,0.05542624411777298,0.0026164223701085833,nan,nan,nan,nan
19.258022785186768,-0.40403077,-0.43838182,-5.4505763,-0.006140921975140101,nan,nan,nan,nan,nan,9.25494384765625,10.45494384765625,0.006484031677246094,-0.4660037764107393,-0.3779424299690756,0.0,-5.0,0.7280973446615415,0.06518870674921291,0.04717662886682932,0.0010277914781776248,nan,nan,nan,nan
19.35574460029602,-0.3447161,-0.49100557,-5.445485,-0.006728383382162535,nan,nan,nan,nan,nan,9.352806568145752,10.552806568145751,0.005720615386962891,-0.42822078111017425,-0.42027010674730625,0.0,-5.0,0.728944302214663,0.06766273273260694,0.07048808554031225,0.004470810777884934,nan,nan,nan,nan
19.451054334640503,-0.30499974,-0.51803607,-5.449958,-0.006266488359767487,nan,nan,nan,nan,nan,9.447930335998535,10.647930335998534,0.005222320556640625,-0.3878220196233956,-0.4578144614308624,0.0,-5.0,0.7290763297421441,0.06348516410843652,0.05086865715040537,0.0018318888677452353,nan,nan,nan,nan
19.54792833328247,-0.2420722,-0.5571647,-5.4561105,-0.005716715819488183,nan,nan,nan,nan,nan,9.54481029510498,10.74481029510498,0.005117893218994141,-0.3433116956524728,-0.4920742623102978,0.0,-5.0,0.72736818536681,0.0353308573459568,0.057109550197953794,0.00391372244102458,nan,nan,nan,nan
19.659392833709717,-0.19490214,-0.5828996,-5.4562063,-0.005681295466967107,nan,nan,nan,nan,nan,9.656327962875366,10.856327962875366,0.0068852901458740234,-0.2883770348085244,-0.5261546215657933,0.0,-5.0,0.7272120550035291,0.03533299136991324,0.0344593006763672,0.001967366566436903,nan,nan,nan,nan
19.750508785247803,-0.13334644,-0.6096902,-5.4490643,-0.005871241317738467,nan,nan,nan,nan,nan,9.74738335609436,10.94738335609436,0.005067586898803711,-0.24100932222809773,-0.5494674754697979,0.0,-5.0,0.728932788056153,0.023720458984539654,0.04068397033956564,0.004333125926634364,nan,nan,nan,nan
19.84842348098755,-0.08648104,-0.6236663,-5.4412217,-0.0061031094639102425,nan,nan,nan,nan,nan,9.845305681228638,11.045305681228637,0.005455970764160156,-0.1879976640695009,-0.5697866954434888,0.0,-5.0,0.7310668587905329,0.028142318543567454,0.03243219812166813,0.003969480108645514,nan,nan,nan,nan
19.96083402633667,-0.012376167,-0.6354689,-5.434238,-0.005032140717570417,nan,nan,nan,nan,nan,9.957741022109985,11.157741022109985,0.008726835250854492,-0.12508301943384104,-0.5868170398423288,0.0,-5.0,0.7326018380579788,0.00846095251881172,0.04728237059479385,0.005395837918810153,nan,nan,nan,nan
20.059532165527344,0.03164643,-0.6332562,-5.4317055,-0.003674937285444331,nan,nan,nan,nan,nan,10.056442260742188,11.256442260742187,0.006390571594238281,-0.06861144933012887,-0.5960641484109065,0.0,-5.0,0.7330620739229792,0.0013574342654328927,0.045374884167967824,0.0035238177173952056,nan,nan,nan,nan
20.148979902267456,0.10063177,-0.622865,-5.4247413,-0.0009839622648441931,nan,nan,nan,nan,nan,10.145886421203613,11.345886421203613,0.005277156829833984,-0.016883249105495945,-0.5997624162113209,0.0,-5.0,0.7331535190619041,-0.02701172921831371,0.05799948074030544,0.001757475990951521,nan,nan,nan,nan
20.261187314987183,0.1642885,-0.60736316,-5.419318,0.0012567879808838382,nan,nan,nan,nan,nan,10.258113622665405,11.458113622665405,0.0083465576171875,0.0481529241704298,-0.5980646251817916,0.0,-5.0,0.7342816791547311,-0.0389767666535532,0.05998078535692063,-0.001104349571891303,nan,nan,nan,nan
20.34182333946228,0.22310309,-0.5887346,-5.4224796,0.0021366594117441726,nan,nan,nan,nan,nan,10.338976621627808,11.538976621627807,0.00805807113647461,0.09470645953388193,-0.59247842705246,0.0,-5.0,0.7315807555547609,-0.033063010252022865,0.061973428679765116,-0.0011915703409218722,nan,nan,nan,nan
20.45310950279236,0.28232908,-0.5633925,-5.424229,0.002137853982042512,nan,nan,nan,nan,nan,10.450020790100098,11.650020790100097,0.0050048828125,0.15763606133163832,-0.5789221641704936,0.0,-5.0,0.7295368081789633,-0.02573204340806669,0.06481401223480084,-0.0008288250254500462,nan,nan,nan,nan
20.552210569381714,0.33512554,-0.5367818,-5.4264975,0.0014373392381495896,nan,nan,nan,nan,nan,10.549093246459961,11.74909324645996,0.004953622817993164,0.21227112115686989,-0.5611960184488174,0.0,-5.0,0.7287655705753681,-0.02427952186422749,0.06522655094807782,0.0011952882619472313,nan,nan,nan,nan
20.648289442062378,0.3855211,-0.50413644,-5.4262276,0.0008095497709021196,nan,nan,nan,nan,nan,10.645171165466309,11.845171165466308,0.005444049835205078,0.2634014542854239,-0.5390915264408481,0.0,-5.0,0.7289594563603286,-0.010799673514743278,0.06208639366615077,0.002010024565412334,nan,nan,nan,nan
20.762919902801514,0.44060066,-0.45824742,-5.42396,0.0009582358294389914,nan,nan,nan,nan,nan,10.759855031967163,11.959855031967162,0.006045341491699219,0.32142508317958973,-0.5066418023643467,0.0,-5.0,0.7292715241357103,-0.020548446208055956,0.05442064876992398,0.0042014680256668305,nan,nan,nan,nan
20.855515718460083,0.47825208,-0.42296666,-5.4232187,0.0016158707206853362,nan,nan,nan,nan,nan,10.852742433547974,12.052742433547973,0.005334377288818359,0.3655600577350698,-0.47577919688520687,0.0,-5.0,0.7292995507058883,-0.018169832976325597,0.05109461135520654,0.0015922053008516086,nan,nan,nan,nan
20.949753522872925,0.51556236,-0.3823478,-5.426937,0.0026465622094759937,nan,nan,nan,nan,nan,10.946638107299805,12.146638107299804,0.005322933197021484,0.4071795447469181,-0.4406867576178033,0.0,-5.0,0.729031961014358,-0.02132437194829468,0.04699469895366884,0.0003330821795860513,nan,nan,nan,nan
21.050430059432983,0.5593554,-0.31627944,-5.435238,0.004126643616507868,nan,nan,nan,nan,nan,11.047306299209595,12.247306299209594,0.005301237106323242,0.4480689246668857,-0.3990416503923628,0.0,-5.0,0.7274034444384798,-0.0402429676607731,0.03436556102265541,-0.00010431189116849476,nan,nan,nan,nan
21.146574020385742,0.5770127,-0.2818944,-5.4389405,0.004785305487743299,nan,nan,nan,nan,nan,11.143531322479248,12.343531322479247,0.006525993347167969,0.48319550140381695,-0.3556994622193206,0.0,-5.0,0.7258774833657053,-0.029051151482810816,0.030084953757211146,-0.0027092608724080336,nan,nan,nan,nan
21.24473261833191,0.60486543,-0.21997188,-5.4417896,0.005154709605614764,nan,nan,nan,nan,nan,11.24164891242981,12.441648912429809,0.008869647979736328,0.51470950712086,-0.3083409205399135,0.0,-5.0,0.7250149974630861,-0.04026086968360371,0.013612526298206548,-0.0029469545886784882,nan,nan,nan,nan
21.357120990753174,0.62937266,-0.15595277,-5.437791,0.005159119199723726,nan,nan,nan,nan,nan,11.354016065597534,12.554016065597533,0.005257606506347656,0.545102067949969,-0.25072641567387227,0.0,-5.0,0.7269889342838391,-0.04610057359552431,0.012645263659152299,-0.0035886207305926175,nan,nan,nan,nan
21.450242042541504,0.6377482,-0.10617064,-5.437699,0.0051352942589715875,nan,nan,nan,nan,nan,11.447128057479858,12.647128057479858,0.005633831024169922,0.5654320529037828,-0.20071520507677956,0.0,-5.0,0.7282884266208633,-0.03610568926637469,0.01936904788190495,-0.005342997903688806,nan,nan,nan,nan
21.562400341033936,0.64619863,-0.041327674,-5.435611,0.004832706481047874,nan,nan,nan,nan,nan,11.559289932250977,12.759289932250976,0.008069038391113281,0.5838310247282557,-0.13835221199805545,0.0,-5.0,0.7287123369309216,-0.0422345734939917,0.004679154866157653,-0.004987455462930445,nan,nan,nan,nan
21.656676530838013,0.64834243,-0.0009952687,-5.4331346,0.004555608241937434,nan,nan,nan,nan,nan,11.653645992279053,12.853645992279052,0.005254983901977539,0.5940056920347637,-0.08460045998871059,0.0,-5.0,0.7296618727582916,-0.026483166269525307,0.01673343480004423,-0.006494961212714859,nan,nan,nan,nan
21.75206232070923,0.6460333,0.062126134,-5.428749,0.004126516159960524,nan,nan,nan,nan,nan,11.748942136764526,12.948942136764526,0.005190372467041016,0.5992693802803009,-0.02960084219180565,0.0,-5.0,0.7298875910531396,-0.05165592270706094,0.0003126340765632841,-0.005387232909809669,nan,nan,nan,nan
21.84698724746704,0.6406986,0.110551134,-5.4309144,0.003708824713021086,nan,nan,nan,nan,nan,11.843881607055664,13.043881607055663,0.006584644317626953,0.5994602977762825,0.025443101028975432,0.0,-5.0,0.7298614355342226,-0.041471860309601365,0.020401328976638426,-0.007760723807570325,nan,nan,nan,nan
21.958428144454956,0.63070714,0.1631796,-5.4367995,0.0031541569047737654,nan,nan,nan,nan,nan,11.95531678199768,13.15531678199768,0.005535602569580078,0.5932504454307724,0.08974357356485266,0.0,-5.0,0.7284952844976187,-0.04055295632511183,0.020162337232372627,-0.008087232106262195,nan,nan,nan,nan
22.04975700378418,0.61849415,0.21849193,-5.441777,0.002326060839713946,nan,nan,nan,nan,nan,12.046650648117065,13.246650648117065,0.005560874938964844,0.5830269257718972,0.14170251876720674,0.0,-5.0,0.7265672753519316,-0.03869222664231193,0.006068707911756535,-0.006506485174553356,nan,nan,nan,nan
22.145604372024536,0.60753566,0.25759304,-5.4437265,0.0015478472081525176,nan,nan,nan,nan,nan,12.142517328262329,13.342517328262328,0.0069599151611328125,0.5674126993859111,0.1950457089391963,0.0,-5.0,0.7264257906793444,-0.03416477949934919,0.023495448416259897,-0.007848296887068241,nan,nan,nan,nan
22.260286331176758,0.58390325,0.3093293,-5.448371,0.0011220197028968797,nan,nan,nan,nan,nan,12.257219076156616,13.457219076156616,0.00583195686340332,0.5423469905344153,0.25663152935339584,0.0,-5.0,0.7254511860860747,-0.03615754744704236,0.020430890931825336,-0.008282966832618005,nan,nan,nan,nan
22.352801084518433,0.56240755,0.34542978,-5.4504094,0.001093975353506275,nan,nan,nan,nan,nan,12.349694728851318,13.549694728851318,0.005455970764160156,0.5172715364205226,0.30402328464963335,0.0,-5.0,0.7257248100075231,-0.03599540868030998,0.01570547756147518,-0.00879682068828954,nan,nan,nan,nan
22.455419063568115,0.5227826,0.39212322,-5.4501657,0.0012582354090354044,nan,nan,nan,nan,nan,12.452344417572021,13.65234441757202,0.005402088165283203,0.4846097215056975,0.3537702896261503,0.0,-5.0,0.726558029734234,-0.035041438295917146,-0.01616688400777054,-0.007344678800347514,nan,nan,nan,nan
22.55128264427185,0.48839152,0.421387,-5.451783,0.0014180126834326678,nan,nan,nan,nan,nan,12.548160076141357,13.748160076141357,0.0054247379302978516,0.4498133767578202,0.39707420728338333,0.0,-5.0,0.7277833172727963,-0.03785879362351288,-0.0168611962047035,-0.010205555127227697,nan,nan,nan,nan
22.646694660186768,0.43047234,0.46018985,-5.453076,0.0014974709523990371,nan,nan,nan,nan,nan,12.64359712600708,13.84359712600708,0.006562709808349609,0.41132100940214045,0.4368237942516459,0.0,-5.0,0.7261824408510466,-0.039831035230896,-0.06836769376502325,-0.008719513561158897,nan,nan,nan,nan
22.755311727523804,0.36819372,0.49443558,-5.4494286,0.0008804927901425522,nan,nan,nan,nan,nan,12.752228021621704,13.952228021621703,0.0051174163818359375,0.3632698897639789,0.4775300903512433,0.0,-5.0,0.7265594911220522,-0.05184418872955213,-0.08139443619951299,-0.009123693454870794,nan,nan,nan,nan
22.848916053771973,0.3076798,0.5169984,-5.4482493,0.0007703299497310405,nan,nan,nan,nan,nan,12.84580659866333,14.04580659866333,0.0057561397552490234,0.31864754401319795,0.5083932952885561,0.0,-5.0,0.7272955798191908,-0.05423431089697004,-0.0899253303472627,-0.01010731982054649,nan,nan,nan,nan
22.945173501968384,0.25625595,0.5320631,-5.447618,0.0008238455864679091,nan,nan,nan,nan,nan,12.942057847976685,14.142057847976684,0.008624076843261719,0.27003629728195816,0.5357988411243999,0.0,-5.0,0.7281316179639705,-0.05054336565970312,-0.08627878834422852,-0.009224386362210167,nan,nan,nan,nan
23.047187089920044,0.18037044,0.55160034,-5.4423137,0.0007298287064065323,nan,nan,nan,nan,nan,13.044064998626709,14.244064998626708,0.006015300750732422,0.2159779445196195,0.5597798919942375,0.0,-5.0,0.7287080792717522,-0.030945360801846646,-0.08882887112324558,-0.006079633086581623,nan,nan,nan,nan
23.16178607940674,0.12537387,0.5647635,-5.4358416,0.00021928402238860153,nan,nan,nan,nan,nan,13.158695697784424,14.358695697784423,0.0067369937896728516,0.15275267603309708,0.5802297992732945,0.0,-5.0,0.7306563453647341,-0.035655426228855355,-0.06232015808712836,-0.005246452966918081,nan,nan,nan,nan
23.260931968688965,0.045142896,0.5812365,-5.4293013,-0.0010860456129090992,nan,nan,nan,nan,nan,13.257858037948608,14.457858037948608,0.0059626102447509766,0.09651885338848866,0.59218587533018,0.0,-5.0,0.7312593776185196,-0.039157423875463566,-0.061690812301830475,-0.0009317235752686937,nan,nan,nan,nan
23.355082988739014,-0.007136541,0.5868505,-5.4274993,-0.0019631030817032977,nan,nan,nan,nan,nan,13.351987600326538,14.551987600326537,0.0052454471588134766,0.04231104774098854,0.5985062867164052,0.0,-5.0,0.7316665617442497,-0.051831305544099246,-0.05062126408640205,-0.0014485536248240736,nan,nan,nan,nan
23.4472393989563,-0.06767037,0.5836483,-5.4238024,-0.0024940818774011227,nan,nan,nan,nan,nan,13.444143056869507,14.644143056869506,0.00629425048828125,-0.011102077798733635,0.5998972777639109,0.0,-5.0,0.731688366535449,-0.027372215925990068,-0.055256521559627084,0.0038325636045650497,nan,nan,nan,nan
23.55668020248413,-0.13122405,0.5708186,-5.420326,-0.002224264818426157,nan,nan,nan,nan,nan,13.553689241409302,14.753689241409301,0.0052378177642822266,-0.07444565248371653,0.595363624036835,0.0,-5.0,0.7323525646332825,-0.019770817880530537,-0.04229291357843245,0.0023843804745507543,nan,nan,nan,nan
23.652040004730225,-0.19774179,0.55055594,-5.417419,-0.0011013221407747721,nan,nan,nan,nan,nan,13.648933410644531,14.84893341064453,0.005230426788330078,-0.12886641582218145,0.5859978215600674,0.0,-5.0,0.7314861505317142,0.021171606369189223,-0.0452285165164285,0.0033395565035065997,nan,nan,nan,nan
23.749842166900635,-0.24392828,0.5336552,-5.416414,-0.0005230835355174053,nan,nan,nan,nan,nan,13.74672555923462,14.946725559234618,0.0056078433990478516,-0.18360309004602687,0.5712179140446757,0.0,-5.0,0.7308794517685288,0.019190910984170494,-0.041401721447743345,0.0025310297220808905,nan,nan,nan,nan
23.845410108566284,-0.2941079,0.5027579,-5.4179153,0.0009047405659521023,nan,nan,nan,nan,nan,13.842288970947266,15.042288970947265,0.007823705673217773,-0.23551196966698568,0.5518460946165848,0.0,-5.0,0.7300158875095463,0.031577771717996674,-0.035820708835146806,0.002246824483088732,nan,nan,nan,nan
23.947771787643433,-0.33144104,0.4745087,-5.418294,0.002132606003698582,nan,nan,nan,nan,nan,13.944689512252808,15.144689512252807,0.007441043853759766,-0.28889438731997785,0.5258707378957443,0.0,-5.0,0.7297885162877981,0.021298231801667962,-0.021516094510473142,0.001874274040981808,nan,nan,nan,nan
24.046035051345825,-0.3873285,0.4264144,-5.418009,0.0036392107636712447,nan,nan,nan,nan,nan,14.042935609817505,15.242935609817504,0.006989955902099609,-0.33745895684608135,0.49610629147830265,0.0,-5.0,0.7293223756543215,0.049057056437036214,-0.024217046148616514,-0.0005611587196378576,nan,nan,nan,nan
24.16230034828186,-0.44010103,0.3726224,-5.421907,0.004655994541716672,nan,nan,nan,nan,nan,14.15948224067688,15.35948224067688,0.007431507110595703,-0.3910924238702322,0.45502386310094395,0.0,-5.0,0.7282848074274251,0.05745916558288592,-0.039295109624550933,-0.0016886341064333817,nan,nan,nan,nan
24.245299577713013,-0.473009,0.3308538,-5.424402,0.005161610372959629,nan,nan,nan,nan,nan,14.242239475250244,15.442239475250243,0.006735563278198242,-0.42620332642181674,0.42231590610226644,0.0,-5.0,0.7266746801943369,0.06323118032269551,-0.04257304630276694,-0.001862654149677936,nan,nan,nan,nan
24.349758625030518,-0.49796733,0.29220635,-5.4285846,0.005579475075739786,nan,nan,nan,nan,nan,14.34669017791748,15.54669017791748,0.006036520004272461,-0.46660016279487215,0.37720589613604766,0.0,-5.0,0.7266488373496359,0.03252786074155297,-0.049329777628639965,-0.0031168761875257156,nan,nan,nan,nan
24.451447010040283,-0.5289193,0.23648481,-5.431202,0.005971027631611987,nan,nan,nan,nan,nan,14.448322534561157,15.648322534561157,0.005323886871337891,-0.5013482580176025,0.32962087947021107,0.0,-5.0,0.7262839797217499,0.049904073331154694,-0.03930643493994573,-0.002464459759816995,nan,nan,nan,nan
24.54926824569702,-0.5569139,0.17436126,-5.434818,0.005879901651585432,nan,nan,nan,nan,nan,14.546492576599121,15.74649257659912,0.006082773208618164,-0.5303251970412501,0.280633542868915,0.0,-5.0,0.726823255830511,0.043188638605793785,-0.03242941863770292,-0.003563556521696364,nan,nan,nan,nan
24.64998984336853,-0.571308,0.13318229,-5.435243,0.005524464094917793,nan,nan,nan,nan,nan,14.646931171417236,15.846931171417236,0.0059299468994140625,-0.5550311622283648,0.22790438555550113,0.0,-5.0,0.7264115456777769,0.016961499860288404,-0.03699850564000394,-0.004508030680212861,nan,nan,nan,nan
24.749392986297607,-0.5905595,0.06871184,-5.4315724,0.004775968381751953,nan,nan,nan,nan,nan,14.746267557144165,15.946267557144164,0.006223917007446289,-0.5743247512524915,0.17364066372472695,0.0,-5.0,0.7277710312975972,0.02474684884504314,-0.02447893818189907,-0.0030738826253486457,nan,nan,nan,nan
24.845125198364258,-0.596,0.021384362,-5.4297915,0.004352115745420214,nan,nan,nan,nan,nan,14.842067956924438,16.042067956924438,0.006251811981201172,-0.5879209015487318,0.11978736795725345,0.0,-5.0,0.7294170770838204,0.01714058230326442,-0.029733936430824677,-0.004446167336700252,nan,nan,nan,nan
24.960790157318115,-0.59381187,-0.04766605,-5.426915,0.0037754962474162036,nan,nan,nan,nan,nan,14.957786321640015,16.157786321640014,0.005749225616455078,-0.5976179142419606,0.05341187674186864,0.0,-5.0,0.7300948865033156,0.035326347736280544,-0.006807739813368549,-0.00401590284403033,nan,nan,nan,nan
25.061415433883667,-0.5883764,-0.1010053,-5.4241557,0.0031851903550385225,nan,nan,nan,nan,nan,15.058442115783691,16.25844211578369,0.006161212921142578,-0.5999800218864847,-0.004896257457819321,0.0,-5.0,0.730758058877967,0.04162171752992621,-0.007624448479966215,-0.005181227739154275,nan,nan,nan,nan
25.155343770980835,-0.5791527,-0.16604598,-5.4208374,0.0021497314625824587,nan,nan,nan,nan,nan,15.152218580245972,16.35221858024597,0.005362033843994141,-0.5970734186806418,-0.05918895762733948,0.0,-5.0,0.7306243105462426,0.076562037888536,0.008637203903191887,-0.003946459161848869,nan,nan,nan,nan
25.250672578811646,-0.5641944,-0.21694268,-5.418047,0.0015319502860425718,nan,nan,nan,nan,nan,15.247589588165283,16.447589588165282,0.0066258907318115234,-0.5890890713895628,-0.11390375748579416,0.0,-5.0,0.730908884440323,0.08378756203491868,-4.2497813242505445e-05,-0.005514355050089891,nan,nan,nan,nan
25.346329927444458,-0.53898543,-0.28607294,-5.4191813,0.0007926191590289866,nan,nan,nan,nan,nan,15.343225717544556,16.543225717544555,0.006409645080566406,-0.5760586405398568,-0.1677988160249409,0.0,-5.0,0.7305266001265509,0.09651026226408284,0.022583939695013336,-0.0031302558665673177,nan,nan,nan,nan
25.460535526275635,-0.5126299,-0.34574005,-5.4184003,3.9878863594845076e-05,nan,nan,nan,nan,nan,15.457526445388794,16.657526445388793,0.005903005599975586,-0.5540439890789526,-0.2302938517752515,0.0,-5.0,0.7299859625107227,0.08683582971533933,0.016388492228993887,-0.0038529390745625797,nan,nan,nan,nan
25.55479097366333,-0.48993716,-0.38943115,-5.4141536,-0.0006061960557088367,nan,nan,nan,nan,nan,15.551671266555786,16.751671266555785,0.005198478698730469,-0.5308224606628468,-0.27969182193235537,0.0,-5.0,0.7305725395528849,0.07271173533361372,0.0022140757111244265,-0.005186350777947106,nan,nan,nan,nan
25.66209125518799,-0.4480756,-0.45913357,-5.402334,-0.0016646030104396463,nan,nan,nan,nan,nan,15.65900444984436,16.85900444984436,0.005450725555419922,-0.4990011352117928,-0.3331634239488814,0.0,-5.0,0.7335176734161669,0.06128375350097814,0.026157980614179874,-0.00154139299665901,nan,nan,nan,nan
25.753106355667114,-0.41381192,-0.5030747,-5.396847,-0.0021575012564083312,nan,nan,nan,nan,nan,15.749987125396729,16.949987125396728,0.005413055419921875,-0.4678092881854251,-0.37570529659221713,0.0,-5.0,0.7342847916957649,0.05801247158149234,0.0085934764711982,-0.003995881753918582,nan,nan,nan,nan
25.847919702529907,-0.37723833,-0.5370655,-5.39727,-0.002414793557174156,nan,nan,nan,nan,nan,15.84482455253601,17.04482455253601,0.006506919860839844,-0.43145070842523126,-0.4169535779908431,0.0,-5.0,0.7345400321816431,0.05031336861904563,0.016171093560051746,-0.0034319553322483256,nan,nan,nan,nan
25.94641089439392,-0.3235702,-0.5756332,-5.3960924,-0.0025757543157053815,nan,nan,nan,nan,nan,15.943293571472168,17.143293571472167,0.007575035095214844,-0.3898700874883405,-0.45607161157194787,0.0,-5.0,0.7320766428753721,0.029303464895056572,0.05173983524038408,-0.0010817003454755814,nan,nan,nan,nan
26.060417413711548,-0.25542477,-0.6111851,-5.3911815,-0.0025568903278140494,nan,nan,nan,nan,nan,16.057464122772217,17.257464122772216,0.005112171173095703,-0.33726723665074154,-0.4962366482656966,0.0,-5.0,0.7327753423416379,0.02139498461502705,0.05862386072949711,-0.001041301170327222,nan,nan,nan,nan
26.15402340888977,-0.21242747,-0.6254345,-5.390099,-0.002134050533136214,nan,nan,nan,nan,nan,16.150901079177856,17.350901079177856,0.005774736404418945,-0.29113318980218,-0.5246346021714616,0.0,-5.0,0.7319892527303742,0.012898066596102369,0.06077237928866194,-0.0026292585523620873,nan,nan,nan,nan
26.24794363975525,-0.14515482,-0.63942415,-5.3882456,-0.0012598107922506437,nan,nan,nan,nan,nan,16.24489688873291,17.44489688873291,0.006964445114135742,-0.24232928553979552,-0.5488866161328515,0.0,-5.0,0.731144042203848,-0.010889642536079106,0.07952507281030473,-0.002185454319096014,nan,nan,nan,nan
26.3625967502594,-0.06998664,-0.64455426,-5.387681,-0.00012326474080713926,nan,nan,nan,nan,nan,16.359489679336548,17.559489679336547,0.0060117244720458984,-0.18016796420520534,-0.5723106714662516,0.0,-5.0,0.7308138361301691,-0.022474618107806092,0.07669877760160086,-0.0028157068709346194,nan,nan,nan,nan
26.454028129577637,-0.021798642,-0.6461458,-5.38699,0.0002458532103670648,nan,nan,nan,nan,nan,16.45091199874878,17.65091199874878,0.005957841873168945,-0.12895398242013306,-0.5859785579848362,0.0,-5.0,0.7309831529841161,-0.014326998131927338,0.061479909545649324,-0.0032918963244649786,nan,nan,nan,nan
26.550793409347534,0.050246645,-0.64738053,-5.3857484,-0.00028247766697898913,nan,nan,nan,nan,nan,16.547707557678223,17.747707557678222,0.0057353973388671875,-0.07364172055228402,-0.5954635983786912,0.0,-5.0,0.7309736317464786,-0.005611921271989541,0.08186733563248753,-0.0013684121123667726,nan,nan,nan,nan
26.6483051776886,0.10644195,-0.6435365,-5.3869185,-0.0004017992992761503,nan,nan,nan,nan,nan,16.645183801651,17.845183801651,0.0069730281829833984,-0.017290593557254715,-0.5997508110660942,0.0,-5.0,0.7305074246905692,0.023888301991707585,0.06260764383051294,-0.0010720119728084509,nan,nan,nan,nan
26.75943899154663,0.1664491,-0.63697505,-5.3879137,-0.0005570989623245662,nan,nan,nan,nan,nan,16.75637674331665,17.95637674331665,0.0050089359283447266,0.04714873987013951,-0.5981446282703355,0.0,-5.0,0.7300943587678654,0.034480763633465014,0.047817316011074903,0.00044818309000699855,nan,nan,nan,nan
26.850682258605957,0.22701631,-0.6285794,-5.3881,-0.0009741492842892559,nan,nan,nan,nan,nan,16.8475558757782,18.047555875778198,0.007143735885620117,0.09961661964948708,-0.591672653660459,0.0,-5.0,0.7301960698393889,0.03176490887180764,0.03511015368197354,0.0032502009644426216,nan,nan,nan,nan
26.946266651153564,0.26924562,-0.6188424,-5.3889546,-0.0013388645587796844,nan,nan,nan,nan,nan,16.943193912506104,18.143193912506103,0.006059885025024414,0.1538122569129727,-0.5799498164697853,0.0,-5.0,0.7304622084012733,0.04545174014306097,0.023009100405229566,0.003557890150242095,nan,nan,nan,nan
27.06332015991211,0.33635828,-0.59113413,-5.394703,-0.001442936084829656,nan,nan,nan,nan,nan,17.060217142105103,18.260217142105102,0.0060307979583740234,0.21829318745058773,-0.5588811003358967,0.0,-5.0,0.7292589864320812,0.030471479622450216,0.027111726135507955,0.005055739579888335,nan,nan,nan,nan
27.15823745727539,0.37580734,-0.5681761,-5.399576,-0.0010756140179349755,nan,nan,nan,nan,nan,17.155141353607178,18.355141353607177,0.00519561767578125,0.26858470116911987,-0.5365279659979473,0.0,-5.0,0.7279016527277453,0.015410802423793689,0.03214702201642958,0.0051103191068229865,nan,nan,nan,nan
27.254150867462158,0.42160624,-0.53120255,-5.402157,3.596957292101993e-05,nan,nan,nan,nan,nan,17.251031637191772,18.45103163719177,0.005373239517211914,0.31709225576487504,-0.5093648018208001,0.0,-5.0,0.7270130020478133,-0.03604842009974238,0.03178422972888881,0.005782635149027819,nan,nan,nan,nan
27.350751161575317,0.452379,-0.50189847,-5.4039855,0.0008792776808093129,nan,nan,nan,nan,nan,17.34763503074646,18.54763503074646,0.009376287460327148,0.3632066713425824,-0.477578175686705,0.0,-5.0,0.7280051560374913,-0.023196273998881516,0.02826824568052174,0.0035450875512996315,nan,nan,nan,nan
27.45561695098877,0.49573398,-0.45354638,-5.408245,0.0017032040882026568,nan,nan,nan,nan,nan,17.452500820159912,18.65250082015991,0.0050868988037109375,0.409670433193937,-0.43837214346567693,0.0,-5.0,0.7279995045876088,-0.04055701970419947,0.02824498116964673,0.0035945826608006866,nan,nan,nan,nan
27.54777693748474,0.5223291,-0.41809672,-5.4118104,0.0018020333234372264,nan,nan,nan,nan,nan,17.54466414451599,18.74466414451599,0.005798816680908203,0.44704830295837034,-0.40018472587299114,0.0,-5.0,0.7265151756056074,-0.03102250949750878,0.0356583975197186,0.0016812405717413503,nan,nan,nan,nan
27.64775514602661,0.54968023,-0.3610009,-5.412081,0.0019888997937042782,nan,nan,nan,nan,nan,17.644641160964966,18.844641160964965,0.006524085998535156,0.48357682426345383,-0.3551808765055809,0.0,-5.0,0.7263722107807674,-0.054848028653543726,0.03018416660134378,0.003102462292122413,nan,nan,nan,nan
27.763169050216675,0.577927,-0.29457462,-5.4111366,0.0018432668986999579,nan,nan,nan,nan,nan,17.76008653640747,18.96008653640747,0.006117105484008789,0.520122912751246,-0.2991189656828195,0.0,-5.0,0.7275216777637415,-0.06005042494880806,0.03158162449712616,0.0023865046252044566,nan,nan,nan,nan
27.858801126480103,0.5973049,-0.2399999,-5.4107895,0.0013771298324103086,nan,nan,nan,nan,nan,17.85568356513977,19.05568356513977,0.00553441047668457,0.5455055001023112,-0.24984745217457652,0.0,-5.0,0.7285525991915546,-0.06295221384908736,0.03885666917672377,0.002048027624817782,nan,nan,nan,nan
27.959444999694824,0.6124583,-0.18813963,-5.409984,0.0008507927346916404,nan,nan,nan,nan,nan,17.95635199546814,19.15635199546814,0.0058994293212890625,0.5671991831090539,-0.1956657524464153,0.0,-5.0,0.7292475613822729,-0.0616099662211164,0.052931386183432606,-6.318414309249027e-05,nan,nan,nan,nan
28.05928611755371,0.6289455,-0.1040912,-5.412797,9.855316705143641e-05,nan,nan,nan,nan,nan,18.056259632110596,19.256259632110595,0.0066144466400146484,0.583423256354099,-0.14006178617017298,0.0,-5.0,0.7288301032361433,-0.08178016836686351,0.044460713674241314,0.004510321012638722,nan,nan,nan,nan
28.146880626678467,0.63266987,-0.05153895,-5.419136,-6.668982412361569e-05,nan,nan,nan,nan,nan,18.143810033798218,19.343810033798217,0.005217075347900391,0.5931744853165681,-0.0902442794276981,0.0,-5.0,0.7270344649460488,-0.08182567312595926,0.035091801074978814,0.004240687769750637,nan,nan,nan,nan
28.25606107711792,0.63264626,0.019100852,-5.4294734,9.276467774690825e-05,nan,nan,nan,nan,nan,18.25297522544861,19.452975225448608,0.005487203598022461,0.5993802265892606,-0.027264335198324097,0.0,-5.0,0.7247526152014311,-0.07505582910932712,0.01610310551770528,0.0023052971647707426,nan,nan,nan,nan
28.35325026512146,0.6287503,0.07595605,-5.433512,0.0003676246451479123,nan,nan,nan,nan,nan,18.35017967224121,19.55017967224121,0.006011247634887695,0.5992942924468293,0.029092113031786375,0.0,-5.0,0.7246980625760941,-0.05950647329627137,0.014326193502987918,-0.0033169646934296084,nan,nan,nan,nan
28.447933197021484,0.6219793,0.12776393,-5.4330564,0.0005511667878899985,nan,nan,nan,nan,nan,18.444852590560913,19.644852590560912,0.007851362228393555,0.5941278500625701,0.08373826950700748,0.0,-5.0,0.7254147112188315,-0.056264468157031025,0.003051150521715817,-0.004741782252130475,nan,nan,nan,nan
28.557650566101074,0.60808796,0.19765382,-5.433782,0.0011839014770171274,nan,nan,nan,nan,nan,18.554529905319214,19.754529905319213,0.0058748722076416016,0.5819307574193644,0.1461389529500086,0.0,-5.0,0.726331459139782,-0.050344151257342984,0.0024956280045870744,-0.006761600655872775,nan,nan,nan,nan
28.655394077301025,0.58684593,0.26198947,-5.4360404,0.001500621732114387,nan,nan,nan,nan,nan,18.652278184890747,19.852278184890746,0.007245779037475586,0.5655471606956749,0.2003906410715342,0.0,-5.0,0.7266520372995864,-0.04866301536855722,-0.01339549642588415,-0.006083927783351323,nan,nan,nan,nan
28.749294757843018,0.56741494,0.30982628,-5.436162,0.0013673642928937208,nan,nan,nan,nan,nan,18.746177911758423,19.946177911758422,0.0057525634765625,0.5450550454029629,0.2508286217335933,0.0,-5.0,0.7276694219580851,-0.04523089478571965,-0.005455228443236058,-0.009043928893122909,nan,nan,nan,nan
28.85902214050293,0.5376619,0.36845407,-5.4365716,0.0009662336269240599,nan,nan,nan,nan,nan,18.855902671813965,20.055902671813964,0.0057675838470458984,0.5154378295541318,0.30712187135488384,0.0,-5.0,0.7293547850590559,-0.052287326733136096,-0.005792186897394452,-0.009520974812467258,nan,nan,nan,nan
28.95593571662903,0.50019836,0.42385212,-5.4414415,0.0004545873665839535,nan,nan,nan,nan,nan,18.952833652496338,20.152833652496337,0.0056493282318115234,0.48444236370725435,0.3539994297251456,0.0,-5.0,0.7279683929516092,-0.05491658991107069,-0.0243689693848373,-0.0066648315291530464,nan,nan,nan,nan
29.052095890045166,0.47010237,0.4572474,-5.444073,0.00033367497455091474,nan,nan,nan,nan,nan,19.049036502838135,20.249036502838134,0.007077217102050781,0.4494768170785373,0.39745514326644094,0.0,-5.0,0.7268847699125977,-0.0474237542038815,-0.016236074722078032,-0.009129717229668032,nan,nan,nan,nan
29.146681308746338,0.43348166,0.48961127,-5.4419446,0.0003160903035355732,nan,nan,nan,nan,nan,19.14366579055786,20.34366579055786,0.005211353302001953,0.41129201467990417,0.4368510943794756,0.0,-5.0,0.727480851364508,-0.03696958811821505,-0.01615246684599421,-0.009148729517104826,nan,nan,nan,nan
29.263044118881226,0.37684214,0.52550644,-5.4286737,0.0002920312365888231,nan,nan,nan,nan,nan,19.25999355316162,20.45999355316162,0.005536079406738281,0.35967510742057396,0.4802434977196449,0.0,-5.0,0.7306670968408681,-0.02127442962517235,-0.03260397685944336,-0.00874750091278075,nan,nan,nan,nan
29.3580002784729,0.31780156,0.5498878,-5.4154115,0.00021048505351677071,nan,nan,nan,nan,nan,19.35487461090088,20.554874610900878,0.005223512649536133,0.3141790184874627,0.5111668458950116,0.0,-5.0,0.734359888148196,-0.004787175407550602,-0.05672883516720507,-0.007354140491192358,nan,nan,nan,nan
29.453582048416138,0.2690372,0.564159,-5.4071374,6.37618223987245e-05,nan,nan,nan,nan,nan,19.45046591758728,20.65046591758728,0.0057375431060791016,0.26567266268172957,0.5379758696294843,0.0,-5.0,0.7351881253764132,-0.0033074005510893172,-0.053122098376861666,-0.007451443970495347,nan,nan,nan,nan
29.55033540725708,0.22127096,0.57609296,-5.402602,-0.00024438582481462953,nan,nan,nan,nan,nan,19.547217845916748,20.747217845916747,0.0069484710693359375,0.2142709138155328,0.5604355230467253,0.0,-5.0,0.7349191444660484,-0.0076481168510400465,-0.05019903765644501,-0.006419912824868585,nan,nan,nan,nan
29.64431357383728,0.15445568,0.588077,-5.3969316,-0.00037043547461952653,nan,nan,nan,nan,nan,19.641223907470703,20.841223907470702,0.005252361297607422,0.1625299259749341,0.5775673321462896,0.0,-5.0,0.7337478816250547,-0.00683309023740934,-0.06609231219452463,-0.0044104457956637335,nan,nan,nan,nan
29.760416507720947,0.0836955,0.5961599,-5.387319,-0.000565595066589767,nan,nan,nan,nan,nan,19.757319688796997,20.957319688796996,0.005214214324951172,0.0968270090501713,0.5921355675167622,0.0,-5.0,0.7340291688253991,-0.02302211933634552,-0.0681702640204135,-0.0026168182999382135,nan,nan,nan,nan
29.852396726608276,0.026426902,0.59653276,-5.379559,-0.0008191231375280321,nan,nan,nan,nan,nan,19.84927463531494,21.04927463531494,0.010522603988647461,0.0438804658649992,0.5983932692765441,0.0,-5.0,0.735247189782077,-0.03342727739423591,-0.07166780769152567,-0.001848132790573152,nan,nan,nan,nan
