time,x,y,z,yaw,platform,trajectory,traj_double,traj_short,traj_spin,traj_time,ref_time,comptime,x_ref,y_ref,yaw_ref,z_ref,throttle_input,p_input,q_input,r_input,cbf_term_pitch_cbf,cbf_term_roll_cbf,cbf_term_thrust_cbf,cbf_term_yaw_cbf
10.040649890899658,0.019948093,0.0056148134,-3.009384,-0.0020056601329302886,SIM,CIRCLE_VERTICAL,NormSpd,Not Short,NoSpin,0.033573150634765625,1.2335731506347656,0.007947683334350586,0.12929231042178785,0.0,0.0,-5.325243752385493,0.7247108993816217,0.02587822121845577,0.06047761757706556,0.0004122046055913648,nan,nan,nan,nan
10.146223068237305,0.019948093,0.0056148134,-3.009384,-0.0020056601329302886,nan,nan,nan,nan,nan,0.13913869857788086,1.3391386985778808,0.0054624080657958984,0.09548803318678918,0.0,0.0,-5.336722490365759,0.7247531930859481,0.02375407964746825,0.09060190983853207,0.0014908080388995064,nan,nan,nan,nan
10.249210357666016,0.016474586,0.0012056566,-3.0064995,-0.0013707338406177376,nan,nan,nan,nan,nan,0.24211430549621582,1.4421143054962158,0.0066111087799072266,0.06155307572646835,0.0,0.0,-5.344544944627855,0.7239293195827414,0.015203537393301658,0.11680372426006566,0.0010406413629287393,nan,nan,nan,nan
10.352218389511108,0.0148077775,0.001901723,-3.0049546,-0.0010501723442083014,nan,nan,nan,nan,nan,0.34539055824279785,1.5453905582427978,0.005361318588256836,0.026907317754752354,0.0,0.0,-5.348964176171774,0.723458684423264,0.011989417125937813,0.1216966172385474,0.0008653513186851723,nan,nan,nan,nan
10.433452606201172,0.010943931,0.0021402985,-3.0058656,-2.8056927616284828e-06,nan,nan,nan,nan,nan,0.42636609077453613,1.626366090774536,0.00601649284362793,-0.0004621830224437419,0.0,0.0,-5.349999694838229,0.7228906372516339,0.010255745519410985,0.1258892788129438,0.0004274648252063204,nan,nan,nan,nan
10.544986724853516,0.0044435263,0.0011846984,-3.007926,7.217263130202185e-05,nan,nan,nan,nan,nan,0.5379624366760254,1.7379624366760253,0.005523204803466797,-0.038142154249899855,0.0,0.0,-5.347915472592376,0.7220231992655296,0.012076083824607663,0.1292684334500965,1.4077659978291316e-05,nan,nan,nan,nan
10.64378023147583,-0.008663877,-0.00688683,-3.0161192,5.214911378393088e-05,nan,nan,nan,nan,nan,0.6367020606994629,1.8367020606994628,0.01001882553100586,-0.07112531245547701,0.0,0.0,-5.342696935977126,0.7212998067482018,0.015424823701474483,0.12994368994610359,4.593877788083385e-05,nan,nan,nan,nan
10.74533224105835,-0.019725716,-0.011197895,-3.0230772,-2.5268493503631572e-05,nan,nan,nan,nan,nan,0.7382464408874512,1.9382464408874511,0.0056459903717041016,-0.10436714682001429,0.0,0.0,-5.33407708491402,0.7207585527867615,0.01986446889456801,0.11181003804831156,5.5067502488366895e-05,nan,nan,nan,nan
10.846985816955566,-0.03561826,-0.015986487,-3.031769,9.72714325808898e-05,nan,nan,nan,nan,nan,0.8399255275726318,2.039925527572632,0.005611419677734375,-0.1366461857154434,0.0,0.0,-5.322223245482725,0.7208797257958325,0.014539243687260651,0.045817115201890204,-0.00014151098124537992,nan,nan,nan,nan
10.944324016571045,-0.04375678,-0.018144974,-3.035218,-1.0286472903070506e-05,nan,nan,nan,nan,nan,0.9372415542602539,2.137241554260254,0.0063555240631103516,-0.16630886672000206,0.0,0.0,-5.307963245940662,0.7207255822266143,0.01205595060962698,0.020738649786775833,2.054579876292917e-05,nan,nan,nan,nan
11.057183027267456,-0.056317907,-0.020966401,-3.0398645,-0.0003596241038674782,nan,nan,nan,nan,nan,1.0502049922943115,2.2502049922943117,0.006486177444458008,-0.1988797347511378,0.0,0.0,-5.288004949793084,0.720864874518718,0.005973618522204233,-0.01937184757421439,0.00020238631284914048,nan,nan,nan,nan
11.14908242225647,-0.07745041,-0.023215039,-3.047642,-0.0006067985263793949,nan,nan,nan,nan,nan,1.1420071125030518,2.342007112503052,0.005117177963256836,-0.22362119864840213,0.0,0.0,-5.269246280410801,0.7210529054881245,0.0004336055531224297,-0.05162250614385587,0.00037147767770107104,nan,nan,nan,nan
11.24518370628357,-0.094331615,-0.024067419,-3.049153,-0.0007725678075250901,nan,nan,nan,nan,nan,1.2381160259246826,2.438116025924683,0.006017208099365234,-0.2476347027393271,0.0,0.0,-5.247339956333798,0.7210030672441541,-0.0019416017236962655,-0.06700330555028088,0.0005616376959973176,nan,nan,nan,nan
11.343590259552002,-0.119598,-0.023514407,-3.0464141,-0.00034883765654278797,nan,nan,nan,nan,nan,1.3365364074707031,2.5365364074707033,0.007949352264404297,-0.27001067400286277,0.0,0.0,-5.222697633405745,0.7215092389056774,-0.004671800295552093,-0.0804483515301257,0.00031301164984066953,nan,nan,nan,nan
11.444695472717285,-0.13521583,-0.021304889,-3.0442984,-0.00021365753136855876,nan,nan,nan,nan,nan,1.437607765197754,2.637607765197754,0.006647586822509766,-0.2904459973374926,0.0,0.0,-5.195297523360203,0.7216365337747477,-0.007477279286648589,-0.08456751582180683,0.00019133644958422387,nan,nan,nan,nan
11.541313409805298,-0.15132788,-0.02010496,-3.040761,9.10462342988887e-05,nan,nan,nan,nan,nan,1.534317970275879,2.734317970275879,0.008014917373657227,-0.30740844804115663,0.0,0.0,-5.167332142975961,0.7221241225750766,-0.009630637031067646,-0.07600007956065556,-4.017650187899574e-05,nan,nan,nan,nan
11.638607263565063,-0.17440987,-0.017242305,-3.0352938,0.000889418957847987,nan,nan,nan,nan,nan,1.631934642791748,2.8319346427917482,0.0067901611328125,-0.3218070275422444,0.0,0.0,-5.13762353368674,0.7225374533182328,-0.009856139445557629,-0.06672175574707842,-0.00037998085440067145,nan,nan,nan,nan
11.752258062362671,-0.19978483,-0.009570561,-3.0273993,0.0013412801987128483,nan,nan,nan,nan,nan,1.7452504634857178,2.945250463485718,0.004985809326171875,-0.33492302425651044,0.0,0.0,-5.101619721623674,0.7230575218307803,-0.011171477249463711,-0.05562079014537914,-0.0009476016714044375,nan,nan,nan,nan
11.84994649887085,-0.21629198,-0.0020035026,-3.0178516,0.0011061203530824018,nan,nan,nan,nan,nan,1.8428587913513184,3.0428587913513185,0.005590200424194336,-0.34300717607121867,0.0,0.0,-5.069613771364924,0.723401840326742,-0.014842961644025201,-0.05588495160810089,-0.0008086072406007865,nan,nan,nan,nan
11.94865107536316,-0.22972429,0.0105757415,-2.9957216,0.0007499962970798578,nan,nan,nan,nan,nan,1.9415628910064697,3.14156289100647,0.005337238311767578,-0.34807899163968625,0.0,0.0,-5.036619879561506,0.7244459266921517,-0.018851931486910174,-0.03368207245861597,-0.0005952144819920669,nan,nan,nan,nan
12.045066356658936,-0.2299661,0.019610304,-2.9788492,-0.0002968410210400546,nan,nan,nan,nan,nan,2.0380401611328125,3.2380401611328127,0.006586790084838867,-0.3499766107178971,0.0,0.0,-5.004046226688347,0.7251761564552196,-0.020705890216585206,-0.02005453620282351,-6.871795764595823e-05,nan,nan,nan,nan
12.141657590866089,-0.2218169,0.033848222,-2.9515488,-0.0020811972085698596,nan,nan,nan,nan,nan,2.1346633434295654,3.3346633434295656,0.006775617599487305,-0.34882856150325475,0.0,0.0,-4.971388207333862,0.7262170248540888,-0.020434561032721673,0.009997370794549116,0.0009311623173090397,nan,nan,nan,nan
12.245880365371704,-0.21333835,0.041223366,-2.934434,-0.0029812836221539216,nan,nan,nan,nan,nan,2.238802671432495,3.4388026714324953,0.005950450897216797,-0.3441872512886471,0.0,0.0,-4.93647727925879,0.7268563017232555,-0.019404664204880274,0.021717978463767853,0.0017635642882160693,nan,nan,nan,nan
12.351130962371826,-0.19683054,0.04727287,-2.9115455,-0.003723726624959277,nan,nan,nan,nan,nan,2.3440699577331543,3.5440699577331545,0.005275726318359375,-0.3359542150632992,0.0,0.0,-4.901843159274544,0.7276883734507521,-0.00963080248590566,0.03816935413621622,0.00235618208218998,nan,nan,nan,nan
12.449369192123413,-0.18030956,0.04806022,-2.8989859,-0.0039083793375098855,nan,nan,nan,nan,nan,2.4422965049743652,3.6422965049743654,0.005501985549926758,-0.3251349482458064,0.0,0.0,-4.8704343200180045,0.7281591256657665,0.0010595681074778262,0.04510365243348893,0.0025815458325857315,nan,nan,nan,nan
12.547895669937134,-0.15274535,0.051213514,-2.8819587,-0.0035043352198048426,nan,nan,nan,nan,nan,2.5408120155334473,3.7408120155334474,0.007882118225097656,-0.31134197212038756,0.0,0.0,-4.84010573369821,0.7286143787810818,0.008896819316310877,0.04996236618772006,0.002447340730937289,nan,nan,nan,nan
12.649759769439697,-0.128383,0.05780422,-2.8683689,-0.0022369425728169393,nan,nan,nan,nan,nan,2.6426751613616943,3.8426751613616945,0.005337953567504883,-0.29411527122906983,0.0,0.0,-4.8102733354800895,0.7290656886716452,0.009463435716896474,0.049063394117531085,0.0019996575413749303,nan,nan,nan,nan
12.748667001724243,-0.11006073,0.06567031,-2.8546665,-0.0006190338234718417,nan,nan,nan,nan,nan,2.7415947914123535,3.9415947914123537,0.005749225616455078,-0.27465767722459966,0.0,0.0,-4.783059546553466,0.729466259419887,0.005998765650510782,0.04426433484308394,0.0011477577281956012,nan,nan,nan,nan
12.848558187484741,-0.08683572,0.07951122,-2.8309677,0.002905403533011737,nan,nan,nan,nan,nan,2.8414971828460693,4.0414971828460695,0.005744457244873047,-0.2524605744646856,0.0,0.0,-4.75758783376043,0.7302395405090193,-0.005045189526439437,0.033511446284287774,-0.0008919794952855827,nan,nan,nan,nan
12.95367169380188,-0.07148068,0.086811,-2.816238,0.006188907574538573,nan,nan,nan,nan,nan,2.9466185569763184,4.1466185569763185,0.005167722702026367,-0.22656796576839644,0.0,0.0,-4.733228643052574,0.7307539841968809,-0.009799339901793207,0.02070489379231869,-0.00281708644647196,nan,nan,nan,nan
13.043680667877197,-0.045718472,0.09377128,-2.7974093,0.009488264779947787,nan,nan,nan,nan,nan,3.0365941524505615,4.236594152450562,0.007132768630981445,-0.20253853802394886,0.0,0.0,-4.714556239137862,0.731341396693375,-0.010095213721936207,0.014631025208488892,-0.00542932609489692,nan,nan,nan,nan
13.139459609985352,-0.024017613,0.10089995,-2.7837896,0.012382368536255944,nan,nan,nan,nan,nan,3.1325156688690186,4.332515668869019,0.0061969757080078125,-0.17523951965845186,0.0,0.0,-4.697029521652893,0.731744426512138,-0.007535116066866948,0.00988444788327854,-0.006420378550931799,nan,nan,nan,nan
13.240421056747437,0.009340722,0.114201985,-2.7639956,0.018273430854169093,nan,nan,nan,nan,nan,3.2333738803863525,4.433373880386353,0.0059833526611328125,-0.1449163216460665,0.0,0.0,-4.6814105153640915,0.7322834855475063,-0.009077326039816145,0.01434056200860524,-0.009933667960438002,nan,nan,nan,nan
13.357252597808838,0.03686301,0.12614796,-2.7478414,0.0239264113603713,nan,nan,nan,nan,nan,3.350299119949341,4.550299119949341,0.005541801452636719,-0.10805969672008281,0.0,0.0,-4.667098960733428,0.7327492756914303,-0.013770039367683229,0.01481790435120826,-0.014324184428812902,nan,nan,nan,nan
13.451802968978882,0.059835263,0.1350258,-2.7325356,0.027010593868682514,nan,nan,nan,nan,nan,3.4447133541107178,4.644713354110718,0.005292654037475586,-0.07726994385179731,0.0,0.0,-4.658636036206016,0.7331693089509259,-0.0144517236795152,0.012966121396740677,-0.016207256047400854,nan,nan,nan,nan
13.548840045928955,0.08175396,0.13977379,-2.7188084,0.02698839386861413,nan,nan,nan,nan,nan,3.541762113571167,4.741762113571167,0.005535125732421875,-0.0449532361889713,0.0,0.0,-4.652898852557157,0.7334369526550262,-0.006192704719903193,0.010401004085794429,-0.0172588483391255,nan,nan,nan,nan
13.643957376480103,0.09527285,0.14114967,-2.7106016,0.02488252441235206,nan,nan,nan,nan,nan,3.6368794441223145,4.836879444122315,0.007836580276489258,-0.012894232361028754,0.0,0.0,-4.650237596686236,0.7336898578263833,-0.00020328044272341893,0.002817601620374305,-0.016693662152003134,nan,nan,nan,nan
13.741740226745605,0.11403961,0.1413253,-2.7003393,0.020689145960692018,nan,nan,nan,nan,nan,3.7346911430358887,4.934691143035889,0.0056879520416259766,0.020183823601260698,0.0,0.0,-4.650582465716397,0.733871717588858,0.012722396471460317,-0.0004745353653506484,-0.013736740326139233,nan,nan,nan,nan
13.839035034179688,0.12694433,0.14016168,-2.6950784,0.018165042187274025,nan,nan,nan,nan,nan,3.831995964050293,5.031995964050293,0.005540609359741211,0.05291206776539447,0.0,0.0,-4.654022669695267,0.7339762628392156,0.01712799081892352,-0.0030657373023285066,-0.012125306689756754,nan,nan,nan,nan
13.951605558395386,0.14220853,0.13629122,-2.6884844,0.015287812517000485,nan,nan,nan,nan,nan,3.9445130825042725,5.144513082504273,0.005183219909667969,0.09015513785142501,0.0,0.0,-4.66181062831752,0.7339493017668695,0.022461530847374823,-0.0044475454295823036,-0.010106639422921997,nan,nan,nan,nan
14.043527364730835,0.14988904,0.13257912,-2.6881177,0.01342836377810654,nan,nan,nan,nan,nan,4.03644323348999,5.23644323348999,0.006601095199584961,0.11981263295314923,0.0,0.0,-4.671146030912148,0.7337177093883921,0.02257462704260466,-0.006727046686008633,-0.008674743448910059,nan,nan,nan,nan
14.144162893295288,0.15674196,0.12471211,-2.6908646,0.011851077612615932,nan,nan,nan,nan,nan,4.1370766162872314,5.337076616287232,0.006954193115234375,0.15118558434594753,0.0,0.0,-4.684337333398493,0.7335511555399787,0.021819711220647745,-0.008529080656129067,-0.0077572869884545695,nan,nan,nan,nan
14.257534742355347,0.1674936,0.114206575,-2.6942925,0.010735981277114807,nan,nan,nan,nan,nan,4.250594139099121,5.450594139099121,0.006497383117675781,0.1848448084965634,0.0,0.0,-4.702792333928163,0.7331759492479123,0.022004057505888675,-0.007187732455776338,-0.0068055581423328735,nan,nan,nan,nan
14.340869665145874,0.17692912,0.10825959,-2.695138,0.01061292204273849,nan,nan,nan,nan,nan,4.333968877792358,5.533968877792359,0.005574464797973633,0.2081719562813542,0.0,0.0,-4.7186382459928256,0.7330418886467095,0.01765169472296267,-0.0008093227533607451,-0.006648637183583491,nan,nan,nan,nan
14.455722093582153,0.18714312,0.10267917,-2.6990309,0.010423447373605867,nan,nan,nan,nan,nan,4.448871612548828,5.648871612548828,0.005340099334716797,0.23807585642179477,0.0,0.0,-4.743446133162977,0.7327922371256478,0.009354444174553767,0.005852262098111078,-0.006479357346455843,nan,nan,nan,nan
14.553727388381958,0.19589998,0.09333255,-2.701383,0.010239343993010578,nan,nan,nan,nan,nan,4.54665994644165,5.746659946441651,0.005070686340332031,0.2612280526422319,0.0,0.0,-4.767062445035698,0.73266924503045,0.00665778777950108,0.010646109002779248,-0.006491866438010857,nan,nan,nan,nan
14.645917892456055,0.20476691,0.08549795,-2.7040663,0.009661529188882217,nan,nan,nan,nan,nan,4.638842821121216,5.838842821121216,0.006844997406005859,0.28092077707539415,0.0,0.0,-4.791233343161901,0.7326826095081616,0.007264232450365537,0.015418594585931124,-0.006233022521897267,nan,nan,nan,nan
14.741404294967651,0.22380875,0.07159026,-2.710739,0.008887750618564233,nan,nan,nan,nan,nan,4.734450578689575,5.934450578689575,0.006924867630004883,0.29898840915664165,0.0,0.0,-4.818049646359286,0.7322928294529821,0.008949178011048445,0.024974562838671752,-0.005723887831731787,nan,nan,nan,nan
14.84725284576416,0.23660187,0.062314082,-2.7148573,0.008413159735949619,nan,nan,nan,nan,nan,4.840173006057739,6.040173006057739,0.009716510772705078,0.3159906856953609,0.0,0.0,-4.849501207467383,0.7321689005883381,0.011139822515369416,0.033893321745060226,-0.005441085318456775,nan,nan,nan,nan
14.947144746780396,0.25149837,0.052183118,-2.723913,0.007102385815046115,nan,nan,nan,nan,nan,4.940071105957031,6.140071105957031,0.007433652877807617,0.32902900165741955,0.0,0.0,-4.880668880553639,0.7317698516376697,0.01020772936517476,0.03392183715251667,-0.004735561800080964,nan,nan,nan,nan
15.044654369354248,0.25791463,0.043926634,-2.7318082,0.005808056160388179,nan,nan,nan,nan,nan,5.0375683307647705,6.237568330764771,0.008536100387573242,0.3387985740437856,0.0,0.0,-4.912161931795505,0.7315735331768815,0.008847157614574934,0.0337134952049758,-0.004103664942982103,nan,nan,nan,nan
15.144189834594727,0.26106864,0.02912487,-2.7434406,0.004170345111015171,nan,nan,nan,nan,nan,5.137163162231445,6.3371631622314455,0.007392168045043945,0.3456730734935354,0.0,0.0,-4.945135382426076,0.7310414401554352,0.009878644802696828,0.020398590081073423,-0.002857358498834436,nan,nan,nan,nan
15.255486249923706,0.25595385,0.013102892,-2.7532864,0.00326557329539125,nan,nan,nan,nan,nan,5.248503923416138,6.448503923416138,0.005201101303100586,0.3495664594975732,0.0,0.0,-4.982584765452871,0.7306278682042155,0.013055621295720705,0.008979134459641878,-0.002289908509066208,nan,nan,nan,nan
15.350844621658325,0.24879335,0.0022226705,-2.759001,0.0024000371349667867,nan,nan,nan,nan,nan,5.343765735626221,6.543765735626221,0.005292415618896484,0.3496868338870835,0.0,0.0,-5.014802641859723,0.7304441047471424,0.016904800850321755,0.004706868440840317,-0.0018105020501429996,nan,nan,nan,nan
15.449761152267456,0.22865951,-0.010222896,-2.7680817,0.0010431513328520024,nan,nan,nan,nan,nan,5.442700147628784,6.642700147628784,0.005853414535522461,0.34667546293441576,0.0,0.0,-5.048126119719011,0.7299776933787716,0.015522765862630098,-0.017246125101527718,-0.000919254056126817,nan,nan,nan,nan
15.549604654312134,0.21705817,-0.01582954,-2.7711668,0.0006921063972833287,nan,nan,nan,nan,nan,5.542513608932495,6.742513608932495,0.005929708480834961,0.3404268798246377,0.0,0.0,-5.081299074366574,0.7298186545418566,0.011086279018298055,-0.01969184523488028,-0.000403698140718444,nan,nan,nan,nan
15.644255638122559,0.20539339,-0.020495981,-2.7749236,0.0009180505921536335,nan,nan,nan,nan,nan,5.637185096740723,6.837185096740723,0.006136894226074219,0.33157278883175395,0.0,0.0,-5.112069111294473,0.7296643291530012,0.0012094020858356837,-0.022770945887572943,-0.0005088615850162452,nan,nan,nan,nan
15.73771047592163,0.20024818,-0.021662595,-2.7774668,0.0010812875250150343,nan,nan,nan,nan,nan,5.730664491653442,6.930664491653443,0.005248546600341797,0.3201071032501779,0.0,0.0,-5.1415324784237875,0.7295710394627304,-0.003755369150013016,-0.012650662644328736,-0.000571743696688731,nan,nan,nan,nan
15.853824853897095,0.19522724,-0.02059944,-2.7833264,0.0015582240608860102,nan,nan,nan,nan,nan,5.846782445907593,7.046782445907593,0.0051326751708984375,0.3022397897560165,0.0,0.0,-5.176496769058923,0.7293213892502519,-0.011773752294356706,-7.423480711513796e-05,-0.0009062273991298685,nan,nan,nan,nan
15.949386596679688,0.1832233,-0.01483604,-2.7935069,0.001590756830398811,nan,nan,nan,nan,nan,5.942326068878174,7.142326068878174,0.0054645538330078125,0.2846742019315445,0.0,0.0,-5.203618758356489,0.7288820057611071,-0.0201063579090799,0.002430957679340557,-0.0009991143579871793,nan,nan,nan,nan
16.042699813842773,0.16660225,-0.0071585486,-2.7989337,0.0017979848546556421,nan,nan,nan,nan,nan,6.0357983112335205,7.235798311233521,0.005894899368286133,0.2651401423787408,0.0,0.0,-5.228474735801097,0.7285511354554572,-0.025363580862491637,-0.00014408910091876203,-0.0010418278106239381,nan,nan,nan,nan
16.153804540634155,0.1487167,0.0001934461,-2.8041692,0.002073961226860705,nan,nan,nan,nan,nan,6.1467366218566895,7.34673662185669,0.0051364898681640625,0.2391628491155953,0.0,0.0,-5.255540860926215,0.7283393044585648,-0.028188258908015653,0.0001876650175770637,-0.0014205759329183278,nan,nan,nan,nan
16.25133442878723,0.12937361,0.007808168,-2.810781,0.0012218964054050996,nan,nan,nan,nan,nan,6.244244813919067,7.444244813919068,0.00523066520690918,0.214050723684819,0.0,0.0,-5.27691566891385,0.7279309618414789,-0.02649743851883842,-0.009002379001387254,-0.0012151146492306163,nan,nan,nan,nan
16.34598660469055,0.116276704,0.014210313,-2.8133554,-0.0014949339280776073,nan,nan,nan,nan,nan,6.338989019393921,7.538989019393921,0.006336212158203125,0.18782808288815625,0.0,0.0,-5.295331358440921,0.7277043646081715,-0.02616129928186336,-0.004443367881874304,-7.747750787263378e-05,nan,nan,nan,nan
16.45389223098755,0.088379644,0.025552526,-2.8171754,-0.0069271848351217915,nan,nan,nan,nan,nan,6.44684100151062,7.64684100151062,0.005312204360961914,0.1560743898653666,0.0,0.0,-5.313274296469011,0.7274786060693144,-0.023514299070591296,-0.00974102240415684,0.003184130889499429,nan,nan,nan,nan
16.5488440990448,0.072309405,0.035029102,-2.8186483,-0.010750540181338666,nan,nan,nan,nan,nan,6.541824579238892,7.741824579238892,0.006194353103637695,0.12669401821992315,0.0,0.0,-5.326264655988493,0.7272675476758309,-0.023211985865635543,-0.010173927442114683,0.005086624794098703,nan,nan,nan,nan
16.645370721817017,0.049329378,0.04799193,-2.8214736,-0.01583951852139423,nan,nan,nan,nan,nan,6.638301849365234,7.8383018493652346,0.00677490234375,0.09576038858326735,0.0,0.0,-5.33664513657319,0.7270903196177584,-0.02467324792760815,-0.017827586592398213,0.009238173851892807,nan,nan,nan,nan
16.741259813308716,0.03175066,0.05590448,-2.8251812,-0.018097421369845584,nan,nan,nan,nan,nan,6.734390497207642,7.934390497207642,0.005313396453857422,0.06412376809442127,0.0,0.0,-5.344075779974954,0.7267586584348452,-0.023304022033665217,-0.016150288016281118,0.010576761429675067,nan,nan,nan,nan
16.85156774520874,0.009323693,0.06925021,-2.834709,-0.021651266444818587,nan,nan,nan,nan,nan,6.844480037689209,8.044480037689208,0.005356788635253906,0.027214447810142765,0.0,0.0,-5.348940358557718,0.7262495316439371,-0.01946088882753805,-0.017336420588973837,0.012785369714405458,nan,nan,nan,nan
16.949076652526855,-0.012360366,0.08099107,-2.8486927,-0.024100885010295857,nan,nan,nan,nan,nan,6.942002773284912,8.142002773284911,0.007683753967285156,-0.005752210456321881,0.0,0.0,-5.349952728343224,0.7256429160795321,-0.014004266698670846,-0.017185808719067327,0.014620219422755232,nan,nan,nan,nan
17.04506540298462,-0.023447277,0.08710356,-2.8566942,-0.02501582100276657,nan,nan,nan,nan,nan,7.038089990615845,8.238089990615844,0.0064623355865478516,-0.03818505167217254,0.0,0.0,-5.347910767049244,0.7251455977560866,-0.010294345878862951,-0.015829166588078755,0.015203353090982342,nan,nan,nan,nan
17.139925241470337,-0.042526007,0.09391416,-2.8686066,-0.025379559932610117,nan,nan,nan,nan,nan,7.132871150970459,8.332871150970458,0.005331516265869141,-0.06985577791991232,0.0,0.0,-5.342957971610522,0.7246391711058456,-0.0030124793837147347,-0.012019749175062861,0.015907170812124692,nan,nan,nan,nan
17.256666660308838,-0.0655285,0.095893614,-2.8765464,-0.024387135111234633,nan,nan,nan,nan,nan,7.249586582183838,8.449586582183837,0.005205869674682617,-0.10802291537777146,0.0,0.0,-5.332912976246476,0.7241598226067872,0.008702359291925614,-0.015775174928773866,0.015387925209615757,nan,nan,nan,nan
17.349432229995728,-0.080819994,0.09726174,-2.877969,-0.024120309722802557,nan,nan,nan,nan,nan,7.342427492141724,8.542427492141723,0.008595705032348633,-0.13742508506736037,0.0,0.0,-5.321891823434875,0.7239796274236286,0.012305780162791486,-0.020989639432838766,0.01507563014217656,nan,nan,nan,nan
17.447530508041382,-0.10883456,0.100067176,-2.8874075,-0.023529105526380607,nan,nan,nan,nan,nan,7.4404683113098145,8.640468311309814,0.009477376937866211,-0.16726863201725808,0.0,0.0,-5.307443010561429,0.723788626974903,0.015971467859867826,-0.02732817327593225,0.01477658537548331,nan,nan,nan,nan
17.544812202453613,-0.12613563,0.102655776,-2.8910525,-0.02333527283425402,nan,nan,nan,nan,nan,7.537788391113281,8.73778839111328,0.006096601486206055,-0.19540873303184617,0.0,0.0,-5.290371188403547,0.7233955792980833,0.016706278866503294,-0.03130678016430503,0.014457341739239576,nan,nan,nan,nan
17.655675172805786,-0.15036133,0.10503062,-2.8912518,-0.023766102840173935,nan,nan,nan,nan,nan,7.6486146450042725,8.848614645004272,0.005095005035400391,-0.2253363368572714,0.0,0.0,-5.267812500252969,0.7234365942650387,0.01294665843192436,-0.032979156862943546,0.014785025378919419,nan,nan,nan,nan
17.7496395111084,-0.17241609,0.10295965,-2.8923955,-0.023257837742337528,nan,nan,nan,nan,nan,7.7425525188446045,8.942552518844604,0.007534503936767578,-0.24869314190514355,0.0,0.0,-5.246275701540668,0.7233910346896155,0.014092686331368636,-0.03697203299201902,0.014699951707991146,nan,nan,nan,nan
17.847963333129883,-0.1990573,0.10128593,-2.8937066,-0.021694643446563425,nan,nan,nan,nan,nan,7.84095025062561,9.04095025062561,0.006257534027099609,-0.2709583784456659,0.0,0.0,-5.221543578444728,0.7235459862920861,0.01540119219991261,-0.035899075925806594,0.013958057018952802,nan,nan,nan,nan
17.94703722000122,-0.21135208,0.10270285,-2.8944716,-0.02058922691484643,nan,nan,nan,nan,nan,7.939986228942871,9.13998622894287,0.00738525390625,-0.2908942431931947,0.0,0.0,-5.1946292354119965,0.7235467054518882,0.014789824755945162,-0.03461017237017261,0.013198361720455904,nan,nan,nan,nan
18.045082330703735,-0.22359116,0.10434418,-2.8939705,-0.018991527588436037,nan,nan,nan,nan,nan,8.03806471824646,9.23806471824646,0.006957054138183594,-0.30801246925595016,0.0,0.0,-5.166217684928085,0.7237333209744281,0.008631014337889646,-0.019322761353025797,0.012155973636635337,nan,nan,nan,nan
18.143128156661987,-0.22855984,0.10535289,-2.8929753,-0.01748922474161809,nan,nan,nan,nan,nan,8.136143445968628,9.336143445968627,0.005244255065917969,-0.3223642722236855,0.0,0.0,-5.136313154147696,0.7238794192185782,0.0037346215144372992,-0.009290181043617098,0.011385904458828176,nan,nan,nan,nan
18.251705408096313,-0.22671749,0.105214,-2.891228,-0.015429230225101759,nan,nan,nan,nan,nan,8.244624853134155,9.444624853134155,0.006403684616088867,-0.33486150926035513,0.0,0.0,-5.101822245191692,0.7240126877267732,-0.0008024741709778275,0.005828075343352345,0.010181259150872691,nan,nan,nan,nan
18.354087829589844,-0.2248773,0.101771675,-2.890576,-0.013909578784418536,nan,nan,nan,nan,nan,8.347015619277954,9.547015619277953,0.005251169204711914,-0.34328412640519895,0.0,0.0,-5.068234951148362,0.7240931065905051,1.6160951463050855e-05,0.011582814792267929,0.009203260605756212,nan,nan,nan,nan
18.448349714279175,-0.2154782,0.099964015,-2.8903406,-0.011530494946288295,nan,nan,nan,nan,nan,8.441500902175903,9.641500902175903,0.008061647415161133,-0.3480767967104282,0.0,0.0,-5.036640736780354,0.7243352988283115,0.0031986295238482314,0.022414355556079013,0.007885854141591944,nan,nan,nan,nan
18.54184341430664,-0.20732209,0.100200795,-2.8870072,-0.01017720822028157,nan,nan,nan,nan,nan,8.534846305847168,9.734846305847167,0.005242586135864258,-0.3499624508299869,0.0,0.0,-5.0051266957261955,0.7244171192864958,0.002835551162257038,0.024913487816629092,0.006842220498230878,nan,nan,nan,nan
18.657249689102173,-0.19371255,0.10004025,-2.8758495,-0.008662803863517095,nan,nan,nan,nan,nan,8.650247573852539,9.850247573852538,0.005118608474731445,-0.348357978119867,0.0,0.0,-4.966136759159256,0.7249793746465533,0.001301120077190105,0.02735921929117579,0.005741763520073498,nan,nan,nan,nan
18.754326105117798,-0.18201676,0.09510433,-2.8621702,-0.00779724793016326,nan,nan,nan,nan,nan,8.747234582901001,9.947234582901,0.005324602127075195,-0.34365807252839375,0.0,0.0,-4.9336740685246765,0.7257159323307244,0.0038754798067193916,0.024228042097538934,0.005041477105915307,nan,nan,nan,nan
18.854264974594116,-0.174142,0.09038967,-2.8525445,-0.007561234856434962,nan,nan,nan,nan,nan,8.847178220748901,10.0471782207489,0.005479574203491211,-0.33565777867072266,0.0,0.0,-4.900834201370452,0.7261952569682655,0.006862493822024543,0.015154699863121686,0.004821182238038947,nan,nan,nan,nan
18.9473934173584,-0.16108556,0.081442945,-2.8346512,-0.006644025299078975,nan,nan,nan,nan,nan,8.94030499458313,10.14030499458313,0.006212472915649414,-0.32538377010213165,0.0,0.0,-4.871060470940355,0.726932131863135,0.011366354419133643,0.010069480658886656,0.004528970071255145,nan,nan,nan,nan
19.04288649559021,-0.1524708,0.07618944,-2.8233802,-0.005631251695840319,nan,nan,nan,nan,nan,9.035905838012695,10.235905838012695,0.0057392120361328125,-0.312096770802974,0.0,0.0,-4.841584073861383,0.7277133229380576,0.01439675248031302,0.006425518193866858,0.0037882146612100284,nan,nan,nan,nan
19.1390483379364,-0.13363823,0.06823053,-2.8024395,-0.0011266212936225492,nan,nan,nan,nan,nan,9.132051467895508,10.332051467895507,0.005227565765380859,-0.2960480939802253,0.0,0.0,-4.813303652819141,0.7284317158593796,0.012826241041223811,0.0070082957823468075,0.0016309659505830021,nan,nan,nan,nan
19.25527596473694,-0.11986226,0.064600244,-2.7816894,0.0036565254220169994,nan,nan,nan,nan,nan,9.248183250427246,10.448183250427245,0.005210399627685547,-0.2732704891965469,0.0,0.0,-4.781314747332428,0.7292480538778455,0.0067253712469664065,0.003197269140835346,-0.0014631025260200858,nan,nan,nan,nan
19.357452630996704,-0.11070504,0.066248894,-2.7661095,0.00718302989574199,nan,nan,nan,nan,nan,9.350388050079346,10.550388050079345,0.005275249481201172,-0.2503679130521481,0.0,0.0,-4.755427090392431,0.729800403845115,0.0012535820901216942,-0.004287113458506591,-0.003326799242208344,nan,nan,nan,nan
19.455842971801758,-0.096118756,0.07131613,-2.745625,0.012228976457995899,nan,nan,nan,nan,nan,9.448819398880005,10.648819398880004,0.005321979522705078,-0.22599991598688293,0.0,0.0,-4.732747239539193,0.7305401664105255,-0.01039114928723982,-0.0037534252608778028,-0.006476266883920147,nan,nan,nan,nan
19.553082704544067,-0.08600024,0.07566314,-2.7386837,0.01446868668980112,nan,nan,nan,nan,nan,9.545994758605957,10.745994758605956,0.0054569244384765625,-0.19993637308845258,0.0,0.0,-4.712727574041233,0.7309945679178765,-0.01660155073619942,-0.007229858817169483,-0.008493462613352333,nan,nan,nan,nan
19.64883542060852,-0.07004218,0.08219479,-2.7350214,0.01591495231357193,nan,nan,nan,nan,nan,9.641809463500977,10.841809463500976,0.006858348846435547,-0.1725106615591884,0.0,0.0,-4.695467453876583,0.7309377080825088,-0.02146067565225276,-0.0009054719000788119,-0.009942555392159848,nan,nan,nan,nan
19.74443745613098,-0.059752166,0.086827435,-2.7373083,0.016847854375053508,nan,nan,nan,nan,nan,9.737499952316284,10.937499952316283,0.005666971206665039,-0.1436444966197904,0.0,0.0,-4.680835060523799,0.7308437274123655,-0.021884857502372186,-0.002208707695019818,-0.010420136315678188,nan,nan,nan,nan
19.841876745224,-0.0394087,0.089546114,-2.732625,0.01622146491165455,nan,nan,nan,nan,nan,9.83479642868042,11.03479642868042,0.0069158077239990234,-0.1130360926458072,0.0,0.0,-4.668755616259885,0.7307437069017971,-0.01590514192837366,0.004865219490406646,-0.010532459070263667,nan,nan,nan,nan
19.943681716918945,-0.024499983,0.09258817,-2.7261615,0.015900474470974618,nan,nan,nan,nan,nan,9.936711072921753,11.136711072921752,0.005483388900756836,-0.07990817764702969,0.0,0.0,-4.659243953619117,0.7310202546978912,-0.010413325147127995,0.006487533967999138,-0.009851331773836604,nan,nan,nan,nan
20.039541959762573,-0.0037510258,0.097717464,-2.7177122,0.016557716126331827,nan,nan,nan,nan,nan,10.032517910003662,11.232517910003661,0.005135297775268555,-0.04805304498232914,0.0,0.0,-4.65331440054723,0.7313810535334299,-0.006660022092499322,0.015789592751609283,-0.010268550530538125,nan,nan,nan,nan
20.150969982147217,0.021130778,0.10453346,-2.7126045,0.017665848912849898,nan,nan,nan,nan,nan,10.143909215927124,11.343909215927123,0.006749868392944336,-0.010517217393899615,0.0,0.0,-4.650158052631921,0.7315230326743027,-0.005680957200355295,0.023376647994872067,-0.010887982015195679,nan,nan,nan,nan
20.246606588363647,0.03674354,0.110037945,-2.705563,0.019190045490429665,nan,nan,nan,nan,nan,10.239537715911865,11.439537715911865,0.0059490203857421875,0.021820585838905816,0.0,0.0,-4.650680859336842,0.731852673948676,-0.006895577235724816,0.02331965527277252,-0.011536592784713357,nan,nan,nan,nan
20.341410636901855,0.06337056,0.12309396,-2.6922622,0.02196219588671547,nan,nan,nan,nan,nan,10.334321737289429,11.534321737289428,0.005343437194824219,0.05368975772219977,0.0,0.0,-4.654142500564566,0.7322746026595398,-0.010573343117332159,0.028260627744831818,-0.012965082245544787,nan,nan,nan,nan
20.454726934432983,0.09120179,0.13516009,-2.6804724,0.02533857210441247,nan,nan,nan,nan,nan,10.44763731956482,11.647637319564819,0.005403041839599609,0.09117606541472122,0.0,0.0,-4.662084440879839,0.7327920629185335,-0.016751050663852702,0.033088407942513984,-0.015095883896645684,nan,nan,nan,nan
20.552335500717163,0.11177535,0.1413705,-2.6726117,0.02750303531383572,nan,nan,nan,nan,nan,10.54524302482605,11.745243024826049,0.006209611892700195,0.12260558349387717,0.0,0.0,-4.672177073870472,0.7331172840544926,-0.016602086272743337,0.033540008557674,-0.016502410229758832,nan,nan,nan,nan
20.648566007614136,0.14487047,0.14660521,-2.6604798,0.029245725800077157,nan,nan,nan,nan,nan,10.641497611999512,11.841497611999511,0.007010221481323242,0.15253319309195354,0.0,0.0,-4.684986309813093,0.7333989674484508,-0.010067388016035898,0.03615754329650338,-0.01809468544351107,nan,nan,nan,nan
20.742911338806152,0.16797042,0.14746234,-2.655285,0.029005303404939613,nan,nan,nan,nan,nan,10.735945463180542,11.935945463180541,0.005143880844116211,0.18061794175414145,0.0,0.0,-4.700204804714122,0.7335426647883115,-0.0026232595459431715,0.03636086492039414,-0.01825293712458004,nan,nan,nan,nan
20.83873987197876,0.18821664,0.14401223,-2.6487668,0.027644410425337707,nan,nan,nan,nan,nan,10.831660032272339,12.031660032272338,0.005637645721435547,0.20754348633942643,0.0,0.0,-4.71817434240638,0.7337258576677995,0.005838564930472943,0.03504800428063949,-0.017752668743840506,nan,nan,nan,nan
20.940565586090088,0.21272132,0.13626432,-2.641911,0.02520273748277574,nan,nan,nan,nan,nan,10.93349027633667,12.13349027633667,0.005235433578491211,0.23423516888462334,0.0,0.0,-4.739934843438049,0.7339181972506862,0.017872482212968017,0.031407009342559994,-0.016389073048993594,nan,nan,nan,nan
21.056480169296265,0.23828827,0.12379558,-2.6382248,0.022450526415649322,nan,nan,nan,nan,nan,11.049391031265259,12.249391031265258,0.005234241485595703,0.2618420936030471,0.0,0.0,-4.767752894490431,0.7337605275046978,0.028609378549470887,0.02307248371030316,-0.01465132075146777,nan,nan,nan,nan
21.1380295753479,0.25035277,0.11551107,-2.6378496,0.02066938229538952,nan,nan,nan,nan,nan,11.130953788757324,12.330953788757324,0.005802631378173828,0.2793205936865435,0.0,0.0,-4.789097164688104,0.7335878487460143,0.030215410726791625,0.015681712775137004,-0.01352935038042294,nan,nan,nan,nan
21.25186014175415,0.26221827,0.10310547,-2.6428504,0.018228458266615802,nan,nan,nan,nan,nan,11.244791269302368,12.444791269302367,0.0066416263580322266,0.3007921752880509,0.0,0.0,-4.821047304335804,0.7331699991284804,0.02910674617247714,0.005570402563258498,-0.011790745813239734,nan,nan,nan,nan
21.34638285636902,0.26524198,0.09259986,-2.64656,0.016110214924607937,nan,nan,nan,nan,nan,11.339346885681152,12.539346885681152,0.00526738166809082,0.3158704020032936,0.0,0.0,-4.849248916626521,0.7329900181670288,0.02741473851411751,0.0022883781798042086,-0.010672742592703847,nan,nan,nan,nan
21.455177307128906,0.26477894,0.081034645,-2.6509597,0.013955795064097559,nan,nan,nan,nan,nan,11.44809103012085,12.648091030120849,0.0065729618072509766,0.32994420898955173,0.0,0.0,-4.883223208837291,0.7326565699278281,0.022662498879092895,-0.007493285261659328,-0.009175345719548535,nan,nan,nan,nan
21.549813985824585,0.26306206,0.07136736,-2.6557848,0.012445451925987245,nan,nan,nan,nan,nan,11.542776823043823,12.742776823043823,0.006334066390991211,0.3392365214703018,0.0,0.0,-4.913868806459393,0.7322100985769183,0.014728711077537648,-0.01599313634305656,-0.00800248403093775,nan,nan,nan,nan
21.64206027984619,0.2616153,0.059801277,-2.6627905,0.011447061697367918,nan,nan,nan,nan,nan,11.634966611862183,12.834966611862182,0.005056858062744141,0.34555580132284075,0.0,0.0,-4.944401545236136,0.7317081997845309,0.010513760961126179,-0.01574872812276944,-0.007293919080647306,nan,nan,nan,nan
21.73813533782959,0.25955492,0.053720467,-2.6686354,0.010751192345997676,nan,nan,nan,nan,nan,11.731045007705688,12.931045007705688,0.006444215774536133,0.34922278405541485,0.0,0.0,-4.9766880482030125,0.7315111617194885,0.008013643880535276,-0.00878490669092726,-0.006942857933929559,nan,nan,nan,nan
21.8528733253479,0.25873008,0.049639415,-2.682309,0.009801197628334068,nan,nan,nan,nan,nan,11.845829010009766,13.045829010009765,0.006048440933227539,0.3496566152557594,0.0,0.0,-5.015500045415605,0.7308644481436753,-0.0009568665623834358,-0.002926462757653424,-0.0062874533023496845,nan,nan,nan,nan
21.947181701660156,0.2590049,0.045115467,-2.6961396,0.009209858015917187,nan,nan,nan,nan,nan,11.9401273727417,13.140127372741699,0.006045341491699219,0.34679407832214004,0.0,0.0,-5.0472638047632365,0.7301427283525974,-0.010299549471671388,0.002736734604730045,-0.005846987952089327,nan,nan,nan,nan
22.05719518661499,0.26021624,0.038006686,-2.7073157,0.008901631277572153,nan,nan,nan,nan,nan,12.05010437965393,13.25010437965393,0.005759239196777344,0.3398211831079324,0.0,0.0,-5.083794770189583,0.7297020873595644,-0.010414486370786551,0.008651893081638815,-0.00563967225544865,nan,nan,nan,nan
22.153307914733887,0.26313406,0.032919385,-2.717591,0.008711097010254442,nan,nan,nan,nan,nan,12.14622163772583,13.34622163772583,0.00603175163269043,0.3305812146655285,0.0,0.0,-5.114961126082966,0.7293282467336384,-0.008485573090273134,0.016598260743951546,-0.005553611515442587,nan,nan,nan,nan
22.249422788619995,0.26679924,0.031180691,-2.7260683,0.008363050757772925,nan,nan,nan,nan,nan,12.242633819580078,13.442633819580077,0.006371498107910156,0.31844817240439327,0.0,0.0,-5.145226586726748,0.728963824037516,-0.007456463482893175,0.024361441716975397,-0.005379785005537863,nan,nan,nan,nan
22.347338676452637,0.26234454,0.02947353,-2.7400115,0.008177217372374677,nan,nan,nan,nan,nan,12.340401411056519,13.540401411056518,0.005587577819824219,0.30332269859931205,0.0,0.0,-5.174629151387822,0.7284901631797591,-0.008266315815471041,0.02322564511788719,-0.0050656306003390925,nan,nan,nan,nan
22.443619966506958,0.25429067,0.027546402,-2.7491312,0.00850386140544503,nan,nan,nan,nan,nan,12.436537742614746,13.636537742614745,0.0051233768463134766,0.2858090377814779,0.0,0.0,-5.202022755951961,0.7280745931684441,-0.008847966606918285,0.016995971654727587,-0.005240175849983128,nan,nan,nan,nan
22.55514907836914,0.24092147,0.022788547,-2.7607229,0.009661366591350775,nan,nan,nan,nan,nan,12.54813838005066,13.748138380050658,0.005565643310546875,0.2623959941490149,0.0,0.0,-5.231621117894181,0.7275857636428839,-0.004408804970101483,0.005156712793508823,-0.0058665061540188424,nan,nan,nan,nan
22.650630235671997,0.23320493,0.02671091,-2.7692401,0.00859723637040961,nan,nan,nan,nan,nan,12.643553733825684,13.843553733825683,0.010102272033691406,0.23994794338747363,0.0,0.0,-5.2548038156388595,0.7272170166699535,-0.006548172414417345,-0.0007978440956927094,-0.005795382046998685,nan,nan,nan,nan
22.747626543045044,0.20931986,0.028004114,-2.7830744,0.007568185663189056,nan,nan,nan,nan,nan,12.740598440170288,13.940598440170287,0.005185604095458984,0.21502544909712554,0.0,0.0,-5.2761594761013635,0.7267891831093517,-0.01087105066224659,-0.014869710383952262,-0.004935717914034542,nan,nan,nan,nan
22.84372615814209,0.18649948,0.027428728,-2.7945695,0.007552459804059603,nan,nan,nan,nan,nan,12.836633682250977,14.036633682250976,0.005059480667114258,0.1884999977322094,0.0,0.0,-5.294902951587394,0.7264178068831153,-0.010520418339144891,-0.021816513876118594,-0.004794395990872651,nan,nan,nan,nan
22.939676523208618,0.15732817,0.02474813,-2.8038826,0.008811124783999147,nan,nan,nan,nan,nan,12.93258786201477,14.13258786201477,0.005772590637207031,0.1603756426002713,0.0,0.0,-5.3110942835549215,0.7259547082278351,-0.008021486303549437,-0.034090593598187745,-0.005085217990329852,nan,nan,nan,nan
23.055537939071655,0.12317115,0.018280555,-2.8048582,0.01240840886133956,nan,nan,nan,nan,nan,13.048455715179443,14.248455715179443,0.006205081939697266,0.12460009061132116,0.0,0.0,-5.3270700497135905,0.7259786741882464,0.002085297497341038,-0.04527603268150382,-0.007370782815303009,nan,nan,nan,nan
23.150691747665405,0.09408797,0.013088081,-2.8008988,0.015824807131804564,nan,nan,nan,nan,nan,13.143614768981934,14.343614768981933,0.005868673324584961,0.09403022445876699,0.0,0.0,-5.337132491593786,0.72601618808557,0.006830475582120739,-0.04761721326818513,-0.009070635935499618,nan,nan,nan,nan
23.249497413635254,0.0428148,4.101667e-05,-2.8006814,0.021337372327727526,nan,nan,nan,nan,nan,13.242433786392212,14.442433786392211,0.00604701042175293,0.061446668956339004,0.0,0.0,-5.344563937280398,0.7261868358200011,0.016833314502190513,-0.059290512733823825,-0.01237146904884723,nan,nan,nan,nan
23.346627950668335,0.000542984,-0.009882319,-2.802944,0.024634233782025616,nan,nan,nan,nan,nan,13.339695692062378,14.539695692062377,0.005611419677734375,0.028827915905104983,0.0,0.0,-5.348810767128207,0.726052086491492,0.02213384417151694,-0.0627993385947435,-0.014479766738351963,nan,nan,nan,nan
23.449369192123413,-0.035852592,-0.016054315,-2.806789,0.02608475272647561,nan,nan,nan,nan,nan,13.442397594451904,14.642397594451904,0.006763458251953125,-0.00588577000737652,0.0,0.0,-5.34995050751702,0.7258758777843406,0.022664662254734524,-0.06390735609455876,-0.01631529267780609,nan,nan,nan,nan
23.550809383392334,-0.078370616,-0.017237267,-2.8184261,0.026205189315126425,nan,nan,nan,nan,nan,13.543742179870605,14.743742179870605,0.007028341293334961,-0.040085336408644624,0.0,0.0,-5.3476969453489716,0.7254880274195784,0.011991490378099946,-0.0539041847487573,-0.016761257595249313,nan,nan,nan,nan
23.646629333496094,-0.103693,-0.016011612,-2.831329,0.025773346273867185,nan,nan,nan,nan,nan,13.63997769355774,14.839977693557739,0.005178689956665039,-0.07221005956322203,0.0,0.0,-5.342470009340783,0.7248163642600678,0.002191821461987147,-0.04042138114143166,-0.01648581053405444,nan,nan,nan,nan
23.755764484405518,-0.13762166,-0.01150661,-2.847348,0.024800649529495768,nan,nan,nan,nan,nan,13.748724460601807,14.948724460601806,0.0057141780853271484,-0.10774544002226853,0.0,0.0,-5.333002883102245,0.7241547849430163,-0.009366160513626744,-0.026185702240966793,-0.016128963937904382,nan,nan,nan,nan
23.8553466796875,-0.1598011,-0.007675744,-2.8536394,0.023838400688493175,nan,nan,nan,nan,nan,13.848263502120972,15.048263502120971,0.007122516632080078,-0.13923879099786823,0.0,0.0,-5.3211114433984745,0.723754343402383,-0.016864931823575773,-0.018758593944402806,-0.015411198356198171,nan,nan,nan,nan
23.95199680328369,-0.18361843,-0.0034108986,-2.8537216,0.022488009337565784,nan,nan,nan,nan,nan,13.94499683380127,15.144996833801269,0.006837606430053711,-0.16861284723042053,0.0,0.0,-5.306707854071021,0.7238176030285551,-0.02187024200162832,-0.007591765206086548,-0.01460531982789122,nan,nan,nan,nan
24.047017812728882,-0.19845046,-0.0006785811,-2.8462079,0.020976804091076287,nan,nan,nan,nan,nan,14.039955615997314,15.239955615997314,0.005512714385986328,-0.19601661246528465,0.0,0.0,-5.289961182984265,0.7239867700193303,-0.021675001730413847,-0.0017834886342206835,-0.01385575309276183,nan,nan,nan,nan
24.147451639175415,-0.21055843,-0.0031915747,-2.8391788,0.019963592716739323,nan,nan,nan,nan,nan,14.140507459640503,15.340507459640502,0.005623340606689453,-0.22323065626187305,0.0,0.0,-5.269570165457703,0.724528029219966,-0.014712519676018726,0.012563154263016223,-0.01288272962876679,nan,nan,nan,nan
24.243650913238525,-0.21564144,-0.0010142456,-2.8325493,0.019816076172676673,nan,nan,nan,nan,nan,14.236566543579102,15.4365665435791,0.005665302276611328,-0.247263959901641,0.0,0.0,-5.247710585429367,0.7246714709228002,-0.010452401049876454,0.01691819265281401,-0.012665311409995678,nan,nan,nan,nan
24.343275547027588,-0.2228781,0.0043032137,-2.8224277,0.019300513730788012,nan,nan,nan,nan,nan,14.33621335029602,15.53621335029602,0.005168914794921875,-0.26994111654408215,0.0,0.0,-5.222781941815162,0.7251592806179488,-0.008639334374464382,0.021204320595117794,-0.01245151028297631,nan,nan,nan,nan
24.456995964050293,-0.23065603,0.010472022,-2.8128383,0.017924620599044067,nan,nan,nan,nan,nan,14.449962377548218,15.649962377548217,0.005553245544433594,-0.29275757266172897,0.0,0.0,-5.191815024565889,0.7255088016020517,-0.010092702325898033,0.01914313570936496,-0.011844454437827577,nan,nan,nan,nan
24.5538911819458,-0.23699832,0.008271825,-2.804682,0.015479504142966507,nan,nan,nan,nan,nan,14.54683804512024,15.746838045120239,0.007144451141357422,-0.30941101546099864,0.0,0.0,-5.163599582858251,0.7258638377257736,-0.0019851829034702047,0.014529582432921797,-0.01035623371904303,nan,nan,nan,nan
24.650776386260986,-0.24697177,0.0024158377,-2.8081741,0.013647884713886754,nan,nan,nan,nan,nan,14.643996000289917,15.843996000289916,0.006294965744018555,-0.32338967726555873,0.0,0.0,-5.133862304769034,0.7257149450415843,0.006000667104421763,0.0057005865424313625,-0.009282848974027032,nan,nan,nan,nan
24.745058298110962,-0.25435886,-0.00033205107,-2.804819,0.012556381985745867,nan,nan,nan,nan,nan,14.737971782684326,15.937971782684325,0.005246400833129883,-0.33419975478987296,0.0,0.0,-5.103973669255195,0.7256563250383873,0.013666754884475617,-0.0036990419929214488,-0.00825882674328048,nan,nan,nan,nan
24.84372329711914,-0.26117796,-0.00081232167,-2.798319,0.012079582636086078,nan,nan,nan,nan,nan,14.836635828018188,16.036635828018188,0.005591630935668945,-0.3425822188236399,0.0,0.0,-5.071675821208213,0.7257739895276281,0.015475081917091356,-0.011241138152488374,-0.00781205395522936,nan,nan,nan,nan
24.957390785217285,-0.27070683,0.0016520803,-2.7857077,0.012634039178648276,nan,nan,nan,nan,nan,14.950321197509766,16.150321197509765,0.0055124759674072266,-0.34837654345650154,0.0,0.0,-5.033671708737459,0.7263499247112077,0.010464928018567528,-0.020903013249500668,-0.007986753326535999,nan,nan,nan,nan
25.05137300491333,-0.27480653,0.005593464,-2.7734625,0.012703539643766942,nan,nan,nan,nan,nan,15.044306516647339,16.244306516647338,0.006096363067626953,-0.34999469938713623,0.0,0.0,-5.001926240096174,0.7269029753217888,0.0021426214115947257,-0.019388400148019562,-0.008078703303646028,nan,nan,nan,nan
25.145700216293335,-0.27261677,0.0039669434,-2.7633235,0.011623308029129366,nan,nan,nan,nan,nan,15.138606309890747,16.338606309890746,0.005106449127197266,-0.3487169757767149,0.0,0.0,-4.970058877690674,0.7272329348464353,0.00040270698875171236,-0.01970158531426059,-0.00778922499880562,nan,nan,nan,nan
25.24265694618225,-0.27375242,0.0047369697,-2.7501998,0.00985155138052278,nan,nan,nan,nan,nan,15.23556661605835,16.43556661605835,0.0053708553314208984,-0.34438427327310545,0.0,0.0,-4.937554244962888,0.7278552442625347,-0.0004781315699761943,-0.01032757000205069,-0.006654739093456535,nan,nan,nan,nan
25.35658597946167,-0.27070007,0.008054081,-2.738509,0.009238127494601518,nan,nan,nan,nan,nan,15.34954571723938,16.54954571723938,0.0058896541595458984,-0.3354299563793673,0.0,0.0,-4.900066300161878,0.7283032101237988,-0.003165792346195353,-0.009132696632648686,-0.005951907362226969,nan,nan,nan,nan
25.452662467956543,-0.26377535,0.009792772,-2.732101,0.00909670486123003,nan,nan,nan,nan,nan,15.445608854293823,16.645608854293823,0.0066852569580078125,-0.32471843086837393,0.0,0.0,-4.869393948630314,0.7286343357527302,-0.005803288068053601,-0.0073782877473522876,-0.005794397855206872,nan,nan,nan,nan
25.55359125137329,-0.25096995,0.0072093997,-2.7332253,0.008183692228221327,nan,nan,nan,nan,nan,15.546509981155396,16.746509981155395,0.007094860076904297,-0.31045657177733704,0.0,0.0,-4.838393326127096,0.7286690833288864,-0.00348254079862409,-0.0012459884434240188,-0.005412991127525996,nan,nan,nan,nan
25.64434003829956,-0.22929765,0.00015441363,-2.7300234,0.0060078636181118495,nan,nan,nan,nan,nan,15.637248277664185,16.837248277664184,0.005140781402587891,-0.2951065000580071,0.0,0.0,-4.811818827659318,0.72876236032818,0.005427006091349974,0.018349443972196414,-0.004232351608702623,nan,nan,nan,nan
25.746625185012817,-0.21150741,-0.004589047,-2.7246497,0.00417925859346162,nan,nan,nan,nan,nan,15.739554405212402,16.9395544052124,0.00510096549987793,-0.27508502021155684,0.0,0.0,-4.78360168287344,0.7290458829259939,0.011062962539421003,0.024660918582068918,-0.002978626132618664,nan,nan,nan,nan
25.83872938156128,-0.19791426,-0.007630726,-2.7207253,0.0032047813253456873,nan,nan,nan,nan,nan,15.831661224365234,17.031661224365234,0.01058506965637207,-0.25475395182985067,0.0,0.0,-4.759999116611888,0.729337115611886,0.012426357208793768,0.02226476891330144,-0.0023165736820988307,nan,nan,nan,nan
25.945414304733276,-0.17983618,-0.01069821,-2.7170327,0.0018962621004850588,nan,nan,nan,nan,nan,15.938337087631226,17.138337087631225,0.0053751468658447266,-0.22869624987944517,0.0,0.0,-4.73505090056564,0.7295015156858496,0.011530800005404645,0.0198622999139908,-0.001424744352741253,nan,nan,nan,nan
26.055495500564575,-0.16080816,-0.009171847,-2.7048748,0.0005880668934746839,nan,nan,nan,nan,nan,16.04840660095215,17.248406600952148,0.006277799606323242,-0.19926608549931227,0.0,0.0,-4.712262224986394,0.7300821107082333,0.004959448782420518,0.01550551049794892,-0.0006252701718155453,nan,nan,nan,nan
26.14842414855957,-0.14472367,-0.005841218,-2.6976287,-0.0005845447151755469,nan,nan,nan,nan,nan,16.14137864112854,17.34137864112854,0.0051572322845458984,-0.17263746972777902,0.0,0.0,-4.695539322660561,0.7305294815126614,-0.0002925543645015873,0.012150176846447152,-2.3979774525496204e-05,nan,nan,nan,nan
26.241118907928467,-0.12600668,-0.003121421,-2.6929703,-0.0013222758273244962,nan,nan,nan,nan,nan,16.23403835296631,17.434038352966308,0.006295204162597656,-0.14471165907684858,0.0,0.0,-4.681317500123986,0.7309334856950409,-0.006086844418860976,0.011280020808623942,0.0007335046695282464,nan,nan,nan,nan
26.35679268836975,-0.09759568,0.0012144451,-2.6868284,-0.0025863837018063715,nan,nan,nan,nan,nan,16.349727153778076,17.549727153778075,0.009664535522460938,-0.10824373705347384,0.0,0.0,-4.667158756478861,0.7312069687404378,-0.01119716663344039,0.01602925325703301,0.0013272273902466712,nan,nan,nan,nan
26.45216131210327,-0.077174954,0.004665858,-2.6814556,-0.0037839915034472878,nan,nan,nan,nan,nan,16.445090770721436,17.645090770721435,0.005568981170654297,-0.07714539976374472,0.0,0.0,-4.65860786872675,0.7315171677291724,-0.012253337409967856,0.017136805102580845,0.002106248024059969,nan,nan,nan,nan
26.54373788833618,-0.04800931,0.0035644039,-2.6834495,-0.006710987225952165,nan,nan,nan,nan,nan,16.53666043281555,17.73666043281555,0.005868434906005859,-0.04666441490142834,0.0,0.0,-4.653124759629766,0.7315286147125087,-0.007306620983928538,0.024214707564566673,0.003736561926055812,nan,nan,nan,nan
26.64180326461792,-0.024193417,0.0024367524,-2.68697,-0.008679329630989678,nan,nan,nan,nan,nan,16.634721279144287,17.834721279144286,0.00661778450012207,-0.013623870053259794,0.0,0.0,-4.650265257423898,0.7315410555068442,-0.002291189512694099,0.026745034048894487,0.005144155575386667,nan,nan,nan,nan
26.751140356063843,0.008459206,0.0002556254,-2.6913407,-0.010546422786092625,nan,nan,nan,nan,nan,16.744092226028442,17.94409222602844,0.005129814147949219,0.023358278142130724,0.0,0.0,-4.650780311491126,0.7314761796257497,0.0032096073382984146,0.03148584987500905,0.006474259454175337,nan,nan,nan,nan
26.844852685928345,0.03181674,-0.002205238,-2.6944916,-0.011421949080105631,nan,nan,nan,nan,nan,16.837790489196777,18.037790489196777,0.005135536193847656,0.054849130478908194,0.0,0.0,-4.654324468777862,0.731451431094251,0.0060063557497660415,0.030766437351053,0.007232177868691658,nan,nan,nan,nan
26.94483733177185,0.052094325,-0.0062410054,-2.698374,-0.011354235596433908,nan,nan,nan,nan,nan,16.937777519226074,18.137777519226074,0.005438327789306641,0.08795132832626117,0.0,0.0,-4.661230810365455,0.7313811824935498,0.008475692484616949,0.023138741273837974,0.007281581507258795,nan,nan,nan,nan
27.04116415977478,0.07417942,-0.012673281,-2.7072916,-0.011439561374902076,nan,nan,nan,nan,nan,17.034090280532837,18.234090280532836,0.005646228790283203,0.11906435599035632,0.0,0.0,-4.670874371808269,0.7312469491640937,0.011088151658642817,0.014953107120046367,0.007242802111987616,nan,nan,nan,nan
27.156639337539673,0.101202525,-0.018844316,-2.7140422,-0.011039570079755024,nan,nan,nan,nan,nan,17.14955759048462,18.34955759048462,0.007340908050537109,0.1549828510657972,0.0,0.0,-4.686184264455211,0.7311350118557441,0.012104443738401603,0.010894929303882068,0.007163625004943738,nan,nan,nan,nan
27.251187801361084,0.11870242,-0.023840697,-2.7160025,-0.01045355506497788,nan,nan,nan,nan,nan,17.24415874481201,18.44415874481201,0.005511283874511719,0.18299239390427202,0.0,0.0,-4.701648221434523,0.7312204758576983,0.011296081906977819,0.011010794902629727,0.006773776983122365,nan,nan,nan,nan
27.350789785385132,0.13649681,-0.02781664,-2.7170002,-0.009369852740690833,nan,nan,nan,nan,nan,17.343773126602173,18.543773126602172,0.005324840545654297,0.2108290941432215,0.0,0.0,-4.7206237428435465,0.7314371301578257,0.00994825997467712,0.010402839970689548,0.0061838862873981,nan,nan,nan,nan
27.450912714004517,0.15225276,-0.03001284,-2.7180514,-0.008658614982358287,nan,nan,nan,nan,nan,17.443960666656494,18.643960666656493,0.005300283432006836,0.23685528238512096,0.0,0.0,-4.7423188497265185,0.7316621415393441,0.007848403759546404,0.011828221187152028,0.005697206925164964,nan,nan,nan,nan
27.547102689743042,0.17336015,-0.035271417,-2.7183702,-0.007916169694970299,nan,nan,nan,nan,nan,17.540066719055176,18.740066719055175,0.005146503448486328,0.25973817568480223,0.0,0.0,-4.765402301605641,0.7317362341438086,0.005233462538934002,0.012412798674662658,0.005239041845293992,nan,nan,nan,nan
27.650043487548828,0.18740647,-0.036217898,-2.7175934,-0.00688534893110747,nan,nan,nan,nan,nan,17.643028020858765,18.843028020858764,0.005061626434326172,0.281763061800111,0.0,0.0,-4.792371540955902,0.7319441305211892,0.0022209258822034994,0.015655005317956938,0.004555751576515235,nan,nan,nan,nan
27.743276119232178,0.2033875,-0.033261497,-2.715198,-0.004935076762551435,nan,nan,nan,nan,nan,17.736194133758545,18.936194133758544,0.005674600601196289,0.2992946429186656,0.0,0.0,-4.818553818667384,0.7320859544847125,-0.0046197258865916776,0.014075073696616145,0.003656758780795146,nan,nan,nan,nan
27.846709966659546,0.20893157,-0.030110411,-2.7125041,-0.0032746835871601205,nan,nan,nan,nan,nan,17.839622259140015,19.039622259140014,0.0051784515380859375,0.31591051895244676,0.0,0.0,-4.849333002899787,0.7323390812823045,-0.010458696582372999,0.012519314241767719,0.002544925301196846,nan,nan,nan,nan
27.944981813430786,0.20681621,-0.030159065,-2.7066135,-0.0009653393209385626,nan,nan,nan,nan,nan,17.937906742095947,19.137906742095947,0.005637168884277344,0.32877862084971815,0.0,0.0,-4.879980757908753,0.7325503072277368,-0.011766553012213224,-0.0038567839458090716,0.001069907322493495,nan,nan,nan,nan
28.04835057258606,0.20704125,-0.028839303,-2.7090483,0.000594488266931558,nan,nan,nan,nan,nan,18.041268825531006,19.241268825531005,0.005396366119384766,0.33911060794962955,0.0,0.0,-4.913374394224152,0.73258110128152,-0.011289266929709612,-0.004708804515502392,3.803564307076888e-05,nan,nan,nan,nan
28.14380407333374,0.20849244,-0.02626607,-2.7181952,0.002196099312673103,nan,nan,nan,nan,nan,18.13673233985901,19.336732339859008,0.0055866241455078125,0.34565019504919686,0.0,0.0,-4.944991431008868,0.7321790534330749,-0.010335505744745488,-0.006527687587742209,-0.00110168376668463,nan,nan,nan,nan
28.24217176437378,0.2102753,-0.024620827,-2.7238657,0.0029337924450563296,nan,nan,nan,nan,nan,18.235109090805054,19.435109090805053,0.006400108337402344,0.3493116704918959,0.0,0.0,-4.978060153643174,0.7318855024202002,-0.009468368648972388,0.0003565689498037518,-0.0016577731469023238,nan,nan,nan,nan
28.34002447128296,0.21303266,-0.022339791,-2.7287288,0.00465107398749968,nan,nan,nan,nan,nan,18.3329861164093,19.5329861164093,0.008532047271728516,0.34982209151944577,0.0,0.0,-5.01115814881423,0.7314794850565142,-0.005587221377211671,0.003905347921136993,-0.0027119202089557603,nan,nan,nan,nan
28.454150438308716,0.20766935,-0.019070538,-2.7318485,0.006761088096411553,nan,nan,nan,nan,nan,18.447094440460205,19.647094440460204,0.006328582763671875,0.346467909900181,0.0,0.0,-5.049598260144888,0.7313326360100704,-0.003522748255478916,0.004937907702995517,-0.0038826738462812336,nan,nan,nan,nan
28.55329704284668,0.20507921,-0.013853324,-2.7377095,0.008306723751350685,nan,nan,nan,nan,nan,18.54630756378174,19.746307563781738,0.006701946258544922,0.3401264346583074,0.0,0.0,-5.082547007496506,0.7311644034267021,-0.0032757320719570106,0.007470218463159659,-0.004853794835478379,nan,nan,nan,nan
28.65252184867859,0.19975862,-0.010498082,-2.7525892,0.010720572711314711,nan,nan,nan,nan,nan,18.64553952217102,19.84553952217102,0.005379438400268555,0.3306569438924861,0.0,0.0,-5.114743128141432,0.7305870643834005,-0.003056680573301687,0.0041868590215196734,-0.006328250531436066,nan,nan,nan,nan
28.749643564224243,0.19396214,-0.010701304,-2.7657342,0.011922272586839634,nan,nan,nan,nan,nan,18.74263310432434,19.94263310432434,0.0053713321685791016,0.31844827281362925,0.0,0.0,-5.145226366552415,0.730093640627191,-0.0006944924192523103,0.006700286354400517,-0.007262720750268278,nan,nan,nan,nan
28.84410262107849,0.1879387,-0.011606111,-2.775775,0.012465017716509465,nan,nan,nan,nan,nan,18.837018966674805,20.037018966674804,0.00579071044921875,0.303892047088844,0.0,0.0,-5.173636470006021,0.7295393350180059,0.003632254582851824,0.007012398976909481,-0.007769181240543523,nan,nan,nan,nan
28.942630529403687,0.17403713,-0.011344889,-2.7895732,0.01278407730200765,nan,nan,nan,nan,nan,18.935551166534424,20.135551166534423,0.007173776626586914,0.28600157036896284,0.0,0.0,-5.2017500972651245,0.7288441588888626,0.005810094629155008,-0.003326835402992016,-0.00817262899591653,nan,nan,nan,nan
29.05479598045349,0.15136935,-0.013276403,-2.8037872,0.013105897763597413,nan,nan,nan,nan,nan,19.047838926315308,20.247838926315307,0.00848245620727539,0.26246302939075045,0.0,0.0,-5.231545153702318,0.728330082645529,0.006248162599009169,-0.009623145810210204,-0.008347421954600356,nan,nan,nan,nan
29.153449773788452,0.12811893,-0.01357529,-2.8121214,0.013321855524947693,nan,nan,nan,nan,nan,19.146652221679688,20.346652221679687,0.0059359073638916016,0.2391836965992244,0.0,0.0,-5.255521347994899,0.7279827748925931,0.006169095468961748,-0.013597329261348979,-0.008428530267994274,nan,nan,nan,nan
29.250783681869507,0.10834712,-0.012612447,-2.8180683,0.013139175102512196,nan,nan,nan,nan,nan,19.2438063621521,20.4438063621521,0.005706071853637695,0.2141680687169669,0.0,0.0,-5.276824923628716,0.7276798180008182,0.004433647509688901,-0.022933384948228653,-0.00857284223319271,nan,nan,nan,nan
29.34714674949646,0.083670646,-0.009645166,-2.82551,0.011765466265066254,nan,nan,nan,nan,nan,19.34005904197693,20.540059041976928,0.0051631927490234375,0.18752251215065235,0.0,0.0,-5.295525476798039,0.7273501592214766,-0.0017239795552172052,-0.030189611349409565,-0.00782063493405619,nan,nan,nan,nan
29.445075750350952,0.06627407,-0.0047605634,-2.8339252,0.009675762413078957,nan,nan,nan,nan,nan,19.43799352645874,20.63799352645874,0.0055124759674072266,0.1587478832297744,0.0,0.0,-5.311928051912722,0.726980945351293,-0.005929365845044523,-0.024644878034095076,-0.006937004292655126,nan,nan,nan,nan
29.54153609275818,0.041644342,0.0016986851,-2.8486593,0.0077431345342237525,nan,nan,nan,nan,nan,19.53444766998291,20.73444766998291,0.006745338439941406,0.12901731984571488,0.0,0.0,-5.325352933258375,0.7264864496659922,-0.012394905820819879,-0.023311669061187125,-0.005227637592880083,nan,nan,nan,nan
29.656561613082886,0.021667171,0.0040094457,-2.861904,0.007620011972606121,nan,nan,nan,nan,nan,19.64948034286499,20.84948034286499,0.006348371505737305,0.09211720860957301,0.0,0.0,-5.337660213643805,0.7258517384884485,-0.01148978285641884,-0.017147102694474656,-0.004917483921904015,nan,nan,nan,nan
29.74825096130371,0.0032182427,0.0042110635,-2.8720148,0.007913367179143123,nan,nan,nan,nan,nan,19.74116563796997,20.94116563796997,0.0051043033599853516,0.061869005671188936,0.0,0.0,-5.344488354138798,0.7253671866569413,-0.007723618834145572,-0.0135572945597643,-0.005054996934692933,nan,nan,nan,nan
29.849801063537598,-0.024093008,0.0007983609,-2.8818045,0.009700712307102318,nan,nan,nan,nan,nan,19.84272003173828,21.04272003173828,0.0052776336669921875,0.027808060023535714,0.0,0.0,-5.348893553677518,0.7251095993639546,0.0008979444202833403,-0.012466437133545897,-0.005744299603240056,nan,nan,nan,nan
