time,x,y,z,yaw,platform,trajectory,traj_double,traj_short,traj_spin,traj_time,ref_time,comptime,x_ref,y_ref,yaw_ref,z_ref,throttle_input,p_input,q_input,r_input,cbf_term_pitch_cbf,cbf_term_roll_cbf,cbf_term_thrust_cbf,cbf_term_yaw_cbf
10.058941841125488,0.055202797,-0.030691277,-3.0158246,0.002333878455680478,SIM,FIG8_VERTICAL,NormSpd,Short,NoSpin,0.05544924736022949,1.2554492473602294,0.005192756652832031,nan,nan,nan,nan,0.7170962271540002,0.09837960149209948,-0.003645626741750595,-0.0016039822935712208,nan,nan,nan,nan
10.153739929199219,0.056095347,-0.028153457,-3.0155923,0.0013006938641078169,nan,nan,nan,nan,nan,0.15015292167663574,1.3501529216766357,0.005568981170654297,nan,nan,nan,nan,0.7174454021661104,0.08691000374941045,-0.0003845372327527934,-0.001119594552900853,nan,nan,nan,nan
10.250505685806274,0.05384422,-0.02912309,-3.0150301,0.0004238090676627858,nan,nan,nan,nan,nan,0.2469465732574463,1.4469465732574462,0.005833625793457031,nan,nan,nan,nan,0.7182222901305857,0.06684210266527088,-0.00316202817312472,-0.0004056320556020464,nan,nan,nan,nan
10.345291376113892,0.052703567,-0.030772334,-3.0097485,-0.0003730607422987881,nan,nan,nan,nan,nan,0.3418314456939697,1.5418314456939697,0.00621342658996582,nan,nan,nan,nan,0.7198098042757572,0.023554586239647877,-0.008722663705636013,6.516276516069806e-05,nan,nan,nan,nan
10.456067323684692,0.05269355,-0.02730713,-3.0042577,-0.0010492070891540452,nan,nan,nan,nan,nan,0.45244908332824707,1.652449083328247,0.00501704216003418,nan,nan,nan,nan,0.7216456844298349,-0.023751982915244992,-0.009922616569212131,0.00044160193425027856,nan,nan,nan,nan
10.562864780426025,0.050570842,-0.02159607,-2.997471,-0.0018743234052434141,nan,nan,nan,nan,nan,0.5593037605285645,1.7593037605285644,0.005957603454589844,nan,nan,nan,nan,0.7231259845816781,-0.058244505450831936,-0.009230650410962979,0.000981503891462739,nan,nan,nan,nan
10.638995885848999,0.045548283,-0.014789247,-2.986043,-0.0029658071292369206,nan,nan,nan,nan,nan,0.6354384422302246,1.8354384422302246,0.0052835941314697266,nan,nan,nan,nan,0.7241674101768694,-0.07093872738386767,-0.01147362952073162,0.0013699175947417721,nan,nan,nan,nan
10.759947538375854,0.045419607,-0.009595883,-2.9806402,-0.003914873859112129,nan,nan,nan,nan,nan,0.7563929557800293,1.9563929557800293,0.005037784576416016,nan,nan,nan,nan,0.7257951482591279,-0.08370607213852321,-0.011012623939125835,0.002213556237357025,nan,nan,nan,nan
10.853100776672363,0.042375397,-0.0020680197,-2.9717894,-0.004786719826276103,nan,nan,nan,nan,nan,0.8494977951049805,2.0494977951049806,0.005491495132446289,nan,nan,nan,nan,0.7269055102217951,-0.08397464098460464,-0.009302688508127675,0.0028797474021627144,nan,nan,nan,nan
10.963689804077148,0.03943049,0.006544338,-2.9594543,-0.0051321385330723324,nan,nan,nan,nan,nan,0.9602656364440918,2.160265636444092,0.00849461555480957,nan,nan,nan,nan,0.7281627107114108,-0.07298896052131933,-0.010088852027833491,0.0030819275924696622,nan,nan,nan,nan
11.05229926109314,0.038566872,0.013820182,-2.945925,-0.005519859671354857,nan,nan,nan,nan,nan,1.048743486404419,2.248743486404419,0.006074190139770508,nan,nan,nan,nan,0.7291940879331255,-0.05676973523167324,-0.00494532740639235,0.003399738377666829,nan,nan,nan,nan
11.16039490699768,0.030679256,0.018221185,-2.9325166,-0.004621392663064857,nan,nan,nan,nan,nan,1.156893253326416,2.356893253326416,0.005061626434326172,nan,nan,nan,nan,0.7302546465344739,-0.03712958273301033,-0.00737913060565289,0.0031148577296628475,nan,nan,nan,nan
11.252299547195435,0.024840387,0.02185018,-2.9215884,-0.00409174102472973,nan,nan,nan,nan,nan,1.2486977577209473,2.4486977577209474,0.006410121917724609,nan,nan,nan,nan,0.7309383129293575,-0.029830661351954425,-0.009480608710932852,0.002682286556047667,nan,nan,nan,nan
11.36309552192688,0.019620294,0.024604492,-2.9104922,-0.0036669164605834022,nan,nan,nan,nan,nan,1.3595457077026367,2.559545707702637,0.006117582321166992,nan,nan,nan,nan,0.73160722072906,-0.014665829541753559,-0.009957643159772952,0.0023436346654113205,nan,nan,nan,nan
11.453973770141602,0.018156754,0.022648513,-2.903432,-0.003550922055258452,nan,nan,nan,nan,nan,1.45035982131958,2.6503598213195803,0.005443096160888672,nan,nan,nan,nan,0.7318211888447528,-0.0051578247073794745,-0.006630148244716862,0.0022199989326812217,nan,nan,nan,nan
11.562201976776123,0.019553674,0.013601143,-2.8923197,-0.00322945835691108,nan,nan,nan,nan,nan,1.55861234664917,2.75861234664917,0.0064089298248291016,nan,nan,nan,nan,0.7319941233938105,0.01163870808341962,6.891793108833221e-05,0.0020633544588209633,nan,nan,nan,nan
11.657863140106201,0.02515471,0.0010567566,-2.8767655,-0.003373414284889435,nan,nan,nan,nan,nan,1.6542572975158691,2.8542572975158693,0.004888772964477539,nan,nan,nan,nan,0.7322449560380027,0.026055558340237248,0.008263974202260976,0.002092369506065599,nan,nan,nan,nan
11.75256061553955,0.034404725,-0.011114116,-2.8676102,-0.003411405933050801,nan,nan,nan,nan,nan,1.7489690780639648,2.948969078063965,0.005768775939941406,nan,nan,nan,nan,0.732314189579827,0.030456693057885693,0.014884149310264128,0.002253293004757094,nan,nan,nan,nan
11.861442565917969,0.043283533,-0.03106296,-2.8617635,-0.003179287201138594,nan,nan,nan,nan,nan,1.8579270839691162,3.0579270839691164,0.004965305328369141,nan,nan,nan,nan,0.7320211400671186,0.03982325605331678,0.023587051485900186,0.00214225958729739,nan,nan,nan,nan
11.952690362930298,0.053408936,-0.063639864,-2.8607361,-0.002611417561025756,nan,nan,nan,nan,nan,1.9491422176361084,3.1491422176361086,0.006067752838134766,nan,nan,nan,nan,0.7313691102698938,0.05093746268389899,0.023838478186402445,0.002054426752457519,nan,nan,nan,nan
12.062373399734497,0.064321056,-0.09541044,-2.8613017,-0.0007372849689360494,nan,nan,nan,nan,nan,2.0587902069091797,3.25879020690918,0.00525975227355957,nan,nan,nan,nan,0.7305344898156857,0.05661843110629795,0.025236549637092077,0.001094280286915912,nan,nan,nan,nan
12.154206275939941,0.074158564,-0.119411975,-2.860623,0.001175498018603279,nan,nan,nan,nan,nan,2.150597095489502,3.350597095489502,0.00592494010925293,nan,nan,nan,nan,0.7298906895274909,0.05765100339852173,0.026022722647868195,2.1063894863293e-05,nan,nan,nan,nan
12.264354467391968,0.08351896,-0.15493108,-2.852916,0.003287210796078293,nan,nan,nan,nan,nan,2.260859489440918,3.460859489440918,0.006760835647583008,nan,nan,nan,nan,0.7292625317636261,0.054772144004704794,0.021540973186544195,-0.0014729657342070646,nan,nan,nan,nan
12.35781478881836,0.084438525,-0.17852324,-2.8514016,0.0038894229909330045,nan,nan,nan,nan,nan,2.354200839996338,3.554200839996338,0.004997968673706055,nan,nan,nan,nan,0.728818389170695,0.050380517642241274,0.014559785808996516,-0.002126868440015465,nan,nan,nan,nan
12.446877717971802,0.08263566,-0.20136707,-2.8516333,0.0038147441262974926,nan,nan,nan,nan,nan,2.4433393478393555,3.6433393478393556,0.006253719329833984,nan,nan,nan,nan,0.7281252338678332,0.044870036374195774,-0.0012446287922979827,-0.002220048318051002,nan,nan,nan,nan
12.556077718734741,0.07932305,-0.23322338,-2.8533258,0.004667804933786476,nan,nan,nan,nan,nan,2.552464246749878,3.752464246749878,0.0054073333740234375,nan,nan,nan,nan,0.7273059676782153,0.04162513816010191,-0.010614594944116788,-0.002439787343492038,nan,nan,nan,nan
12.647747039794922,0.0728421,-0.26068637,-2.8551528,0.005690145104601798,nan,nan,nan,nan,nan,2.6441500186920166,3.844150018692017,0.00593256950378418,nan,nan,nan,nan,0.7267076111566688,0.03212924637137473,-0.019731528770565634,-0.003116364926094455,nan,nan,nan,nan
12.755923509597778,0.064705946,-0.27966282,-2.855873,0.006552226585524092,nan,nan,nan,nan,nan,2.7523059844970703,3.9523059844970705,0.005410194396972656,nan,nan,nan,nan,0.7261562582357466,0.024267405496760423,-0.02625129909472139,-0.0037104632253465502,nan,nan,nan,nan
12.863553047180176,0.052356847,-0.30297077,-2.8577106,0.00746653980942946,nan,nan,nan,nan,nan,2.860045909881592,4.060045909881592,0.005492448806762695,nan,nan,nan,nan,0.7257337669937082,0.01731296468536205,-0.031144343209101637,-0.004218914570192634,nan,nan,nan,nan
12.955541133880615,0.04252712,-0.32004273,-2.8590188,0.007865682977373058,nan,nan,nan,nan,nan,2.9519240856170654,4.151924085617066,0.00550079345703125,nan,nan,nan,nan,0.7254039668328903,0.01345029884275566,-0.03333129483882663,-0.004577990110531737,nan,nan,nan,nan
13.047487735748291,0.030972999,-0.33898318,-2.8596013,0.007777231127719764,nan,nan,nan,nan,nan,3.0438854694366455,4.243885469436646,0.00550079345703125,nan,nan,nan,nan,0.7252325906079967,0.008057397591136975,-0.031202546704257803,-0.0047570234486247805,nan,nan,nan,nan
13.156323671340942,0.013194434,-0.35710254,-2.8545732,0.007161044511723969,nan,nan,nan,nan,nan,3.1527092456817627,4.352709245681763,0.005559682846069336,nan,nan,nan,nan,0.7253673467986321,0.00672418366565973,-0.030511805664943853,-0.004584653669068834,nan,nan,nan,nan
13.251394271850586,0.009068459,-0.3640438,-2.8521569,0.006626331317123719,nan,nan,nan,nan,nan,3.2477846145629883,4.4477846145629885,0.007636308670043945,nan,nan,nan,nan,0.7255890565965233,0.0072964592736711395,-0.027188907377334315,-0.004193445696846498,nan,nan,nan,nan
13.362525939941406,0.0048620584,-0.3706998,-2.8485935,0.0054494492039528376,nan,nan,nan,nan,nan,3.359124183654785,4.559124183654785,0.005433559417724609,nan,nan,nan,nan,0.7259994497031775,0.0034208362419496877,-0.014997070476653317,-0.003737157203075101,nan,nan,nan,nan
13.455161094665527,0.0039251065,-0.37014997,-2.8467934,0.003577036633862364,nan,nan,nan,nan,nan,3.4515793323516846,4.651579332351685,0.006146907806396484,nan,nan,nan,nan,0.7263212670576528,-0.00778894660252264,0.001782338155051034,-0.0027364932494482086,nan,nan,nan,nan
13.549378395080566,0.004022096,-0.36558416,-2.8435118,0.001951883490600062,nan,nan,nan,nan,nan,3.545769214630127,4.745769214630127,0.0057337284088134766,nan,nan,nan,nan,0.7267113245029571,-0.01123124707049264,0.009744215301517496,-0.0018376878488676725,nan,nan,nan,nan
13.658244371414185,-0.0011860069,-0.35237604,-2.8400745,0.0007316250523205989,nan,nan,nan,nan,nan,3.6546242237091064,4.854624223709107,0.004948854446411133,nan,nan,nan,nan,0.7273556396300727,-0.022299604882198443,0.014443622293359128,-0.0007455284396220421,nan,nan,nan,nan
13.748725652694702,-0.0019942848,-0.33995518,-2.8375359,0.0010375664841424243,nan,nan,nan,nan,nan,3.745208501815796,4.945208501815796,0.006632089614868164,nan,nan,nan,nan,0.7279394531303996,-0.0304327502566157,0.013711552142995295,-0.000688898574490063,nan,nan,nan,nan
13.859100103378296,0.00036429663,-0.32618263,-2.8339396,0.000272943601207604,nan,nan,nan,nan,nan,3.8554844856262207,5.055484485626221,0.00536799430847168,nan,nan,nan,nan,0.7286516554633001,-0.029136152426223253,0.01662581433397988,-0.0006335122750943958,nan,nan,nan,nan
13.952773809432983,0.0028520727,-0.3153133,-2.8299162,-0.0011558271022259238,nan,nan,nan,nan,nan,3.949174165725708,5.149174165725708,0.007447004318237305,nan,nan,nan,nan,0.7293051006417758,-0.023130875695462304,0.01933568947528476,0.00022914868694561759,nan,nan,nan,nan
14.06053876876831,0.008807617,-0.29509425,-2.829479,-0.0038345897934846263,nan,nan,nan,nan,nan,4.056924343109131,5.256924343109131,0.004871368408203125,nan,nan,nan,nan,0.729925427580311,-0.017334639252651746,0.02126851787591759,0.0017628333238738753,nan,nan,nan,nan
14.157791137695312,0.016940469,-0.276059,-2.8289387,-0.005541704583276187,nan,nan,nan,nan,nan,4.154181480407715,5.354181480407715,0.004988908767700195,nan,nan,nan,nan,0.7304172892682587,-0.014481784551900103,0.022673919570502597,0.0030356824920033344,nan,nan,nan,nan
14.249818563461304,0.030189505,-0.2560743,-2.8308384,-0.0085102067887246,nan,nan,nan,nan,nan,4.246332883834839,5.446332883834839,0.007033586502075195,nan,nan,nan,nan,0.7308666025775549,-0.011060840681134802,0.024085371289311836,0.003852343963765038,nan,nan,nan,nan
14.363402366638184,0.045040857,-0.24072027,-2.834757,-0.01228910811824818,nan,nan,nan,nan,nan,4.359839916229248,5.559839916229248,0.004937171936035156,nan,nan,nan,nan,0.7310303376223024,-0.008384849615494015,0.0300636995698149,0.0071521415192040165,nan,nan,nan,nan
14.458066463470459,0.05572044,-0.23326342,-2.8382301,-0.014630746803849012,nan,nan,nan,nan,nan,4.4544517993927,5.6544517993927,0.005267143249511719,nan,nan,nan,nan,0.7312348248745664,0.005175935233299336,0.030407529331033124,0.00844133264823178,nan,nan,nan,nan
14.54941463470459,0.0703362,-0.22472645,-2.8414361,-0.018156432191683804,nan,nan,nan,nan,nan,4.545827150344849,5.745827150344849,0.005292177200317383,nan,nan,nan,nan,0.7311805412551308,0.015265971150426353,0.028675509829572548,0.010908272082703317,nan,nan,nan,nan
14.657032489776611,0.082340725,-0.21325707,-2.8413746,-0.020307450703514876,nan,nan,nan,nan,nan,4.653414726257324,5.853414726257324,0.005560636520385742,nan,nan,nan,nan,0.7313384627224963,0.022772012970046877,0.02443190297365591,0.012322720772365188,nan,nan,nan,nan
14.74741244316101,0.0908938,-0.20249973,-2.8390446,-0.021172524324426623,nan,nan,nan,nan,nan,4.743884801864624,5.943884801864624,0.005295515060424805,nan,nan,nan,nan,0.7314105964202525,0.022278479262438762,0.017068904787241077,0.012958396797015942,nan,nan,nan,nan
14.856539249420166,0.09997893,-0.18854703,-2.835325,-0.02195717874937629,nan,nan,nan,nan,nan,4.852941274642944,6.0529412746429445,0.0055675506591796875,nan,nan,nan,nan,0.7314847396306716,0.018389958483961168,0.009259719166623716,0.013756861626959575,nan,nan,nan,nan
14.947919607162476,0.10503689,-0.17603211,-2.8328252,-0.02140246990206944,nan,nan,nan,nan,nan,4.94433856010437,6.14433856010437,0.0052661895751953125,nan,nan,nan,nan,0.7313122634444147,0.009848611424938057,0.0001731920495816649,0.013627518587134404,nan,nan,nan,nan
15.058233261108398,0.107489206,-0.15961653,-2.8286607,-0.018442668236808374,nan,nan,nan,nan,nan,5.054640293121338,6.254640293121338,0.005262851715087891,nan,nan,nan,nan,0.7310915875458338,0.003326628819696242,-0.009001636258927914,0.012273063438174595,nan,nan,nan,nan
15.152432203292847,0.109002486,-0.15301752,-2.8219817,-0.016523812968731687,nan,nan,nan,nan,nan,5.148841857910156,6.348841857910156,0.007239103317260742,nan,nan,nan,nan,0.7309462489334756,0.003057741425616998,-0.013044466505230215,0.011095541539264472,nan,nan,nan,nan
15.263008832931519,0.1073186,-0.13385825,-2.8121061,-0.01297520922555967,nan,nan,nan,nan,nan,5.25944972038269,6.459449720382691,0.005093097686767578,nan,nan,nan,nan,0.7307427897942478,-0.004125072550317274,-0.018400965545453892,0.00889619998811685,nan,nan,nan,nan
15.356483221054077,0.10507774,-0.122300476,-2.8072486,-0.011321839132159922,nan,nan,nan,nan,nan,5.352947473526001,6.552947473526001,0.005727529525756836,nan,nan,nan,nan,0.7304200570162377,-0.009549788470155949,-0.021738191778492975,0.007518833576085897,nan,nan,nan,nan
15.446857452392578,0.100172445,-0.102087885,-2.797918,-0.009440915687667816,nan,nan,nan,nan,nan,5.443278551101685,6.643278551101685,0.005176067352294922,nan,nan,nan,nan,0.7301330382539849,-0.016369773107259147,-0.023141852434098272,0.006284860237648583,nan,nan,nan,nan
15.561120986938477,0.09045718,-0.081078894,-2.7949536,-0.008349000730172664,nan,nan,nan,nan,nan,5.557508707046509,6.757508707046509,0.004896879196166992,nan,nan,nan,nan,0.7294973044470755,-0.02391299079339262,-0.025490784926517154,0.005435047522924042,nan,nan,nan,nan
15.65126085281372,0.084879376,-0.05952245,-2.7920747,-0.008484637222600917,nan,nan,nan,nan,nan,5.647660970687866,6.847660970687866,0.00654292106628418,nan,nan,nan,nan,0.7288930585544742,-0.031746398758848896,-0.02412807469151216,0.005233964884514874,nan,nan,nan,nan
15.76223373413086,0.07567332,-0.034972917,-2.793485,-0.008160849020354825,nan,nan,nan,nan,nan,5.758671522140503,6.958671522140503,0.004872322082519531,nan,nan,nan,nan,0.7281214469753698,-0.03553250475367078,-0.02073526546018845,0.005348274802266892,nan,nan,nan,nan
15.851876974105835,0.068550184,-0.019152375,-2.7944832,-0.007425558636231989,nan,nan,nan,nan,nan,5.848309755325317,7.048309755325318,0.0068912506103515625,nan,nan,nan,nan,0.7273877034227154,-0.036503560932491165,-0.02075969328171116,0.004940059066612733,nan,nan,nan,nan
15.945173025131226,0.05838758,0.008478369,-2.7897592,-0.006020835916789191,nan,nan,nan,nan,nan,5.9417009353637695,7.14170093536377,0.005055427551269531,nan,nan,nan,nan,0.7270121311803429,-0.035596850583393284,-0.017396406620253446,0.004093319161083022,nan,nan,nan,nan
16.06002950668335,0.058895577,0.030988136,-2.7884305,-0.007069191589390214,nan,nan,nan,nan,nan,6.05641770362854,7.25641770362854,0.005066871643066406,nan,nan,nan,nan,0.726552679842687,-0.03378966775802075,-0.006307208001884033,0.004182193802736312,nan,nan,nan,nan
16.152044534683228,0.059590787,0.04888511,-2.78654,-0.00819811449566003,nan,nan,nan,nan,nan,6.148773193359375,7.348773193359375,0.007988691329956055,nan,nan,nan,nan,0.7262328033986983,-0.03575600650559323,-0.00023025567513427567,0.004743759497091419,nan,nan,nan,nan
16.257094621658325,0.05978579,0.07916917,-2.7806036,-0.010400167227875222,nan,nan,nan,nan,nan,6.2535223960876465,7.453522396087647,0.007279157638549805,nan,nan,nan,nan,0.7262026066611893,-0.036254441225434045,0.009858758072064064,0.006012833953994041,nan,nan,nan,nan
16.351420164108276,0.059468187,0.09817094,-2.7750204,-0.011842030210077464,nan,nan,nan,nan,nan,6.347820997238159,7.547820997238159,0.006422758102416992,nan,nan,nan,nan,0.7262811533258475,-0.038459536348876194,0.012647490666250432,0.007084167443351823,nan,nan,nan,nan
16.460777521133423,0.06097271,0.11801863,-2.7672133,-0.013426361658380176,nan,nan,nan,nan,nan,6.457172870635986,7.6571728706359865,0.005003213882446289,nan,nan,nan,nan,0.7265932676471683,-0.03251423859501876,0.014628961386731006,0.008229475023234107,nan,nan,nan,nan
16.5490984916687,0.061594766,0.12855197,-2.7611341,-0.013804315802757454,nan,nan,nan,nan,nan,6.545835018157959,7.745835018157959,0.005160331726074219,nan,nan,nan,nan,0.7270123270441645,-0.015474512917723234,0.014195338951736072,0.008718234375951501,nan,nan,nan,nan
16.65939736366272,0.06215966,0.13289887,-2.751044,-0.013189087186290267,nan,nan,nan,nan,nan,6.656005382537842,7.856005382537842,0.004982948303222656,nan,nan,nan,nan,0.7275425748219427,-0.0030021807288285415,0.012380653380722357,0.008512885829650272,nan,nan,nan,nan
16.75322914123535,0.062615596,0.13566105,-2.7431974,-0.012568276845001563,nan,nan,nan,nan,nan,6.7496325969696045,7.949632596969605,0.0063817501068115234,nan,nan,nan,nan,0.7281606561097157,0.0054069766167310135,0.009880978610140223,0.00810834461572322,nan,nan,nan,nan
16.845983505249023,0.06290497,0.14018422,-2.7334263,-0.01177232081922083,nan,nan,nan,nan,nan,6.8423683643341064,8.042368364334106,0.005267620086669922,nan,nan,nan,nan,0.7288696015480582,0.014867585259867918,0.0062147659021378815,0.007603183304455438,nan,nan,nan,nan
16.952301263809204,0.061073925,0.14381346,-2.7241092,-0.010760238465001112,nan,nan,nan,nan,nan,6.948707818984985,8.148707818984985,0.006832599639892578,nan,nan,nan,nan,0.7296218165101869,0.014135749757864888,0.0013487778262531761,0.006984906705230288,nan,nan,nan,nan
17.06087303161621,0.05850644,0.14937188,-2.7159612,-0.010062137679719835,nan,nan,nan,nan,nan,7.057258129119873,8.257258129119872,0.005157470703125,nan,nan,nan,nan,0.7304191692055099,0.004916036779482723,-0.0028621413996021065,0.006429246412012334,nan,nan,nan,nan
17.15227746963501,0.054421067,0.15063182,-2.7029953,-0.009008428212851213,nan,nan,nan,nan,nan,7.148677825927734,8.348677825927734,0.0058248043060302734,nan,nan,nan,nan,0.731224855731388,0.0018945292713939362,-0.006955183117535388,0.0059129111060222325,nan,nan,nan,nan
17.264140605926514,0.05060294,0.14281493,-2.6906595,-0.007949914283420864,nan,nan,nan,nan,nan,7.260586977005005,8.460586977005004,0.004993438720703125,nan,nan,nan,nan,0.7320782476572806,0.0001244351837690391,-0.008230393831969616,0.005170988848641211,nan,nan,nan,nan
17.352870225906372,0.047652252,0.13451801,-2.6819143,-0.0076972494452263104,nan,nan,nan,nan,nan,7.34930944442749,8.54930944442749,0.006159782409667969,nan,nan,nan,nan,0.7327648854980671,0.004120808290677623,-0.008776824620268563,0.0048674621101817165,nan,nan,nan,nan
17.446358680725098,0.037637528,0.12279238,-2.6749,-0.007253566470422857,nan,nan,nan,nan,nan,7.442751884460449,8.642751884460449,0.004967212677001953,nan,nan,nan,nan,0.7332877604083241,0.013395192404354776,-0.01325265315832643,0.004628474032415232,nan,nan,nan,nan
17.55700922012329,0.024033444,0.10299719,-2.6704903,-0.0068035338994706564,nan,nan,nan,nan,nan,7.553407907485962,8.753407907485961,0.0054852962493896484,nan,nan,nan,nan,0.7337291326512579,0.01611128706240614,-0.017550018117259803,0.00432902547886852,nan,nan,nan,nan
17.662400722503662,0.011377141,0.08735412,-2.6732981,-0.007041623121420042,nan,nan,nan,nan,nan,7.6587841510772705,8.85878415107727,0.00503993034362793,nan,nan,nan,nan,0.7337950457193204,0.019059589969043025,-0.020604120123917376,0.004244364161554851,nan,nan,nan,nan
17.753315448760986,-0.0015590218,0.07220447,-2.6798441,-0.007254940538652034,nan,nan,nan,nan,nan,7.749709129333496,8.949709129333495,0.005843639373779297,nan,nan,nan,nan,0.7334457162513673,0.016396899581169366,-0.02178596389076957,0.004539160919502421,nan,nan,nan,nan
17.860966682434082,-0.0122875245,0.056018915,-2.6853278,-0.007469525027259469,nan,nan,nan,nan,nan,7.8574113845825195,9.057411384582519,0.00531315803527832,nan,nan,nan,nan,0.7331427701426669,0.009220175832736618,-0.019292062308535085,0.004509593811674678,nan,nan,nan,nan
17.953174591064453,-0.021176592,0.03691118,-2.6876373,-0.008647116205568269,nan,nan,nan,nan,nan,7.949650764465332,9.149650764465331,0.007192850112915039,nan,nan,nan,nan,0.732958745667835,0.009815439063679232,-0.01691885776400663,0.005043731290372248,nan,nan,nan,nan
18.06326127052307,-0.02689961,0.021917801,-2.6931348,-0.00830099672641021,nan,nan,nan,nan,nan,8.059649229049683,9.259649229049682,0.005417346954345703,nan,nan,nan,nan,0.7325508863601604,0.007924043037384183,-0.009774472089193654,0.005363380133529501,nan,nan,nan,nan
18.161141872406006,-0.03386203,0.011843611,-2.6981142,-0.007454252878137633,nan,nan,nan,nan,nan,8.157529830932617,9.357529830932616,0.005041599273681641,nan,nan,nan,nan,0.7321978798890644,0.0018361368784064781,-0.005218300089350691,0.004949752286493308,nan,nan,nan,nan
18.254235982894897,-0.040178128,-0.0028823034,-2.7052243,-0.005633791516522359,nan,nan,nan,nan,nan,8.250635147094727,9.450635147094726,0.006450653076171875,nan,nan,nan,nan,0.731550201176123,-0.00226150552457695,-0.0014274657775285855,0.003989938498432379,nan,nan,nan,nan
18.363274812698364,-0.039676815,-0.022495653,-2.7150936,-0.0023695829601036895,nan,nan,nan,nan,nan,8.359644412994385,9.559644412994384,0.004948139190673828,nan,nan,nan,nan,0.7308096252544114,-0.001584077447092131,0.006972061159102853,0.00230413631703542,nan,nan,nan,nan
18.453779935836792,-0.03699626,-0.030821234,-2.7208157,-0.00011229099245810045,nan,nan,nan,nan,nan,8.450208187103271,9.65020818710327,0.006237030029296875,nan,nan,nan,nan,0.7301190192800332,-0.0030794757323309805,0.01410556651449311,0.0005853548018313325,nan,nan,nan,nan
18.562885522842407,-0.032756392,-0.054148097,-2.7337778,0.005430216979773661,nan,nan,nan,nan,nan,8.559278726577759,9.759278726577758,0.005090951919555664,nan,nan,nan,nan,0.7291809733351285,-0.000316736606931626,0.02101232818462633,-0.0020610397085291223,nan,nan,nan,nan
18.653875589370728,-0.028116211,-0.06607034,-2.738678,0.008353598575002643,nan,nan,nan,nan,nan,8.650298357009888,9.850298357009887,0.006117343902587891,nan,nan,nan,nan,0.7284306919281739,0.006333791634725314,0.02437719489772296,-0.004495273604808445,nan,nan,nan,nan
18.745857000350952,-0.0176503,-0.08797224,-2.743917,0.013593994594340209,nan,nan,nan,nan,nan,8.742246389389038,9.942246389389037,0.0051517486572265625,nan,nan,nan,nan,0.72776945483051,0.014783843065148511,0.02965752806927233,-0.007826247387853114,nan,nan,nan,nan
18.84989047050476,-0.00955243,-0.1066274,-2.7437284,0.016590455907418044,nan,nan,nan,nan,nan,8.84644603729248,10.04644603729248,0.0049686431884765625,nan,nan,nan,nan,0.7272712331635323,0.02074693740798233,0.030963732361200716,-0.009777583986358881,nan,nan,nan,nan
18.96013045310974,0.004346014,-0.13078167,-2.7402687,0.021149204125073953,nan,nan,nan,nan,nan,8.956561088562012,10.156561088562011,0.005156755447387695,nan,nan,nan,nan,0.7269961663140375,0.029827939636739992,0.03040450132038144,-0.012880285614702084,nan,nan,nan,nan
19.04891085624695,0.023215992,-0.15790243,-2.735813,0.02585491165262734,nan,nan,nan,nan,nan,9.045344829559326,10.245344829559325,0.0050525665283203125,nan,nan,nan,nan,0.7267993293257852,0.03565374951470505,0.03263787637305415,-0.015160305188445569,nan,nan,nan,nan
19.16338062286377,0.042266462,-0.18792355,-2.7366977,0.030539955920108296,nan,nan,nan,nan,nan,9.159765481948853,10.359765481948852,0.005148172378540039,nan,nan,nan,nan,0.7264834867766158,0.04355097798079061,0.03501582165071892,-0.01820526138387365,nan,nan,nan,nan
19.254104137420654,0.052802525,-0.20531961,-2.7379618,0.032527465675361654,nan,nan,nan,nan,nan,9.250514030456543,10.450514030456542,0.0057833194732666016,nan,nan,nan,nan,0.7260446825945265,0.0478956739640898,0.03384808390137333,-0.01972071221610133,nan,nan,nan,nan
19.363333463668823,0.07249636,-0.23713629,-2.738174,0.0343602972304517,nan,nan,nan,nan,nan,9.359717845916748,10.559717845916747,0.005077362060546875,nan,nan,nan,nan,0.7257771293109604,0.05198869466365285,0.02942618599004513,-0.02130761279629691,nan,nan,nan,nan
19.45565891265869,0.090341024,-0.26849836,-2.738282,0.03420624288025174,nan,nan,nan,nan,nan,9.452056407928467,10.652056407928466,0.0076084136962890625,nan,nan,nan,nan,0.7257369677444532,0.049879997172385886,0.021864378486254353,-0.02158505129281229,nan,nan,nan,nan
19.54742407798767,0.10533628,-0.28452334,-2.7377405,0.03411151195062666,nan,nan,nan,nan,nan,9.543812990188599,10.743812990188598,0.0050046443939208984,nan,nan,nan,nan,0.7257017807372931,0.04794655996400435,0.018243194456885714,-0.02125768012775464,nan,nan,nan,nan
19.662349939346313,0.12089434,-0.3026917,-2.7388663,0.03364164054220284,nan,nan,nan,nan,nan,9.658737897872925,10.858737897872924,0.005010128021240234,nan,nan,nan,nan,0.7258201086787762,0.04006420203665718,0.014553724979655885,-0.021079516231018433,nan,nan,nan,nan
19.756657361984253,0.13186948,-0.31587097,-2.7457287,0.03247063059158969,nan,nan,nan,nan,nan,9.753051996231079,10.953051996231078,0.009144306182861328,nan,nan,nan,nan,0.7258237066021397,0.019387290159824152,0.00031589148843832614,-0.020439917084831376,nan,nan,nan,nan
19.853543758392334,0.139658,-0.3204816,-2.7529511,0.031724542925505174,nan,nan,nan,nan,nan,9.849948406219482,11.049948406219482,0.005932807922363281,nan,nan,nan,nan,0.7257211042177468,0.009963289822674882,-0.004922502267977917,-0.01988051869432194,nan,nan,nan,nan
19.952921628952026,0.14336778,-0.3200503,-2.7645605,0.030752655677695542,nan,nan,nan,nan,nan,9.949437618255615,11.149437618255615,0.006110429763793945,nan,nan,nan,nan,0.7256465792290561,-0.008629693573770287,-0.014685518912102184,-0.019243439896056622,nan,nan,nan,nan
20.04967737197876,0.14068383,-0.31644064,-2.770149,0.028771446940261396,nan,nan,nan,nan,nan,10.046131610870361,11.24613161087036,0.005238771438598633,nan,nan,nan,nan,0.7258807105071016,-0.022018916725713183,-0.02506095992738736,-0.018281961833949697,nan,nan,nan,nan
20.14694905281067,0.13459079,-0.3106004,-2.7728012,0.02682789740705245,nan,nan,nan,nan,nan,10.143335580825806,11.343335580825805,0.00534367561340332,nan,nan,nan,nan,0.7264416237828859,-0.024550692637486073,-0.03259410175475435,-0.017250640272984785,nan,nan,nan,nan
20.254380464553833,0.12570792,-0.30196017,-2.776057,0.024569627139571924,nan,nan,nan,nan,nan,10.250882387161255,11.450882387161254,0.006335258483886719,nan,nan,nan,nan,0.7269296419316551,-0.027598732741820137,-0.03890492520500338,-0.015931318791257452,nan,nan,nan,nan
20.35079836845398,0.10798592,-0.28689116,-2.7804377,0.021115617731780945,nan,nan,nan,nan,nan,10.347311973571777,11.547311973571777,0.004950046539306641,nan,nan,nan,nan,0.7274885205036121,-0.03396375629500974,-0.045819468739834134,-0.013732525688275599,nan,nan,nan,nan
20.445189952850342,0.0905742,-0.27804884,-2.7837017,0.01887224388246659,nan,nan,nan,nan,nan,10.441574096679688,11.641574096679687,0.005795717239379883,nan,nan,nan,nan,0.7280347684677685,-0.029204529817242975,-0.04842652884507582,-0.012240545030123817,nan,nan,nan,nan
20.543814182281494,0.078947455,-0.26905087,-2.7830863,0.017155718967976123,nan,nan,nan,nan,nan,10.540205478668213,11.740205478668212,0.007969856262207031,nan,nan,nan,nan,0.7287053463717073,-0.019957335679333516,-0.04827822863567145,-0.011157002856844992,nan,nan,nan,nan
20.662017822265625,0.06360144,-0.25102895,-2.7794554,0.01413394557040933,nan,nan,nan,nan,nan,10.658442974090576,11.858442974090575,0.00595402717590332,nan,nan,nan,nan,0.7296869359929784,-0.01186880329014229,-0.036560125684766284,-0.009524143066585035,nan,nan,nan,nan
20.759050130844116,0.049913988,-0.23027089,-2.7775497,0.010720457279867625,nan,nan,nan,nan,nan,10.755503416061401,11.9555034160614,0.006576061248779297,nan,nan,nan,nan,0.7303393934359885,-0.013608072929277624,-0.023021632541563287,-0.0073996065181773695,nan,nan,nan,nan
20.851420402526855,0.04218043,-0.21779011,-2.7793632,0.009231133537031453,nan,nan,nan,nan,nan,10.847926139831543,12.047926139831542,0.005105018615722656,nan,nan,nan,nan,0.7307311981555228,-0.008799432704624235,-0.015167964088902443,-0.006114531094867238,nan,nan,nan,nan
20.958518266677856,0.029011799,-0.1967598,-2.7818184,0.007313040969081238,nan,nan,nan,nan,nan,10.954919338226318,12.154919338226318,0.00863957405090332,nan,nan,nan,nan,0.7310079056677873,-0.0058970271065339926,-0.006502391922658666,-0.004857569208879601,nan,nan,nan,nan
21.05471634864807,0.021438133,-0.17314701,-2.7840726,0.005400876590637005,nan,nan,nan,nan,nan,11.051122188568115,12.251122188568115,0.005783796310424805,nan,nan,nan,nan,0.7311288164670681,-0.009028928978887182,0.00193045507490586,-0.0037108984050688125,nan,nan,nan,nan
21.153237104415894,0.017121006,-0.15276903,-2.7859313,0.003715357500688219,nan,nan,nan,nan,nan,11.1497163772583,12.3497163772583,0.0055065155029296875,nan,nan,nan,nan,0.7313342653573053,-0.006737328766964839,0.006698121378719018,-0.0028215144228860805,nan,nan,nan,nan
21.247623920440674,0.0078339,-0.1191696,-2.7911298,0.0014545865184625289,nan,nan,nan,nan,nan,11.24402642250061,12.44402642250061,0.005568504333496094,nan,nan,nan,nan,0.7310983987784282,-0.018089983559598302,0.010497893150766113,-0.0012712382632383244,nan,nan,nan,nan
21.34580159187317,0.0011741447,-0.10041669,-2.7920423,0.0009310092713640632,nan,nan,nan,nan,nan,11.342201948165894,12.542201948165893,0.0059926509857177734,nan,nan,nan,nan,0.7310449670052,-0.016254927650633157,0.009255035759601876,-0.0006614345141869991,nan,nan,nan,nan
21.4507315158844,-0.010762743,-0.070575826,-2.7963307,0.0015180205581726055,nan,nan,nan,nan,nan,11.44718050956726,12.64718050956726,0.00500798225402832,nan,nan,nan,nan,0.730794877774344,-0.016746877722493395,0.00441187440963248,-0.0006454222559867021,nan,nan,nan,nan
21.561647176742554,-0.017803507,-0.03794407,-2.7959561,0.0017805827832862056,nan,nan,nan,nan,nan,11.558038711547852,12.75803871154785,0.005809783935546875,nan,nan,nan,nan,0.7304891079777887,-0.018285446896435856,0.0016925486288906287,-0.001079470029383795,nan,nan,nan,nan
21.655706644058228,-0.019458834,-0.016352767,-2.79523,0.0015506394144093956,nan,nan,nan,nan,nan,11.652135610580444,12.852135610580444,0.006062746047973633,nan,nan,nan,nan,0.7302833154458118,-0.019017003613028074,0.0032274874576746528,-0.0009899735910607697,nan,nan,nan,nan
21.762337684631348,-0.018227717,0.01453939,-2.7956111,0.000827599477228271,nan,nan,nan,nan,nan,11.758759498596191,12.95875949859619,0.005183219909667969,nan,nan,nan,nan,0.7298207853862754,-0.023780983089282552,0.009614376243315098,-0.0005957086178271839,nan,nan,nan,nan
21.854962587356567,-0.01796361,0.04603241,-2.7947903,-0.00011019114164161005,nan,nan,nan,nan,nan,11.851441860198975,13.051441860198974,0.006445646286010742,nan,nan,nan,nan,0.7293618201041933,-0.025514663956500955,0.013575664241214367,-8.77004456315001e-05,nan,nan,nan,nan
21.962191581726074,-0.013481594,0.08192597,-2.7981873,-0.0003963663985136592,nan,nan,nan,nan,nan,11.958577632904053,13.158577632904052,0.0052950382232666016,nan,nan,nan,nan,0.7287350577793387,-0.02996754464258623,0.01683035220856852,0.0002826974644960304,nan,nan,nan,nan
22.05014944076538,-0.011673363,0.1083177,-2.8051972,-0.000328010043495404,nan,nan,nan,nan,nan,12.04655408859253,13.246554088592529,0.005456686019897461,nan,nan,nan,nan,0.7281508334214192,-0.03271153140945506,0.017799836330504897,0.0003472927226956967,nan,nan,nan,nan
22.161986112594604,-0.0095694065,0.1366842,-2.8148444,3.332655637557037e-05,nan,nan,nan,nan,nan,12.158422231674194,13.358422231674194,0.0056917667388916016,nan,nan,nan,nan,0.7270722150458808,-0.02822654105557563,0.012610415355710789,1.5653924226925387e-05,nan,nan,nan,nan
22.256606340408325,-0.0071644164,0.15388907,-2.8201253,-2.4125038418150446e-05,nan,nan,nan,nan,nan,12.253022193908691,13.45302219390869,0.006011962890625,nan,nan,nan,nan,0.7263285606731322,-0.023401028616599564,0.011703190625429516,5.9277251692105395e-06,nan,nan,nan,nan
22.36276626586914,-9.62007e-05,0.17025363,-2.826706,-0.000433083591683839,nan,nan,nan,nan,nan,12.359175682067871,13.55917568206787,0.005551338195800781,nan,nan,nan,nan,0.7255656052869148,-0.014028718494726608,0.012106458505082242,0.0001860960217842161,nan,nan,nan,nan
22.458772897720337,0.0062059523,0.18795462,-2.8283908,-0.0007824366240250591,nan,nan,nan,nan,nan,12.455183982849121,13.65518398284912,0.006700038909912109,nan,nan,nan,nan,0.7251945721153136,-0.0035753333051947015,0.012293974598778462,0.00039755393682028696,nan,nan,nan,nan
22.5597882270813,0.008091139,0.19949901,-2.8265226,-0.0008944386602742424,nan,nan,nan,nan,nan,12.556251764297485,13.756251764297485,0.005984306335449219,nan,nan,nan,nan,0.7249576505802398,-0.0009263197566920559,0.010756797511668793,0.0005257985794008616,nan,nan,nan,nan
22.64815926551819,0.010438555,0.21234252,-2.8228452,-0.0010279788739549055,nan,nan,nan,nan,nan,12.64454460144043,13.844544601440429,0.0050318241119384766,nan,nan,nan,nan,0.7250475332472626,0.00031474924938288844,0.004482441392906466,0.0005499596424815995,nan,nan,nan,nan
22.748318910598755,0.016156612,0.22037369,-2.820053,-0.0015985802226290216,nan,nan,nan,nan,nan,12.744701623916626,13.944701623916625,0.005780458450317383,nan,nan,nan,nan,0.725087245438852,0.0037173228643172774,0.004364032775498017,0.0008423293449980487,nan,nan,nan,nan
22.84718155860901,0.019130504,0.22251607,-2.8175292,-0.0020371385318048362,nan,nan,nan,nan,nan,12.843566656112671,14.04356665611267,0.005462646484375,nan,nan,nan,nan,0.7251246697434636,0.0045153340004478095,0.0035562188949072454,0.0011242999181200347,nan,nan,nan,nan
22.954045057296753,0.026988707,0.22660759,-2.8204415,-0.0020101665096275857,nan,nan,nan,nan,nan,12.950475454330444,14.150475454330444,0.005123138427734375,nan,nan,nan,nan,0.725296724870254,0.007697898938448663,0.0035011063635162786,0.0012605974915205203,nan,nan,nan,nan
23.062856197357178,0.031248748,0.23052664,-2.8271494,-0.0014369118509538767,nan,nan,nan,nan,nan,13.059249639511108,14.259249639511108,0.0053904056549072266,nan,nan,nan,nan,0.725347632434366,0.004426555499602751,0.004126507155811936,0.0010527553891497533,nan,nan,nan,nan
23.15438151359558,0.032137662,0.23290421,-2.8310251,-0.0009291911033397285,nan,nan,nan,nan,nan,13.150790214538574,14.350790214538574,0.00509333610534668,nan,nan,nan,nan,0.7253676669081885,-0.0015344389367190861,0.0017025737646124547,0.0006551527449026042,nan,nan,nan,nan
23.261253356933594,0.029066345,0.23858452,-2.8338025,-0.0003675263934730883,nan,nan,nan,nan,nan,13.257675886154175,14.457675886154174,0.00655817985534668,nan,nan,nan,nan,0.7256871133959449,-0.009520057107791208,-0.004876013024953429,0.0002508913912021505,nan,nan,nan,nan
23.349863290786743,0.02243531,0.24468964,-2.830494,0.00012079129621209161,nan,nan,nan,nan,nan,13.346261739730835,14.546261739730834,0.004948139190673828,nan,nan,nan,nan,0.7263182973161956,-0.015003136661965595,-0.013698659148420247,-4.790736489238736e-05,nan,nan,nan,nan
23.449026823043823,0.01916224,0.24683896,-2.826903,0.0007460091915431318,nan,nan,nan,nan,nan,13.445455551147461,14.64545555114746,0.00490117073059082,nan,nan,nan,nan,0.7270246534870896,-0.02143112088432342,-0.016857903456007912,-0.0003957834829647241,nan,nan,nan,nan
23.54261803627014,0.012704723,0.24166128,-2.8212056,0.002003110321214841,nan,nan,nan,nan,nan,13.539032220840454,14.739032220840453,0.010383367538452148,nan,nan,nan,nan,0.7278254271080979,-0.017922528050729983,-0.015902339528816846,-0.0010846293845083216,nan,nan,nan,nan
23.654635429382324,0.0024917016,0.23074037,-2.8180099,0.0026632793105342842,nan,nan,nan,nan,nan,13.651073217391968,14.851073217391967,0.005199909210205078,nan,nan,nan,nan,0.7286723067006361,-0.004127468089383734,-0.018136446362919428,-0.0016588517711935353,nan,nan,nan,nan
23.76373839378357,-0.01365899,0.21935801,-2.8185174,0.0024256382951439396,nan,nan,nan,nan,nan,13.76013994216919,14.960139942169189,0.005894899368286133,nan,nan,nan,nan,0.729211885700377,0.002370018870366921,-0.02328437278060707,-0.0016790353789552896,nan,nan,nan,nan
23.854109048843384,-0.022765564,0.21173911,-2.815877,0.0021305483212063466,nan,nan,nan,nan,nan,13.850581407546997,15.050581407546996,0.0049610137939453125,nan,nan,nan,nan,0.7298362163456168,0.002112834670612854,-0.026262651255084972,-0.0015506296610131088,nan,nan,nan,nan
23.94630527496338,-0.04015811,0.19404247,-2.8072655,0.0013441882337765863,nan,nan,nan,nan,nan,13.942755222320557,15.142755222320556,0.00580596923828125,nan,nan,nan,nan,0.730558357994212,0.009509039062439866,-0.02726354361882074,-0.0010619005728098585,nan,nan,nan,nan
24.052324771881104,-0.053543687,0.17592515,-2.797182,0.00029824092498659076,nan,nan,nan,nan,nan,14.04874849319458,15.24874849319458,0.005078554153442383,nan,nan,nan,nan,0.7313693124305611,0.012618446757511455,-0.02475062973388669,-0.0006462947339139907,nan,nan,nan,nan
24.162839889526367,-0.065455444,0.15352264,-2.785414,-0.0012749233758926328,nan,nan,nan,nan,nan,14.159276485443115,15.359276485443115,0.006078004837036133,nan,nan,nan,nan,0.7321519781705386,0.018421579189745907,-0.020382216781453494,0.000388544778352066,nan,nan,nan,nan
24.254822254180908,-0.07040696,0.13994509,-2.779207,-0.002065161973939295,nan,nan,nan,nan,nan,14.251346588134766,15.451346588134765,0.008617877960205078,nan,nan,nan,nan,0.7326695857758205,0.015862644046608414,-0.016341116914012504,0.0008776660702295272,nan,nan,nan,nan
24.352746963500977,-0.075690165,0.11020465,-2.7762804,-0.0028476300754754764,nan,nan,nan,nan,nan,14.349189043045044,15.549189043045043,0.00500798225402832,nan,nan,nan,nan,0.7328475889820458,0.02191821056357246,-0.005091071312937911,0.0016373929219910275,nan,nan,nan,nan
24.459314107894897,-0.073500775,0.086834736,-2.779274,-0.0023765558518789856,nan,nan,nan,nan,nan,14.455721616744995,15.655721616744994,0.006054878234863281,nan,nan,nan,nan,0.7326479755004155,0.02208127176062966,0.0071756667253794594,0.001624378791822699,nan,nan,nan,nan
24.54826521873474,-0.07265011,0.07080413,-2.784615,-0.001576071992050235,nan,nan,nan,nan,nan,14.54466724395752,15.744667243957519,0.0052797794342041016,nan,nan,nan,nan,0.7324255908172649,0.016625859951466464,0.015090890923380701,0.001132811921802406,nan,nan,nan,nan
24.663949728012085,-0.07733877,0.03984785,-2.8012238,-0.00018996197989873604,nan,nan,nan,nan,nan,14.660335302352905,15.860335302352905,0.006030082702636719,nan,nan,nan,nan,0.7313467297794481,0.015052844210212255,0.01610498769443301,0.00013393600930254083,nan,nan,nan,nan
24.754953861236572,-0.07893108,0.024573117,-2.8079488,-0.00013124662700104913,nan,nan,nan,nan,nan,14.751394510269165,15.951394510269164,0.005074024200439453,nan,nan,nan,nan,0.7307743278610325,0.010261012322569384,0.014269608766026783,-3.59548760465493e-05,nan,nan,nan,nan
24.8590030670166,-0.079205014,0.0021182646,-2.821021,1.2734655143149722e-05,nan,nan,nan,nan,nan,14.855422258377075,16.055422258377074,0.006857872009277344,nan,nan,nan,nan,0.7298315416925023,0.01051798185278014,0.012444340876144168,-0.00010413755155904698,nan,nan,nan,nan
24.94726324081421,-0.07713265,-0.028330047,-2.8333397,0.0001174444064352151,nan,nan,nan,nan,nan,14.943669080734253,16.143669080734252,0.005501747131347656,nan,nan,nan,nan,0.7289763101098645,0.01466076136094816,0.012485214551291562,-0.00022205176095093786,nan,nan,nan,nan
25.057041883468628,-0.07101754,-0.06117114,-2.8430316,0.00030940643942352266,nan,nan,nan,nan,nan,15.053566932678223,16.253566932678222,0.005495309829711914,nan,nan,nan,nan,0.728137450043986,0.02351976826833613,0.014243428844249138,-0.00018928503888529315,nan,nan,nan,nan
25.14797306060791,-0.06487462,-0.082159735,-2.8483386,0.0007644109729885128,nan,nan,nan,nan,nan,15.144395351409912,16.34439535140991,0.005533695220947266,nan,nan,nan,nan,0.7274893279013172,0.02716681853653477,0.017746081975692527,-0.00044009565248627404,nan,nan,nan,nan
25.26255774497986,-0.05383518,-0.11236982,-2.850697,0.0016247033789918795,nan,nan,nan,nan,nan,15.258941650390625,16.458941650390624,0.006382942199707031,nan,nan,nan,nan,0.7268325760937415,0.031368722521026834,0.02200720128387689,-0.0009235019657600776,nan,nan,nan,nan
25.351834058761597,-0.043081947,-0.14428632,-2.86006,0.0020871676927052924,nan,nan,nan,nan,nan,15.348240375518799,16.548240375518798,0.004974842071533203,nan,nan,nan,nan,0.7262515566691582,0.03409587012113217,0.023388683569019714,-0.0013550736557988543,nan,nan,nan,nan
25.442291736602783,-0.03462383,-0.163893,-2.8668184,0.002225186084615611,nan,nan,nan,nan,nan,15.438922643661499,16.6389226436615,0.0060236454010009766,nan,nan,nan,nan,0.7256023595948122,0.03443762597748642,0.022694079149970615,-0.0013987367400540192,nan,nan,nan,nan
25.5548734664917,-0.018695608,-0.19174205,-2.8761585,0.0025949275677598794,nan,nan,nan,nan,nan,15.55160403251648,16.75160403251648,0.005251407623291016,nan,nan,nan,nan,0.7247740127406668,0.03207792215315095,0.024369707266844773,-0.0015577349631527575,nan,nan,nan,nan
25.662814378738403,-0.004111999,-0.21326028,-2.8804147,0.0033648993814667603,nan,nan,nan,nan,nan,15.659221649169922,16.85922164916992,0.005642890930175781,nan,nan,nan,nan,0.7242312890884782,0.026114958029817177,0.025201447101276617,-0.0019351202868369472,nan,nan,nan,nan
25.75241255760193,0.013848464,-0.22790946,-2.8807604,0.004807702250388927,nan,nan,nan,nan,nan,15.748814821243286,16.948814821243285,0.005093097686767578,nan,nan,nan,nan,0.724123279242135,0.013047388462897614,0.024385224020449313,-0.0026802287934022356,nan,nan,nan,nan
25.843709468841553,0.02666685,-0.23719479,-2.8802536,0.005909657254140362,nan,nan,nan,nan,nan,15.840332269668579,17.04033226966858,0.005680084228515625,nan,nan,nan,nan,0.7239803343317163,0.007274973747485195,0.023266688904491767,-0.003289005498332729,nan,nan,nan,nan
25.958657264709473,0.043845586,-0.24862897,-2.8819203,0.007137966350066702,nan,nan,nan,nan,nan,15.955108880996704,17.155108880996703,0.0055925846099853516,nan,nan,nan,nan,0.7239781616379187,-0.002761963479531482,0.01858033988663423,-0.004198332830537961,nan,nan,nan,nan
26.048992156982422,0.057705227,-0.25573453,-2.8841212,0.007640368519286834,nan,nan,nan,nan,nan,16.04544162750244,17.24544162750244,0.005482196807861328,nan,nan,nan,nan,0.723867007454906,-0.006008942289562706,0.014116626889279404,-0.004566909684622009,nan,nan,nan,nan
26.1599440574646,0.06680978,-0.25501296,-2.8815494,0.007928301522250982,nan,nan,nan,nan,nan,16.156446933746338,17.356446933746337,0.0062465667724609375,nan,nan,nan,nan,0.724127139333365,-0.015299658078626084,0.005688627108437921,-0.004798491042758945,nan,nan,nan,nan
26.255029439926147,0.06684879,-0.25460938,-2.8779361,0.00789164000728637,nan,nan,nan,nan,nan,16.251457452774048,17.451457452774047,0.004971742630004883,nan,nan,nan,nan,0.7246017729511643,-0.020828967679983545,-0.00819917222714343,-0.0047975413999901025,nan,nan,nan,nan
26.35029697418213,0.058249265,-0.25268862,-2.8735206,0.007548440380020576,nan,nan,nan,nan,nan,16.346681594848633,17.546681594848632,0.0056111812591552734,nan,nan,nan,nan,0.7250954060975309,-0.020197425068942964,-0.022886794606401667,-0.004681150917308971,nan,nan,nan,nan
26.458826780319214,0.04439838,-0.24520653,-2.8601177,0.006722494103680856,nan,nan,nan,nan,nan,16.45524501800537,17.65524501800537,0.005578756332397461,nan,nan,nan,nan,0.7259546827972109,-0.018809675366609036,-0.04012963070656841,-0.004223436170437321,nan,nan,nan,nan
26.5543429851532,0.036491223,-0.2396501,-2.8507516,0.006309200404801062,nan,nan,nan,nan,nan,16.550798654556274,17.750798654556274,0.004850149154663086,nan,nan,nan,nan,0.7267238529431839,-0.015154436151775936,-0.04599960180536107,-0.003908613016949737,nan,nan,nan,nan
26.646340370178223,0.01865057,-0.23025161,-2.8393462,0.006464273001533823,nan,nan,nan,nan,nan,16.64272451400757,17.842724514007568,0.006719112396240234,nan,nan,nan,nan,0.7277278978269449,-0.014089963872065289,-0.05204841573623047,-0.0039056281270213934,nan,nan,nan,nan
26.75382661819458,0.002728498,-0.22589476,-2.8384848,0.006620821359677062,nan,nan,nan,nan,nan,16.75024724006653,17.950247240066528,0.00500035285949707,nan,nan,nan,nan,0.7283755006805573,-0.0042424707010165165,-0.05346716029319109,-0.003974452547733283,nan,nan,nan,nan
26.861650228500366,-0.014763988,-0.21769801,-2.8376615,0.006453194075437357,nan,nan,nan,nan,nan,16.85804772377014,18.05804772377014,0.006857633590698242,nan,nan,nan,nan,0.7288996752669982,0.0044338415731642634,-0.044296295159302196,-0.004063139090565844,nan,nan,nan,nan
26.95203471183777,-0.02192684,-0.21038611,-2.8357246,0.0059755462988176754,nan,nan,nan,nan,nan,16.948428630828857,18.148428630828857,0.00667881965637207,nan,nan,nan,nan,0.7293987800098146,0.011839637698888662,-0.03644519315694463,-0.003913406610078752,nan,nan,nan,nan
27.06383776664734,-0.03083426,-0.19259086,-2.8278816,0.00431254678052336,nan,nan,nan,nan,nan,17.060235738754272,18.26023573875427,0.006574869155883789,nan,nan,nan,nan,0.7301735168844995,0.003804607790736485,-0.01576605826606189,-0.003011489162052291,nan,nan,nan,nan
27.15800428390503,-0.03262408,-0.18447305,-2.823068,0.003690822358243917,nan,nan,nan,nan,nan,17.154653549194336,18.354653549194335,0.0068323612213134766,nan,nan,nan,nan,0.7308382430893036,0.004379597507769865,-0.0037281103714974766,-0.002490993297161745,nan,nan,nan,nan
27.255606412887573,-0.03405649,-0.16829696,-2.814329,0.0017717458768705188,nan,nan,nan,nan,nan,17.252028942108154,18.452028942108154,0.006186723709106445,nan,nan,nan,nan,0.7314537877165349,0.0012715086168237062,0.010180315642386863,-0.0016020815235810763,nan,nan,nan,nan
27.350685596466064,-0.03327692,-0.15655099,-2.8126235,0.00028408495084427526,nan,nan,nan,nan,nan,17.34708857536316,18.54708857536316,0.005175113677978516,nan,nan,nan,nan,0.7319670704649548,0.0032463933468642693,0.017863675053275036,-0.000736309029247807,nan,nan,nan,nan
27.458972692489624,-0.0335885,-0.1377512,-2.813363,-0.0016877656956106437,nan,nan,nan,nan,nan,17.45552086830139,18.65552086830139,0.005682706832885742,nan,nan,nan,nan,0.7321123697044188,-0.0008775926380945609,0.024889016479328004,0.000597315760885255,nan,nan,nan,nan
27.549663066864014,-0.03506469,-0.12578785,-2.8146093,-0.002626442516979499,nan,nan,nan,nan,nan,17.54604697227478,18.74604697227478,0.005481243133544922,nan,nan,nan,nan,0.7320955006215304,-0.0009643907139117401,0.022988957346759046,0.0013593125092281348,nan,nan,nan,nan
27.654587030410767,-0.03431126,-0.10879599,-2.81317,-0.0033473802897187183,nan,nan,nan,nan,nan,17.65101385116577,18.85101385116577,0.005051851272583008,nan,nan,nan,nan,0.7320793837163571,-0.0017239306452435516,0.019880211846788093,0.0019634910357930516,nan,nan,nan,nan
27.762124061584473,-0.02953188,-0.09334028,-2.813355,-0.003672570057423761,nan,nan,nan,nan,nan,17.7585232257843,18.9585232257843,0.006795167922973633,nan,nan,nan,nan,0.7320030013019713,-0.0010243531471079018,0.018952737580446744,0.0022181831107793036,nan,nan,nan,nan
27.852166652679443,-0.020035379,-0.07624517,-2.8117394,-0.003677747302616964,nan,nan,nan,nan,nan,17.848554134368896,19.048554134368896,0.005088090896606445,nan,nan,nan,nan,0.7317843192208912,-0.0034885921174270113,0.020609271002529718,0.002357698466317708,nan,nan,nan,nan
27.956958293914795,-0.0030585234,-0.060328327,-2.807788,-0.0035771467616677877,nan,nan,nan,nan,nan,17.95347571372986,19.153475713729858,0.004882097244262695,nan,nan,nan,nan,0.7315935758697242,-0.0028367329068253095,0.024175003596062804,0.0021873440788163887,nan,nan,nan,nan
28.063556909561157,0.014986059,-0.04201127,-2.805118,-0.003694904389052015,nan,nan,nan,nan,nan,18.059942960739136,19.259942960739135,0.006335258483886719,nan,nan,nan,nan,0.7313749798770015,-0.0027890123444033496,0.032888082257616455,0.002266289899435377,nan,nan,nan,nan
28.15390658378601,0.018717019,-0.026274825,-2.8085475,-0.0031020856425338873,nan,nan,nan,nan,nan,18.15029239654541,19.35029239654541,0.004913806915283203,nan,nan,nan,nan,0.7307949921151478,-0.006422879002202443,0.02721728937615683,0.0019956785899851587,nan,nan,nan,nan
28.264405012130737,0.026943186,-0.0038577663,-2.81186,-0.003207029467598081,nan,nan,nan,nan,nan,18.260807275772095,19.460807275772094,0.0060231685638427734,nan,nan,nan,nan,0.7299797663015902,-0.012197546536356787,0.01725440886319121,0.001718952524807967,nan,nan,nan,nan
28.35679316520691,0.03448874,0.014847015,-2.8133395,-0.004175965753451396,nan,nan,nan,nan,nan,18.35325288772583,19.55325288772583,0.004964113235473633,nan,nan,nan,nan,0.7292690264374053,-0.016588240226374503,0.009830133367701176,0.00235953053335296,nan,nan,nan,nan
28.452913999557495,0.03926186,0.028603211,-2.815442,-0.004851285459441123,nan,nan,nan,nan,nan,18.449339389801025,19.649339389801025,0.005263566970825195,nan,nan,nan,nan,0.7286916686550643,-0.01413274584020696,0.00600047940445886,0.002727845484065169,nan,nan,nan,nan
28.563040494918823,0.04548159,0.04979438,-2.8223963,-0.005726116628576678,nan,nan,nan,nan,nan,18.559509992599487,19.759509992599487,0.006262302398681641,nan,nan,nan,nan,0.7277111325336818,-0.016486677146890043,0.001723307407736347,0.003298689639880272,nan,nan,nan,nan
28.65396547317505,0.050205875,0.072067454,-2.8303583,-0.00582205430327881,nan,nan,nan,nan,nan,18.650357723236084,19.850357723236083,0.005209922790527344,nan,nan,nan,nan,0.726812707229916,-0.021968243221869892,-0.002843492042425158,0.003592432072544046,nan,nan,nan,nan
28.762749671936035,0.052527677,0.09782729,-2.8377576,-0.005348451354905699,nan,nan,nan,nan,nan,18.759175062179565,19.959175062179565,0.007463932037353516,nan,nan,nan,nan,0.7259236989105946,-0.02641432419302482,-0.007802204262495078,0.0034033448718868995,nan,nan,nan,nan
28.861259698867798,0.05204745,0.11396976,-2.8418558,-0.005148795747565568,nan,nan,nan,nan,nan,18.85765838623047,20.057658386230468,0.005887746810913086,nan,nan,nan,nan,0.7252598824622205,-0.02980087679512209,-0.011198400597722376,0.0031506486850554735,nan,nan,nan,nan
28.95064663887024,0.04937955,0.13727164,-2.8471708,-0.004994210713872209,nan,nan,nan,nan,nan,18.947027683258057,20.147027683258056,0.005639553070068359,nan,nan,nan,nan,0.7247511662927203,-0.03217833079254694,-0.014608912680820341,0.00309352869857411,nan,nan,nan,nan
29.046980142593384,0.045980707,0.15486674,-2.8509996,-0.00473419457908293,nan,nan,nan,nan,nan,19.043385982513428,20.243385982513427,0.007219791412353516,nan,nan,nan,nan,0.7242123233417369,-0.03525648258689176,-0.0175007961882908,0.0029475356682845816,nan,nan,nan,nan
29.154482126235962,0.040993713,0.18961652,-2.8549147,-0.005561604794459525,nan,nan,nan,nan,nan,19.150883436203003,20.350883436203002,0.00549769401550293,nan,nan,nan,nan,0.723976095397362,-0.04110946410847594,-0.01901724640534856,0.00327113676338204,nan,nan,nan,nan
29.246975421905518,0.0343656,0.20919563,-2.8568206,-0.005688037110553264,nan,nan,nan,nan,nan,19.243433475494385,20.443433475494384,0.007698774337768555,nan,nan,nan,nan,0.7237920022736515,-0.04693708873505512,-0.019734768082252385,0.0035781003700012842,nan,nan,nan,nan
29.360737085342407,0.02550868,0.229197,-2.8590834,-0.004995114175103338,nan,nan,nan,nan,nan,19.35724449157715,20.557244491577148,0.00594019889831543,nan,nan,nan,nan,0.7238170780700466,-0.04232978854367385,-0.02344666550951141,0.0033261114211359326,nan,nan,nan,nan
29.454202890396118,0.019598275,0.24197936,-2.8595417,-0.003808827296655189,nan,nan,nan,nan,nan,19.450583696365356,20.650583696365356,0.005216360092163086,nan,nan,nan,nan,0.7239247388886427,-0.02469686221682168,-0.018762093444366638,0.002620465237213755,nan,nan,nan,nan
29.548761129379272,0.016050795,0.24887659,-2.8570442,-0.003185459853069162,nan,nan,nan,nan,nan,19.545202493667603,20.745202493667602,0.005852460861206055,nan,nan,nan,nan,0.7241860455547466,-0.016460873925806904,-0.014534705746275123,0.0021781943856607495,nan,nan,nan,nan
29.661587953567505,0.014629716,0.25417626,-2.8557146,-0.0027511036622521433,nan,nan,nan,nan,nan,19.65800976753235,20.858009767532348,0.0062255859375,nan,nan,nan,nan,0.7246799132266281,-0.0037506544336843037,-0.006517863933474388,0.0018037401437885616,nan,nan,nan,nan
29.75511646270752,0.013441465,0.25668624,-2.8485546,-0.0028723501887144218,nan,nan,nan,nan,nan,19.751500129699707,20.951500129699706,0.005039215087890625,nan,nan,nan,nan,0.7253076833665472,0.006803654601671277,0.0008845908615823337,0.001762587480329682,nan,nan,nan,nan
29.84725046157837,0.013492883,0.25694162,-2.8403108,-0.0034548695748942183,nan,nan,nan,nan,nan,19.843639850616455,21.043639850616454,0.007332324981689453,nan,nan,nan,nan,0.7260832386406847,0.010723235156542039,0.004470336668843091,0.002000641570509348,nan,nan,nan,nan
29.959397554397583,0.012966188,0.2560115,-2.832609,-0.00417036161629576,nan,nan,nan,nan,nan,19.955944299697876,21.155944299697875,0.005429744720458984,nan,nan,nan,nan,0.7270872373639924,0.012489083924510074,0.00814735113264718,0.002519787053375127,nan,nan,nan,nan
30.056492805480957,0.010172409,0.25444824,-2.8287616,-0.004667908336027626,nan,nan,nan,nan,nan,20.052953720092773,21.252953720092773,0.005159616470336914,nan,nan,nan,nan,0.7277274765569344,0.007169739481105518,0.006575284044891282,0.0028684077208419698,nan,nan,nan,nan
30.14699625968933,0.012469329,0.24502568,-2.8176887,-0.00480866820657297,nan,nan,nan,nan,nan,20.14347767829895,21.34347767829895,0.009488105773925781,nan,nan,nan,nan,0.7285662892132757,0.009140820563967795,0.006755170982959718,0.0030959914403090832,nan,nan,nan,nan
30.261262893676758,0.018420316,0.23069464,-2.8075464,-0.004201549864420415,nan,nan,nan,nan,nan,20.25766611099243,21.45766611099243,0.005751848220825195,nan,nan,nan,nan,0.7295665216101059,0.01183923464850787,0.010952374728192863,0.002877211721818302,nan,nan,nan,nan
30.352071285247803,0.023433996,0.21821013,-2.8021061,-0.003600532484753555,nan,nan,nan,nan,nan,20.34847354888916,21.54847354888916,0.005067586898803711,nan,nan,nan,nan,0.73025317987454,0.012105986054458659,0.01421681158905392,0.0024871506569036166,nan,nan,nan,nan
30.463324546813965,0.030176243,0.19646473,-2.7949507,-0.0028149228650492476,nan,nan,nan,nan,nan,20.45971417427063,21.65971417427063,0.006478071212768555,nan,nan,nan,nan,0.7309807284809157,0.019868268232621656,0.017392851961519833,0.0019716651016766624,nan,nan,nan,nan
30.560205936431885,0.027612677,0.17068952,-2.7870638,-0.0023136769536572155,nan,nan,nan,nan,nan,20.556753158569336,21.756753158569335,0.005761623382568359,nan,nan,nan,nan,0.7314896567117638,0.02522901718541908,0.010285258867783035,0.0015634856151326947,nan,nan,nan,nan
30.66090989112854,0.022554733,0.1544536,-2.781058,-0.0022462940927382314,nan,nan,nan,nan,nan,20.657355070114136,21.857355070114135,0.005380868911743164,nan,nan,nan,nan,0.7320177909826164,0.021566548478682262,0.002193274736606736,0.0014589141117558237,nan,nan,nan,nan
30.75155234336853,0.016656345,0.130094,-2.7690384,-0.0021984403252754145,nan,nan,nan,nan,nan,20.74793791770935,21.94793791770935,0.005382537841796875,nan,nan,nan,nan,0.7324364571690829,0.019935482304098893,-0.008415081058028996,0.0014157044894157408,nan,nan,nan,nan
30.860224962234497,0.010476109,0.10233736,-2.758627,-0.001893449417388564,nan,nan,nan,nan,nan,20.856914281845093,22.056914281845092,0.006948947906494141,nan,nan,nan,nan,0.7328166587323495,0.017494685808749206,-0.013225191776626365,0.0012973252271163275,nan,nan,nan,nan
30.95784068107605,0.0034934792,0.07920951,-2.7528775,-0.0015881379822743635,nan,nan,nan,nan,nan,20.95435333251953,22.15435333251953,0.005015373229980469,nan,nan,nan,nan,0.7329542054434022,0.01424119954582616,-0.01463432103902294,0.0010559099654087105,nan,nan,nan,nan
31.049044847488403,-0.004393109,0.063116185,-2.749506,-0.0018732817341207833,nan,nan,nan,nan,nan,21.04557514190674,22.245575141906738,0.0071218013763427734,nan,nan,nan,nan,0.7328348088668021,0.012676779523804747,-0.01908825183487723,0.0010564067302359964,nan,nan,nan,nan
31.15810990333557,-0.01720046,0.030631188,-2.7430053,-0.0019923787915706384,nan,nan,nan,nan,nan,21.154539823532104,22.354539823532104,0.008071184158325195,nan,nan,nan,nan,0.732585270182519,0.01164766961137128,-0.022163933078403992,0.0012087641131560524,nan,nan,nan,nan
31.25376582145691,-0.023814753,0.0018244934,-2.7382135,-0.0013350832407401647,nan,nan,nan,nan,nan,21.250271797180176,22.450271797180175,0.005106925964355469,nan,nan,nan,nan,0.732233936520615,0.01495614876108629,-0.017878175097263298,0.000957503846587799,nan,nan,nan,nan
31.36245322227478,-0.030784858,-0.030386962,-2.7376719,6.038786920070085e-05,nan,nan,nan,nan,nan,21.35885524749756,22.558855247497558,0.005304574966430664,nan,nan,nan,nan,0.7316706302163667,0.016648397192860973,-0.009822706095585786,0.00018491856477116417,nan,nan,nan,nan
31.453036546707153,-0.03670989,-0.051574647,-2.739811,0.0010250978477178093,nan,nan,nan,nan,nan,21.449516534805298,22.649516534805297,0.005490541458129883,nan,nan,nan,nan,0.7310040971975792,0.018739160345089826,-0.008495365743175,-0.0005470794641818168,nan,nan,nan,nan
31.54818296432495,-0.036475684,-0.0864673,-2.7459185,0.001417334837650833,nan,nan,nan,nan,nan,21.54460859298706,22.74460859298706,0.007365703582763672,nan,nan,nan,nan,0.730062655698613,0.02409808339390947,-0.0012894254119371425,-0.0009978507861514306,nan,nan,nan,nan
31.65904974937439,-0.03489842,-0.11856652,-2.7536106,0.0011854227561958032,nan,nan,nan,nan,nan,21.655481815338135,22.855481815338134,0.005004167556762695,nan,nan,nan,nan,0.7289975561451082,0.02781427886949929,0.006861911933535723,-0.0009516980119037193,nan,nan,nan,nan
31.748977422714233,-0.03495348,-0.13851964,-2.7563221,0.00108416759134497,nan,nan,nan,nan,nan,21.745445489883423,22.945445489883422,0.0062046051025390625,nan,nan,nan,nan,0.7282737385181806,0.028164311983541683,0.00981824455464583,-0.0008671621814119478,nan,nan,nan,nan
31.85893964767456,-0.03477993,-0.16675745,-2.7589328,0.0013184888779437832,nan,nan,nan,nan,nan,21.855369567871094,23.055369567871093,0.004904031753540039,nan,nan,nan,nan,0.7274971943949397,0.026125505734498764,0.01097507402271319,-0.0009278309147383769,nan,nan,nan,nan
31.954484224319458,-0.029570986,-0.19328627,-2.7656507,0.0019280399887430383,nan,nan,nan,nan,nan,21.95087695121765,23.15087695121765,0.005040407180786133,nan,nan,nan,nan,0.7267345398962991,0.022152535707278324,0.013412920963406358,-0.0012065014765838425,nan,nan,nan,nan
32.05370831489563,-0.021128982,-0.20907323,-2.7754338,0.0025342054338456394,nan,nan,nan,nan,nan,22.05010175704956,23.25010175704956,0.00566411018371582,nan,nan,nan,nan,0.7257894143415399,0.018875137176351163,0.01815229409240546,-0.0015692075706822484,nan,nan,nan,nan
32.16303300857544,-0.010611534,-0.22866012,-2.7864757,0.0033456065465202658,nan,nan,nan,nan,nan,22.15943932533264,23.35943932533264,0.005835771560668945,nan,nan,nan,nan,0.7248039843294243,0.012987292763864811,0.023346752790087636,-0.0020702606057653524,nan,nan,nan,nan
