time,x,y,z,yaw,platform,trajectory,traj_double,traj_short,traj_spin,traj_time,ref_time,comptime,x_ref,y_ref,yaw_ref,z_ref,throttle_input,p_input,q_input,r_input,cbf_term_pitch_cbf,cbf_term_roll_cbf,cbf_term_thrust_cbf,cbf_term_yaw_cbf
10.000775814056396,0.058937587,-0.005320105,-2.9133255,0.0019450373676185087,SIM,HELIX,NormSpd,Not Short,Spin,1.1920928955078125e-06,1.2000011920928955,0.007906198501586914,nan,nan,nan,nan,0.7378013835355421,0.0,0.0,0.0,nan,nan,nan,nan
10.119463682174683,0.05515099,0.00583453,-2.9261916,0.002656835953753864,nan,nan,nan,nan,nan,0.11877298355102539,1.3187729835510253,0.005766868591308594,nan,nan,nan,nan,0.68734059597417,-0.09258034209917257,-0.21780765259524149,0.28515822864436025,nan,nan,nan,nan
10.213663339614868,0.049137067,0.01136395,-2.9306793,0.008303258306247669,nan,nan,nan,nan,nan,0.212935209274292,1.412935209274292,0.006855964660644531,nan,nan,nan,nan,0.6900531277585766,-0.03849409327253102,-0.20899563478772334,0.29662677202457827,nan,nan,nan,nan
10.321768283843994,0.048998594,0.013291055,-2.9260743,0.022619678954379708,nan,nan,nan,nan,nan,0.3209874629974365,1.5209874629974365,0.005624532699584961,nan,nan,nan,nan,0.695553213601204,0.037053202097650596,-0.130783804715538,0.3030216439793319,nan,nan,nan,nan
10.412691831588745,0.05017637,0.015309448,-2.9140587,0.042283658027490394,nan,nan,nan,nan,nan,0.41199183464050293,1.6119918346405029,0.006361484527587891,nan,nan,nan,nan,0.7003929085582968,0.08582745971576607,-0.03662129822090128,0.30397908961803516,nan,nan,nan,nan
10.522977113723755,0.057726398,0.01347501,-2.8994045,0.06793358825278425,nan,nan,nan,nan,nan,0.5221941471099854,1.7221941471099853,0.005431413650512695,nan,nan,nan,nan,0.7049409027975737,0.12161437109673222,0.05165217621640921,0.30434585118892526,nan,nan,nan,nan
10.61491060256958,0.06689871,0.011070229,-2.8861732,0.0863432754806709,nan,nan,nan,nan,nan,0.6141855716705322,1.8141855716705322,0.006823539733886719,nan,nan,nan,nan,0.7081130199537605,0.1347768694861838,0.11563049807431915,0.30312903512528583,nan,nan,nan,nan
10.727144241333008,0.08865582,0.0060370117,-2.855918,0.11695496687080689,nan,nan,nan,nan,nan,0.7264089584350586,1.9264089584350585,0.0050580501556396484,nan,nan,nan,nan,0.712448668394095,0.12301294875093237,0.18376163083484454,0.2986205249226303,nan,nan,nan,nan
10.8263418674469,0.120934196,0.005892191,-2.8196924,0.15253578355580072,nan,nan,nan,nan,nan,0.8255960941314697,2.02559609413147,0.005901336669921875,nan,nan,nan,nan,0.7163239329483848,0.08077152897418693,0.21123716900534464,0.29254450336491267,nan,nan,nan,nan
10.92516016960144,0.14433926,0.0083821025,-2.7908993,0.1778927735941182,nan,nan,nan,nan,nan,0.9243812561035156,2.124381256103516,0.005074977874755859,nan,nan,nan,nan,0.719190523420701,0.04692571819486334,0.23505049786116802,0.28891028937396995,nan,nan,nan,nan
11.027567386627197,0.17827691,0.016484046,-2.7442808,0.21411691259210203,nan,nan,nan,nan,nan,1.0268990993499756,2.2268990993499758,0.005066633224487305,nan,nan,nan,nan,0.7228343188513405,-0.017762405773029507,0.20694935477969756,0.2808790855384327,nan,nan,nan,nan
11.122493982315063,0.19740641,0.026623601,-2.7112317,0.23734732978809658,nan,nan,nan,nan,nan,1.1217930316925049,2.321793031692505,0.0053632259368896484,nan,nan,nan,nan,0.7252734502030035,-0.06042246908172108,0.1915846359134515,0.2771043397708751,nan,nan,nan,nan
11.214595556259155,0.21622947,0.04772835,-2.6618843,0.26824060669811123,nan,nan,nan,nan,nan,1.2138590812683105,2.4138590812683107,0.007779359817504883,nan,nan,nan,nan,0.7280202566390356,-0.11158409022477306,0.130760525182814,0.27189723182954345,nan,nan,nan,nan
11.315354347229004,0.22297078,0.06478844,-2.6223671,0.28995532584860084,nan,nan,nan,nan,nan,1.314610242843628,2.514610242843628,0.006839275360107422,nan,nan,nan,nan,0.7301379674396086,-0.14885382657111687,0.0968472563910373,0.26915530324295767,nan,nan,nan,nan
11.429564952850342,0.22240128,0.08988181,-2.5669127,0.32539569535891244,nan,nan,nan,nan,nan,1.4288604259490967,2.628860425949097,0.005158185958862305,nan,nan,nan,nan,0.7326708212629114,-0.173609387623761,0.019955436448508803,0.26479500302127307,nan,nan,nan,nan
11.520274877548218,0.21524015,0.10121419,-2.5321882,0.34738636660337496,nan,nan,nan,nan,nan,1.5195260047912598,2.71952600479126,0.008210420608520508,nan,nan,nan,nan,0.7341280947263649,-0.18394285621550424,-0.02395337399810712,0.2598708476544909,nan,nan,nan,nan
11.61531662940979,0.19514568,0.115633406,-2.4823458,0.3797794445223771,nan,nan,nan,nan,nan,1.6145658493041992,2.8145658493041994,0.005964040756225586,nan,nan,nan,nan,0.7359594453927545,-0.1643085978095355,-0.08692074536964788,0.25255053866078503,nan,nan,nan,nan
11.723530292510986,0.15950716,0.12831017,-2.4362338,0.4177886559807758,nan,nan,nan,nan,nan,1.7228128910064697,2.92281289100647,0.0054264068603515625,nan,nan,nan,nan,0.737201504769337,-0.14861065686731809,-0.13523243369469667,0.24452646338447692,nan,nan,nan,nan
11.82298731803894,0.13033915,0.13123895,-2.4067187,0.4462436054005796,nan,nan,nan,nan,nan,1.8222286701202393,3.0222286701202394,0.005583047866821289,nan,nan,nan,nan,0.7380243094231613,-0.13993181855182837,-0.1660162986363693,0.2388482156282234,nan,nan,nan,nan
11.913559436798096,0.08850843,0.12777534,-2.364782,0.4833377378046173,nan,nan,nan,nan,nan,1.9127848148345947,3.112784814834595,0.0054624080657958984,nan,nan,nan,nan,0.7387589212785441,-0.09239315489812094,-0.18909507829326647,0.2292449365473955,nan,nan,nan,nan
12.02747368812561,0.043509286,0.11211518,-2.323205,0.5248167641314149,nan,nan,nan,nan,nan,2.0269527435302734,3.2269527435302736,0.006814718246459961,nan,nan,nan,nan,0.7394817316781377,-0.03925188004421995,-0.19595758505339506,0.21958065616764547,nan,nan,nan,nan
12.107504606246948,0.017186444,0.095082276,-2.301726,0.5500993672924233,nan,nan,nan,nan,nan,2.1067428588867188,3.306742858886719,0.00904226303100586,nan,nan,nan,nan,0.7398714481827616,-0.006229034418347525,-0.19650842065894603,0.2128016030464441,nan,nan,nan,nan
12.229945421218872,-0.024234165,0.05340417,-2.271252,0.5968370650361425,nan,nan,nan,nan,nan,2.2292771339416504,3.4292771339416506,0.005270719528198242,nan,nan,nan,nan,0.7400687053012797,0.043796255342090334,-0.19569151386961164,0.2024432180574744,nan,nan,nan,nan
12.322636604309082,-0.054408863,0.015731256,-2.2437725,0.6343515826332322,nan,nan,nan,nan,nan,2.3219614028930664,3.5219614028930666,0.005377292633056641,nan,nan,nan,nan,0.7403023435280663,0.08212599629805932,-0.1813982593209095,0.19197564451106874,nan,nan,nan,nan
12.417417526245117,-0.071460366,-0.020189427,-2.2250655,0.6628542034317945,nan,nan,nan,nan,nan,2.4166786670684814,3.6166786670684816,0.007301807403564453,nan,nan,nan,nan,0.7406258815103112,0.10823291501912867,-0.17274789558029824,0.1835863884824384,nan,nan,nan,nan
12.51252293586731,-0.08492693,-0.076136366,-2.1992636,0.704958098359314,nan,nan,nan,nan,nan,2.5118348598480225,3.7118348598480226,0.005583286285400391,nan,nan,nan,nan,0.7407137028555496,0.1408184501972635,-0.13896684584219038,0.17352019013491193,nan,nan,nan,nan
12.623921155929565,-0.08330498,-0.12424963,-2.1794086,0.7390204927842033,nan,nan,nan,nan,nan,2.623140811920166,3.823140811920166,0.0054798126220703125,nan,nan,nan,nan,0.7406562062064217,0.16311066377782374,-0.08329826974192633,0.16285031299686237,nan,nan,nan,nan
12.727935075759888,-0.069148906,-0.17228043,-2.1626065,0.7691531342423147,nan,nan,nan,nan,nan,2.727212905883789,3.9272129058837892,0.005129098892211914,nan,nan,nan,nan,0.7405846736812579,0.17781782859616316,-0.04526929893180626,0.1589925821773152,nan,nan,nan,nan
12.81583571434021,-0.05267616,-0.19682185,-2.15302,0.7852624781848008,nan,nan,nan,nan,nan,2.8150689601898193,4.0150689601898195,0.006963253021240234,nan,nan,nan,nan,0.7407158984123311,0.19143683447151796,-0.023580432923600257,0.15786382790458334,nan,nan,nan,nan
12.912479162216187,-0.013392241,-0.23156491,-2.1431715,0.8109839446334166,nan,nan,nan,nan,nan,2.911818265914917,4.111818265914917,0.0054433345794677734,nan,nan,nan,nan,0.7402237483194744,0.17598481662840734,0.04833524083114603,0.15417888651771314,nan,nan,nan,nan
13.023423671722412,0.0291601,-0.25008902,-2.1390023,0.8314286940323579,nan,nan,nan,nan,nan,3.022700071334839,4.222700071334839,0.00542759895324707,nan,nan,nan,nan,0.7399429563945474,0.17297414919671986,0.08846068482598184,0.15528629884630202,nan,nan,nan,nan
13.115751028060913,0.06578289,-0.2564501,-2.135879,0.846958979047244,nan,nan,nan,nan,nan,3.1149978637695312,4.314997863769531,0.006029605865478516,nan,nan,nan,nan,0.7397328323506498,0.1670389749216094,0.12311592677312896,0.1558115974982402,nan,nan,nan,nan
13.224775314331055,0.11961501,-0.25285003,-2.128076,0.8678422324299854,nan,nan,nan,nan,nan,3.223999500274658,4.423999500274658,0.005147457122802734,nan,nan,nan,nan,0.7395267338586684,0.13653185533326181,0.17100834396400996,0.15553796416673296,nan,nan,nan,nan
13.316825151443481,0.1764234,-0.23703502,-2.1202729,0.8902971514765483,nan,nan,nan,nan,nan,3.316056251525879,4.516056251525879,0.005974531173706055,nan,nan,nan,nan,0.7392904510805716,0.08811700808033371,0.20085544784597179,0.1559008570105935,nan,nan,nan,nan
13.428156852722168,0.21685734,-0.21680775,-2.116565,0.9062437806052732,nan,nan,nan,nan,nan,3.427534580230713,4.627534580230713,0.0051648616790771484,nan,nan,nan,nan,0.7393241474674669,0.056773305960240265,0.22120265592921368,0.158801729822038,nan,nan,nan,nan
13.51693868637085,0.2623112,-0.18138686,-2.1169279,0.9231501339286945,nan,nan,nan,nan,nan,3.5161707401275635,4.716170740127564,0.0059299468994140625,nan,nan,nan,nan,0.7389746505895762,0.008794520317956368,0.22002171888217478,0.1620280556766527,nan,nan,nan,nan
13.624152421951294,0.29549563,-0.14058535,-2.121546,0.937339044712918,nan,nan,nan,nan,nan,3.6233718395233154,4.823371839523316,0.005387067794799805,nan,nan,nan,nan,0.7386478734724174,-0.029146046359016357,0.22078637895119577,0.167690518877271,nan,nan,nan,nan
13.715277194976807,0.310097,-0.10972379,-2.1256971,0.9496761334158406,nan,nan,nan,nan,nan,3.7145190238952637,4.914519023895264,0.006107330322265625,nan,nan,nan,nan,0.7383790424373426,-0.06567383829261582,0.21395710157104222,0.1702277584097894,nan,nan,nan,nan
13.827805757522583,0.3194746,-0.063822076,-2.1356165,0.9680200168114028,nan,nan,nan,nan,nan,3.8270277976989746,5.027027797698975,0.005035400390625,nan,nan,nan,nan,0.737836281389401,-0.1209668444666671,0.18285649887730263,0.17389601385464543,nan,nan,nan,nan
13.92130446434021,0.31741977,-0.01324344,-2.1493883,0.9885564250937358,nan,nan,nan,nan,nan,3.920541763305664,5.120541763305664,0.006028890609741211,nan,nan,nan,nan,0.7370377008490091,-0.16175026855490787,0.12993071289941832,0.17802888571519335,nan,nan,nan,nan
14.010012149810791,0.31028286,0.012045371,-2.1563914,0.999294356083807,nan,nan,nan,nan,nan,4.00923490524292,5.20923490524292,0.00647735595703125,nan,nan,nan,nan,0.7367621983635907,-0.18561327371195685,0.10875596487412018,0.1796192457815984,nan,nan,nan,nan
14.12760305404663,0.28279784,0.051051773,-2.1651242,1.0195335372141763,nan,nan,nan,nan,nan,4.126823425292969,5.326823425292969,0.005470991134643555,nan,nan,nan,nan,0.7364790787336248,-0.21224388830422283,0.060138140430253194,0.1843257508818684,nan,nan,nan,nan
14.228399753570557,0.23710778,0.070832275,-2.1825564,1.0454221118382188,nan,nan,nan,nan,nan,4.227666139602661,5.427666139602661,0.005075693130493164,nan,nan,nan,nan,0.7356088365209056,-0.21431902672658124,-0.021004551273570576,0.18580894642484666,nan,nan,nan,nan
14.320142984390259,0.20195843,0.07998988,-2.1964233,1.0638438509453538,nan,nan,nan,nan,nan,4.3193888664245605,5.519388866424561,0.008291006088256836,nan,nan,nan,nan,0.735243406268302,-0.22505791411105694,-0.06155143352254415,0.1838833120421871,nan,nan,nan,nan
14.416396856307983,0.14374937,0.07913666,-2.2169635,1.0945189617725184,nan,nan,nan,nan,nan,4.415642738342285,5.615642738342285,0.005685567855834961,nan,nan,nan,nan,0.7341749445376544,-0.19978098209910483,-0.130902575418248,0.17966806377612685,nan,nan,nan,nan
14.52510952949524,0.08329674,0.060938362,-2.2402983,1.1269943454503997,nan,nan,nan,nan,nan,4.52433967590332,5.7243396759033205,0.005267620086669922,nan,nan,nan,nan,0.7333431629069133,-0.1671178218923709,-0.18154760225741848,0.17337127926636575,nan,nan,nan,nan
14.616547107696533,0.049149796,0.046281174,-2.2552354,1.144725073548934,nan,nan,nan,nan,nan,4.615829944610596,5.815829944610596,0.005742788314819336,nan,nan,nan,nan,0.732835885174382,-0.15871386412424993,-0.20450370613761712,0.1683396766062192,nan,nan,nan,nan
14.715171575546265,-0.00897223,0.0067581832,-2.2736158,1.1769842497657166,nan,nan,nan,nan,nan,4.714397192001343,5.914397192001343,0.005407571792602539,nan,nan,nan,nan,0.7322147625559071,-0.11368461835623447,-0.21649213306747186,0.1664341513320935,nan,nan,nan,nan
14.826104640960693,-0.053199306,-0.042764418,-2.2969408,1.2071059084124038,nan,nan,nan,nan,nan,4.825375080108643,6.025375080108643,0.0052716732025146484,nan,nan,nan,nan,0.7315071784037315,-0.059263721295997336,-0.21452197681566634,0.1622493387607927,nan,nan,nan,nan
14.91995620727539,-0.07683225,-0.08338958,-2.318551,1.229887779298912,nan,nan,nan,nan,nan,4.919188022613525,6.119188022613526,0.0072405338287353516,nan,nan,nan,nan,0.7310544384679697,-0.038207069397425096,-0.21136319615017066,0.16026484432655522,nan,nan,nan,nan
15.015426397323608,-0.09084839,-0.11973646,-2.337782,1.2488095043315122,nan,nan,nan,nan,nan,5.014702081680298,6.214702081680298,0.0051021575927734375,nan,nan,nan,nan,0.7302842530792172,0.0032730003778764336,-0.1882482350568459,0.16030218372309313,nan,nan,nan,nan
15.125369787216187,-0.10008044,-0.17307647,-2.3634324,1.2744540568719758,nan,nan,nan,nan,nan,5.124601602554321,6.3246016025543215,0.00532078742980957,nan,nan,nan,nan,0.7293707252000019,0.05754373856682547,-0.145853349225002,0.15979926562907784,nan,nan,nan,nan
15.219886302947998,-0.083873555,-0.23116688,-2.3829618,1.299798684513715,nan,nan,nan,nan,nan,5.219116687774658,6.419116687774658,0.006751060485839844,nan,nan,nan,nan,0.7286590229722227,0.12061431631750791,-0.09707393047803901,0.15940444148133157,nan,nan,nan,nan
15.32488226890564,-0.061382547,-0.27610418,-2.402337,1.3197107083062096,nan,nan,nan,nan,nan,5.324121952056885,6.524121952056885,0.0053517818450927734,nan,nan,nan,nan,0.72808774056821,0.16671996360706684,-0.058587317962686326,0.15989732539814952,nan,nan,nan,nan
15.418915271759033,-0.024230136,-0.3222558,-2.4216144,1.3402539357081422,nan,nan,nan,nan,nan,5.418186902999878,6.618186902999878,0.007873296737670898,nan,nan,nan,nan,0.7273895006317059,0.20612653386294125,-0.01476520709663145,0.16121497105434845,nan,nan,nan,nan
15.516879796981812,0.00807892,-0.35152033,-2.4338512,1.354131178882501,nan,nan,nan,nan,nan,5.516138792037964,6.716138792037964,0.006327629089355469,nan,nan,nan,nan,0.7269192246883238,0.24071290498993853,0.0121065947622139,0.1637501076953405,nan,nan,nan,nan
15.629104375839233,0.08342366,-0.39895934,-2.4581323,1.3791335181864992,nan,nan,nan,nan,nan,5.628329277038574,6.828329277038574,0.005243062973022461,nan,nan,nan,nan,0.7261592425953343,0.26749435139078115,0.053545860620549286,0.16351246116645154,nan,nan,nan,nan
15.727152109146118,0.13423494,-0.419544,-2.46992,1.3926935822305655,nan,nan,nan,nan,nan,5.726375579833984,6.9263755798339846,0.005161762237548828,nan,nan,nan,nan,0.7257295198795639,0.28864912707743096,0.07317558947542784,0.16760059426181823,nan,nan,nan,nan
15.822682619094849,0.20688047,-0.4403927,-2.4772182,1.4111270615090208,nan,nan,nan,nan,nan,5.8219122886657715,7.021912288665772,0.0061337947845458984,nan,nan,nan,nan,0.7255681543910478,0.2684008390843032,0.08490382837313933,0.16976507894686316,nan,nan,nan,nan
15.916685581207275,0.25513667,-0.45006922,-2.4815302,1.4238762764938464,nan,nan,nan,nan,nan,5.915931701660156,7.115931701660156,0.005650997161865234,nan,nan,nan,nan,0.7256284665800633,0.2635361465345949,0.09271593701740657,0.17359687296387383,nan,nan,nan,nan
16.028425693511963,0.31313723,-0.45666873,-2.4868815,1.4411892705088456,nan,nan,nan,nan,nan,6.02764892578125,7.22764892578125,0.005209445953369141,nan,nan,nan,nan,0.7256213242322956,0.21541002196784062,0.07761781272939405,0.178801811441077,nan,nan,nan,nan
16.126011848449707,0.3566869,-0.45557737,-2.4873245,1.4574387956638124,nan,nan,nan,nan,nan,6.125272035598755,7.325272035598755,0.005396842956542969,nan,nan,nan,nan,0.7257856821205271,0.13914911224146964,0.05688520589214798,0.18234726922922512,nan,nan,nan,nan
16.22095489501953,0.38355368,-0.4489385,-2.4911623,1.4706960019039426,nan,nan,nan,nan,nan,6.220191955566406,7.420191955566406,0.008941888809204102,nan,nan,nan,nan,0.7257837395186315,0.09715732958974824,0.03218775802385069,0.1879407724817581,nan,nan,nan,nan
16.314912796020508,0.40490988,-0.43744072,-2.4954727,1.4902793079035352,nan,nan,nan,nan,nan,6.314233303070068,7.5142333030700685,0.005734920501708984,nan,nan,nan,nan,0.7257126515976392,-0.0028296931945867992,0.0037797734075956536,0.18878434195948818,nan,nan,nan,nan
16.424975395202637,0.40680242,-0.42103633,-2.5034673,1.51031032993916,nan,nan,nan,nan,nan,6.424209833145142,7.624209833145142,0.0056917667388916016,nan,nan,nan,nan,0.7256011541383842,-0.08955727286983498,-0.024734002747346134,0.19054025209536082,nan,nan,nan,nan
16.520805597305298,0.39306256,-0.40327454,-2.5144353,1.5272114040637763,nan,nan,nan,nan,nan,6.520040988922119,7.720040988922119,0.00942850112915039,nan,nan,nan,nan,0.7252028625618396,-0.13047538985994656,-0.052686764670061566,0.1975893489229943,nan,nan,nan,nan
16.61270546913147,0.37147996,-0.38670105,-2.524909,1.541021975176497,nan,nan,nan,nan,nan,6.611925363540649,7.81192536354065,0.005648136138916016,nan,nan,nan,nan,0.7246747857364675,-0.19958364928755826,-0.05553901902747987,0.19864926329810265,nan,nan,nan,nan
16.725525856018066,0.3180787,-0.36019304,-2.5370424,1.5638860575707794,nan,nan,nan,nan,nan,6.7247796058654785,7.924779605865479,0.006009817123413086,nan,nan,nan,nan,0.7240900089846516,-0.2645330101531322,-0.036312506620096864,0.19629912102010166,nan,nan,nan,nan
16.815294981002808,0.27702674,-0.3369636,-2.5397434,1.5785598965359295,nan,nan,nan,nan,nan,6.81457781791687,8.01457781791687,0.005324363708496094,nan,nan,nan,nan,0.7237754364236878,-0.303191543426549,-0.03299940319809512,0.20259973149731458,nan,nan,nan,nan
16.92458939552307,0.20462425,-0.2943981,-2.5381358,1.6019517314428477,nan,nan,nan,nan,nan,6.923890113830566,8.123890113830566,0.006623983383178711,nan,nan,nan,nan,0.723846621176686,-0.3290277479008886,0.01175877605350566,0.2029868555650775,nan,nan,nan,nan
17.025134801864624,0.12157766,-0.24219856,-2.530526,1.6264868254609928,nan,nan,nan,nan,nan,7.02443528175354,8.22443528175354,0.006432056427001953,nan,nan,nan,nan,0.724300201285557,-0.30376313445123815,0.06741154081862803,0.19754021007567607,nan,nan,nan,nan
17.12123703956604,0.071577035,-0.20524181,-2.524178,1.6401303082640002,nan,nan,nan,nan,nan,7.120492219924927,8.320492219924926,0.006640195846557617,nan,nan,nan,nan,0.7245575730535595,-0.3062667541445838,0.09795832953970854,0.20770916812426463,nan,nan,nan,nan
17.212788105010986,0.008688566,-0.15066278,-2.515809,1.6582757994194375,nan,nan,nan,nan,nan,7.212010145187378,8.412010145187377,0.0053369998931884766,nan,nan,nan,nan,0.7251161481014482,-0.2401357853056648,0.14274750680170287,0.2068164871895521,nan,nan,nan,nan
17.320648431777954,-0.04661504,-0.08694534,-2.5057793,1.6757077652067052,nan,nan,nan,nan,nan,7.319929838180542,8.519929838180541,0.006639957427978516,nan,nan,nan,nan,0.7256222485556892,-0.15127375703111448,0.1767556512958937,0.20957808388477497,nan,nan,nan,nan
17.419071674346924,-0.07874644,-0.03497531,-2.4974916,1.6879589924155782,nan,nan,nan,nan,nan,7.4183385372161865,8.618338537216186,0.00675201416015625,nan,nan,nan,nan,0.7258725772815264,-0.10225228527696459,0.2014367188199719,0.2195020383030984,nan,nan,nan,nan
17.514188051223755,-0.097935036,0.012037839,-2.4897473,1.6984114248584086,nan,nan,nan,nan,nan,7.513430595397949,8.713430595397949,0.0054967403411865234,nan,nan,nan,nan,0.72624863186883,-0.010409689871251265,0.2088946153060413,0.22372483796118905,nan,nan,nan,nan
17.609891891479492,-0.10666515,0.085024536,-2.4802618,1.7142024904621995,nan,nan,nan,nan,nan,7.609113454818726,8.809113454818725,0.0071718692779541016,nan,nan,nan,nan,0.7266350900138245,0.10744639994430903,0.18140576210078982,0.22103190406115641,nan,nan,nan,nan
17.726216554641724,-0.09076742,0.14031209,-2.4703903,1.7295249440814984,nan,nan,nan,nan,nan,7.725456953048706,8.925456953048705,0.005749225616455078,nan,nan,nan,nan,0.7268062896121927,0.1921390744152547,0.1493112459936109,0.22644339608872965,nan,nan,nan,nan
17.82255268096924,-0.068505794,0.17273046,-2.466479,1.7412197664987743,nan,nan,nan,nan,nan,7.821841716766357,9.021841716766357,0.007838010787963867,nan,nan,nan,nan,0.7268378478342049,0.24126657148884098,0.12391448924608987,0.2347909244602388,nan,nan,nan,nan
17.91780424118042,-0.023344398,0.20619564,-2.4606872,1.7593436194014869,nan,nan,nan,nan,nan,7.917182683944702,9.117182683944701,0.0067844390869140625,nan,nan,nan,nan,0.7266440917536606,0.2771172949770573,0.047990799846201214,0.23150671255366584,nan,nan,nan,nan
18.01610040664673,0.017001968,0.2209034,-2.453513,1.7730718856166332,nan,nan,nan,nan,nan,8.015497207641602,9.2154972076416,0.00532221794128418,nan,nan,nan,nan,0.7265732794756795,0.3023620363815299,0.00742641474121977,0.24126744226777977,nan,nan,nan,nan
18.11057758331299,0.08426996,0.22515875,-2.4466093,1.7929357729270814,nan,nan,nan,nan,nan,8.10987901687622,9.30987901687622,0.005586147308349609,nan,nan,nan,nan,0.7265836095385184,0.287271073494224,-0.076919800514409,0.2385424220743665,nan,nan,nan,nan
18.229101419448853,0.14279845,0.21381268,-2.4375584,1.8106586420121764,nan,nan,nan,nan,nan,8.228345155715942,9.428345155715942,0.005717277526855469,nan,nan,nan,nan,0.7265822977984521,0.27724129865984043,-0.12989014624358974,0.24891338597943174,nan,nan,nan,nan
18.31279969215393,0.18899055,0.19653524,-2.424524,1.825524021639836,nan,nan,nan,nan,nan,8.312015533447266,9.512015533447265,0.005886077880859375,nan,nan,nan,nan,0.7267422146018763,0.23948076862568676,-0.1757927767763316,0.2511326930242576,nan,nan,nan,nan
18.42326521873474,0.24705009,0.15895559,-2.398275,1.8455385548053738,nan,nan,nan,nan,nan,8.42250394821167,9.62250394821167,0.00705265998840332,nan,nan,nan,nan,0.7276212678535939,0.15445530178018735,-0.22965771755991612,0.2534195362195123,nan,nan,nan,nan
18.520936965942383,0.29704645,0.094630264,-2.366524,1.8654586742961523,nan,nan,nan,nan,nan,8.520217180252075,9.720217180252074,0.007536888122558594,nan,nan,nan,nan,0.7285314727625302,0.04834868866113715,-0.2605536327003107,0.24826145824049503,nan,nan,nan,nan
18.615286827087402,0.31719774,0.051110305,-2.3465827,1.8769822041688382,nan,nan,nan,nan,nan,8.614520788192749,9.814520788192748,0.005812168121337891,nan,nan,nan,nan,0.7291052256601956,-0.009381911895659022,-0.27777804128003303,0.25808769479788696,nan,nan,nan,nan
18.71355390548706,0.34009653,-0.026284901,-2.3112552,1.897551996408208,nan,nan,nan,nan,nan,8.712776184082031,9.91277618408203,0.005404949188232422,nan,nan,nan,nan,0.7299323132977393,-0.10560072559010626,-0.2590745916977046,0.2525145682414189,nan,nan,nan,nan
18.81266736984253,0.3427042,-0.07894486,-2.2898817,1.9120121704355464,nan,nan,nan,nan,nan,8.811888456344604,10.011888456344604,0.005796194076538086,nan,nan,nan,nan,0.730474122957097,-0.15425959753173424,-0.2503357225590913,0.2604084996461448,nan,nan,nan,nan
18.922269105911255,0.32780495,-0.1452832,-2.2660625,1.9323130619695723,nan,nan,nan,nan,nan,8.921512365341187,10.121512365341186,0.007182121276855469,nan,nan,nan,nan,0.7307775247443579,-0.21638978772555098,-0.20956874829503414,0.2608987361983869,nan,nan,nan,nan
19.019346237182617,0.292086,-0.2084028,-2.2401361,1.9569964695728799,nan,nan,nan,nan,nan,9.01867151260376,10.218671512603759,0.007138729095458984,nan,nan,nan,nan,0.7311494112992707,-0.2596694343468086,-0.11864372039985734,0.2510349766873852,nan,nan,nan,nan
19.11902379989624,0.25988984,-0.24995658,-2.2236137,1.9766279581235167,nan,nan,nan,nan,nan,9.118339538574219,10.318339538574218,0.0055201053619384766,nan,nan,nan,nan,0.7312971718749103,-0.275718384369043,-0.059522145639973816,0.25089520460212966,nan,nan,nan,nan
19.213021516799927,0.21077125,-0.2913275,-2.2050185,2.005838119436939,nan,nan,nan,nan,nan,9.212242126464844,10.412242126464843,0.005616664886474609,nan,nan,nan,nan,0.7312819524128932,-0.2650231818376372,0.0026229527916651774,0.2471178577069439,nan,nan,nan,nan
19.312076568603516,0.17399831,-0.30911538,-2.1944878,2.0271082985764965,nan,nan,nan,nan,nan,9.311362504959106,10.511362504959106,0.0058939456939697266,nan,nan,nan,nan,0.7311115222628435,-0.25918986323743565,0.04094608929058227,0.252785120009507,nan,nan,nan,nan
19.425463914871216,0.11963739,-0.3168488,-2.1828027,2.0573022205842486,nan,nan,nan,nan,nan,9.4247567653656,10.6247567653656,0.00833439826965332,nan,nan,nan,nan,0.7306743534232448,-0.19848037837253066,0.11890775623076805,0.24923977899263403,nan,nan,nan,nan
19.523041009902954,0.073613785,-0.30406234,-2.1715553,2.0819283948753253,nan,nan,nan,nan,nan,9.522275924682617,10.722275924682616,0.006151676177978516,nan,nan,nan,nan,0.73029491059354,-0.10891191358912437,0.18639338383160775,0.2400975497959748,nan,nan,nan,nan
19.616121530532837,0.03454258,-0.2752903,-2.1601126,2.1055001574996615,nan,nan,nan,nan,nan,9.615346670150757,10.815346670150756,0.006089925765991211,nan,nan,nan,nan,0.7299986043356493,-0.07383779866964721,0.21806879613728508,0.24646630803536573,nan,nan,nan,nan
19.713390827178955,0.0032332283,-0.2392221,-2.1468804,2.1245562568001417,nan,nan,nan,nan,nan,9.712610721588135,10.912610721588134,0.005993843078613281,nan,nan,nan,nan,0.7298052042243225,0.0015785363466663959,0.24627317977359126,0.24206435629785655,nan,nan,nan,nan
19.82982110977173,-0.02897443,-0.17651612,-2.1247435,2.1486928844449054,nan,nan,nan,nan,nan,9.829038858413696,11.029038858413696,0.005510807037353516,nan,nan,nan,nan,0.7298297836154808,0.08324983199619884,0.25839270494168703,0.23743662937261006,nan,nan,nan,nan
19.922606229782104,-0.04140443,-0.13328701,-2.1096957,2.162472404865002,nan,nan,nan,nan,nan,9.921865463256836,11.121865463256835,0.006391763687133789,nan,nan,nan,nan,0.7299073616350633,0.13363380348385528,0.25969062975524665,0.24286152485975834,nan,nan,nan,nan
20.015591144561768,-0.05262312,-0.05992664,-2.0839965,2.1828297325872192,nan,nan,nan,nan,nan,10.014816045761108,11.214816045761108,0.005341529846191406,nan,nan,nan,nan,0.7301418529315354,0.19338335567070808,0.22609442823388712,0.23777490227457232,nan,nan,nan,nan
20.128194093704224,-0.04526771,0.012184992,-2.0561697,2.2040201778563233,nan,nan,nan,nan,nan,10.127426385879517,11.327426385879516,0.006280183792114258,nan,nan,nan,nan,0.7304428617535008,0.2372918669367014,0.16748839677975239,0.2358025384318743,nan,nan,nan,nan
20.228189945220947,-0.02746894,0.057527553,-2.0385714,2.219289272026435,nan,nan,nan,nan,nan,10.22771954536438,11.42771954536438,0.005894184112548828,nan,nan,nan,nan,0.7305033189751643,0.2585294629356245,0.13662617106043232,0.2419621162859887,nan,nan,nan,nan
20.31811022758484,-0.00058646523,0.10149799,-2.019471,2.2363850546669166,nan,nan,nan,nan,nan,10.31738829612732,11.517388296127319,0.0056722164154052734,nan,nan,nan,nan,0.7305764864463241,0.2603043025146136,0.058290411183371485,0.23964403149153268,nan,nan,nan,nan
20.427916526794434,0.04130308,0.14239934,-1.9965159,2.2561272090298417,nan,nan,nan,nan,nan,10.427225351333618,11.627225351333617,0.005789041519165039,nan,nan,nan,nan,0.7306839737635662,0.24888851758011493,-0.018375339603995088,0.24395041991041355,nan,nan,nan,nan
20.51787567138672,0.09525342,0.17260513,-1.9615982,2.2779476124700486,nan,nan,nan,nan,nan,10.51714563369751,11.717145633697509,0.005588531494140625,nan,nan,nan,nan,0.7310948175007865,0.21447889784607174,-0.08860484761546412,0.24268041546132807,nan,nan,nan,nan
20.61290144920349,0.13765913,0.18232715,-1.9387084,2.293144456846424,nan,nan,nan,nan,nan,10.612158298492432,11.812158298492431,0.00624394416809082,nan,nan,nan,nan,0.7314005469151335,0.18670513602201638,-0.13711846561949706,0.24828013208013738,nan,nan,nan,nan
20.722614526748657,0.19128041,0.18315783,-1.9117298,2.3127919592851605,nan,nan,nan,nan,nan,10.721890449523926,11.921890449523925,0.006439924240112305,nan,nan,nan,nan,0.7317885492873752,0.10563172869000441,-0.1989047936165707,0.2464664913163766,nan,nan,nan,nan
20.818791389465332,0.24871758,0.16683951,-1.884312,2.3355205706266515,nan,nan,nan,nan,nan,10.81810975074768,12.01810975074768,0.006056070327758789,nan,nan,nan,nan,0.7319504270124807,0.031613363026947595,-0.22456049879573423,0.2444075821428982,nan,nan,nan,nan
20.913845777511597,0.28170532,0.14674774,-1.8672583,2.351300285826916,nan,nan,nan,nan,nan,10.913070678710938,12.113070678710937,0.006006717681884766,nan,nan,nan,nan,0.7319148735276968,-0.011789253433857375,-0.24166004813541248,0.25099978239129767,nan,nan,nan,nan
21.024909496307373,0.3175282,0.11380713,-1.8529651,2.371135478370203,nan,nan,nan,nan,nan,11.024141550064087,12.224141550064086,0.0073206424713134766,nan,nan,nan,nan,0.7316977599005313,-0.07613277062731773,-0.24322240322954478,0.2505347388032398,nan,nan,nan,nan
21.117558479309082,0.34380212,0.058948047,-1.8340849,2.397081734049875,nan,nan,nan,nan,nan,11.116795301437378,12.316795301437377,0.005481719970703125,nan,nan,nan,nan,0.731445929978612,-0.14353255799157746,-0.21048888278445357,0.24135900484083492,nan,nan,nan,nan
21.216875076293945,0.35081044,0.015920725,-1.8216666,2.415013254417886,nan,nan,nan,nan,nan,11.216101169586182,12.416101169586181,0.005755901336669922,nan,nan,nan,nan,0.7312099403646806,-0.18713863627766827,-0.19476732984324677,0.24509329350657524,nan,nan,nan,nan
21.31488800048828,0.3502893,-0.03865896,-1.8077042,2.4370233049237795,nan,nan,nan,nan,nan,11.314148187637329,12.514148187637328,0.005387306213378906,nan,nan,nan,nan,0.731020759587049,-0.23464206459883472,-0.13515961941667698,0.23676004730835254,nan,nan,nan,nan
21.413239002227783,0.3460482,-0.0962117,-1.799168,2.4606814310966327,nan,nan,nan,nan,nan,11.412467241287231,12.61246724128723,0.0060024261474609375,nan,nan,nan,nan,0.7306101165608218,-0.25995662265758945,-0.10559607875133477,0.23865104820593205,nan,nan,nan,nan
21.529309511184692,0.32507604,-0.15475336,-1.7873566,2.489242615942059,nan,nan,nan,nan,nan,11.528573989868164,12.728573989868163,0.005644321441650391,nan,nan,nan,nan,0.7302501333630327,-0.26581107278857513,-0.04433926612337642,0.23504034994453077,nan,nan,nan,nan
21.62666368484497,0.28891203,-0.20741941,-1.7739793,2.519445910667294,nan,nan,nan,nan,nan,11.625917434692383,12.825917434692382,0.009695291519165039,nan,nan,nan,nan,0.7300484950847788,-0.2354721323778725,0.0339775751141327,0.2258139375339919,nan,nan,nan,nan
21.72457218170166,0.25968763,-0.23258331,-1.7658211,2.538436371634041,nan,nan,nan,nan,nan,11.723861455917358,12.923861455917358,0.008621692657470703,nan,nan,nan,nan,0.7298807970141631,-0.22198699823209064,0.07994080556306109,0.23075235071476072,nan,nan,nan,nan
21.822930097579956,0.20849732,-0.25217113,-1.7525766,2.5649805758221556,nan,nan,nan,nan,nan,11.822182416915894,13.022182416915893,0.00630950927734375,nan,nan,nan,nan,0.7296983382462229,-0.1408128914884995,0.15206933755790145,0.22257464344930358,nan,nan,nan,nan
21.918425798416138,0.16629128,-0.2520456,-1.7409433,2.5832217005233424,nan,nan,nan,nan,nan,11.917683362960815,13.117683362960815,0.005552053451538086,nan,nan,nan,nan,0.7295544324174664,-0.08465197303404882,0.19666293292881945,0.2248354581009826,nan,nan,nan,nan
22.0156466960907,0.12886997,-0.24123394,-1.7280331,2.5987235738917267,nan,nan,nan,nan,nan,12.01489520072937,13.21489520072937,0.005666494369506836,nan,nan,nan,nan,0.7295543183763411,-0.03808922248595784,0.22972249885222648,0.22984828321841422,nan,nan,nan,nan
22.12620449066162,0.07455794,-0.21151967,-1.7073553,2.6194511113697794,nan,nan,nan,nan,nan,12.125452518463135,13.325452518463134,0.006691455841064453,nan,nan,nan,nan,0.7297516517293962,0.03273614641194483,0.2506372912955201,0.23035064580820133,nan,nan,nan,nan
22.222453594207764,0.030792098,-0.16700023,-1.6841322,2.6395699769621497,nan,nan,nan,nan,nan,12.22176718711853,13.42176718711853,0.006924867630004883,nan,nan,nan,nan,0.7301826095282111,0.11161322763831101,0.23007285987338397,0.22324894413182717,nan,nan,nan,nan
22.32314395904541,0.0068494733,-0.12817933,-1.6667124,2.6542680330100836,nan,nan,nan,nan,nan,12.322393417358398,13.522393417358398,0.006204366683959961,nan,nan,nan,nan,0.7303933650738454,0.14119580495533657,0.22002067702112862,0.2295668698102113,nan,nan,nan,nan
22.41762924194336,-0.017739508,-0.05928271,-1.6407539,2.6760091581174263,nan,nan,nan,nan,nan,12.416856527328491,13.61685652732849,0.005878925323486328,nan,nan,nan,nan,0.7308716726145699,0.1909099944637225,0.13994397668641326,0.22016875965046812,nan,nan,nan,nan
22.51784062385559,-0.025504045,-0.010986308,-1.6247683,2.6893481998418283,nan,nan,nan,nan,nan,12.517071008682251,13.71707100868225,0.005387306213378906,nan,nan,nan,nan,0.7312108281798151,0.20744062361908278,0.1040950455705127,0.22597039288004994,nan,nan,nan,nan
22.61428475379944,-0.027972857,0.049821377,-1.6046146,2.706512243148164,nan,nan,nan,nan,nan,12.613603353500366,13.813603353500366,0.006023406982421875,nan,nan,nan,nan,0.73163186387262,0.2123204931365358,0.05327328273200077,0.22656315140061334,nan,nan,nan,nan
22.728012323379517,-0.018261727,0.1369387,-1.5766904,2.731882586120968,nan,nan,nan,nan,nan,12.727235555648804,13.927235555648803,0.007024526596069336,nan,nan,nan,nan,0.73229854286563,0.19937403735501696,-0.023585611737542936,0.2245713047760966,nan,nan,nan,nan
22.824771642684937,0.00234272,0.20583715,-1.5551639,2.7539450359369475,nan,nan,nan,nan,nan,12.824002981185913,14.024002981185912,0.00629425048828125,nan,nan,nan,nan,0.7327455838177654,0.16259769312930228,-0.09090777776308992,0.22038693299738912,nan,nan,nan,nan
22.918139934539795,0.019215222,0.24085909,-1.5437738,2.7665373431363562,nan,nan,nan,nan,nan,12.917364597320557,14.117364597320556,0.0057904720306396484,nan,nan,nan,nan,0.7330878990805965,0.13651904717627317,-0.13108893154244458,0.22427173139206108,nan,nan,nan,nan
23.016569137573242,0.06112098,0.2977454,-1.5249975,2.7900640439277358,nan,nan,nan,nan,nan,13.015863418579102,14.2158634185791,0.005640268325805664,nan,nan,nan,nan,0.7334300730593523,0.08907180275733341,-0.17353130807368478,0.22143234059683084,nan,nan,nan,nan
23.116469621658325,0.090515725,0.3302728,-1.5117149,2.805621816005537,nan,nan,nan,nan,nan,13.115691423416138,14.315691423416137,0.00575566291809082,nan,nan,nan,nan,0.7338419233705844,0.059402452905062,-0.20015956847480043,0.22571181297434448,nan,nan,nan,nan
23.219059705734253,0.13572375,0.3706978,-1.48951,2.8292456620584145,nan,nan,nan,nan,nan,13.218285322189331,14.41828532218933,0.005442142486572266,nan,nan,nan,nan,0.734395745971536,0.007985331379762031,-0.20284712272902564,0.22139488822938064,nan,nan,nan,nan
23.322270393371582,0.17820364,0.39906782,-1.4681686,2.8518924705488757,nan,nan,nan,nan,nan,13.321829795837402,14.521829795837402,0.007431983947753906,nan,nan,nan,nan,0.7350942687025772,-0.015045112990298606,-0.1949628777538982,0.22225592143897727,nan,nan,nan,nan
23.424792766571045,0.2143684,0.41687024,-1.4503365,2.8732570429976514,nan,nan,nan,nan,nan,13.424076557159424,14.624076557159423,0.0073719024658203125,nan,nan,nan,nan,0.7357268860205597,-0.032092375507092964,-0.1742918428953641,0.2217647623374433,nan,nan,nan,nan
23.518964290618896,0.23361628,0.42183703,-1.4387404,2.88633684491361,nan,nan,nan,nan,nan,13.518222093582153,14.718222093582153,0.005578279495239258,nan,nan,nan,nan,0.7363160511429754,-0.037346891532387134,-0.14583277762262634,0.22118947557316443,nan,nan,nan,nan
23.61580181121826,0.2598943,0.42479074,-1.4206346,2.9116513340714762,nan,nan,nan,nan,nan,13.615029096603394,14.815029096603393,0.0055239200592041016,nan,nan,nan,nan,0.7368264985603089,-0.04628901267405309,-0.08384525020400097,0.2148897033316283,nan,nan,nan,nan
23.728360176086426,0.27079827,0.42205313,-1.4057715,2.935936407350987,nan,nan,nan,nan,nan,13.72762417793274,14.927624177932739,0.00717616081237793,nan,nan,nan,nan,0.7372744290569135,-0.03233197853798315,-0.024804269210657995,0.21203545310252256,nan,nan,nan,nan
23.827003002166748,0.27041346,0.4174792,-1.3966248,2.9517438459351775,nan,nan,nan,nan,nan,13.82628607749939,15.026286077499389,0.00780034065246582,nan,nan,nan,nan,0.737717279144475,-0.009524092032855145,0.011273202838268005,0.21304449586446073,nan,nan,nan,nan
23.92282271385193,0.2604097,0.40747702,-1.3872633,2.9782099522056904,nan,nan,nan,nan,nan,13.922242641448975,15.122242641448974,0.006811857223510742,nan,nan,nan,nan,0.7376494666777638,0.004642361232014473,0.07594653137887973,0.20651304553613598,nan,nan,nan,nan
24.02129888534546,0.24115203,0.39940056,-1.3819579,2.9958461547257444,nan,nan,nan,nan,nan,14.020571231842041,15.22057123184204,0.0054912567138671875,nan,nan,nan,nan,0.7377592339449222,0.02268786241894176,0.11499625390063747,0.2059076352694198,nan,nan,nan,nan
24.12995433807373,0.20395234,0.38899416,-1.3762108,3.020138836742097,nan,nan,nan,nan,nan,14.129189729690552,15.329189729690551,0.0070953369140625,nan,nan,nan,nan,0.7375454673390843,0.02441883434210384,0.16599383754372743,0.2008755327589241,nan,nan,nan,nan
24.21923518180847,0.16797365,0.37779552,-1.3730464,3.038868230494365,nan,nan,nan,nan,nan,14.218464612960815,15.418464612960815,0.0056459903717041016,nan,nan,nan,nan,0.7376839783185454,0.03454113355006805,0.18739306182027435,0.20233282414633608,nan,nan,nan,nan
24.326051950454712,0.11125366,0.35334897,-1.3708786,3.064106006789846,nan,nan,nan,nan,nan,14.325653076171875,15.525653076171874,0.008808374404907227,nan,nan,nan,nan,0.7373674494221492,0.007776632053195258,0.20578290758573436,0.1979875920048953,nan,nan,nan,nan
24.427220344543457,0.06740135,0.33423117,-1.3714836,3.0806831067435105,nan,nan,nan,nan,nan,14.426464080810547,15.626464080810546,0.006917238235473633,nan,nan,nan,nan,0.7373874363957906,-0.008749309145340903,0.2206893519425914,0.19831346761521193,nan,nan,nan,nan
24.526659965515137,0.007943824,0.29692346,-1.3709797,3.1054549762802632,nan,nan,nan,nan,nan,14.525921821594238,15.725921821594238,0.007674217224121094,nan,nan,nan,nan,0.7371177998514301,-0.04905035827880297,0.20131711270596012,0.19627097716002145,nan,nan,nan,nan
24.62984609603882,-0.028248705,0.266599,-1.3701708,3.1217093320400613,nan,nan,nan,nan,nan,14.629087924957275,15.829087924957275,0.0064733028411865234,nan,nan,nan,nan,0.7372359406900083,-0.07630845005789981,0.19080652329606637,0.19657755646277017,nan,nan,nan,nan
24.72844433784485,-0.07327642,0.21490704,-1.3713188,3.146053657202227,nan,nan,nan,nan,nan,14.727758646011353,15.927758646011352,0.007900476455688477,nan,nan,nan,nan,0.7370311568652029,-0.11283997755432083,0.13995581891935274,0.19525484428794776,nan,nan,nan,nan
24.813032388687134,-0.09572401,0.17740025,-1.3740467,3.16264494014224,nan,nan,nan,nan,nan,14.812303304672241,16.01230330467224,0.006758213043212891,nan,nan,nan,nan,0.7368972076703143,-0.134101492840215,0.10260967911747407,0.19461020714428615,nan,nan,nan,nan
24.91604447364807,-0.11375157,0.14819148,-1.3809322,3.179405909147783,nan,nan,nan,nan,nan,14.915282726287842,16.11528272628784,0.005846261978149414,nan,nan,nan,nan,0.7367394983877015,-0.1500437389216427,0.06567475033052143,0.19308748819971508,nan,nan,nan,nan
25.019737005233765,-0.12696896,0.10506143,-1.3947397,3.2062977104512553,nan,nan,nan,nan,nan,15.019017219543457,16.219017219543456,0.006027936935424805,nan,nan,nan,nan,0.7360478182979397,-0.14025787052679495,0.0007358148221823605,0.19053768760500336,nan,nan,nan,nan
25.124353885650635,-0.12415962,0.08064481,-1.4037449,3.223277652845168,nan,nan,nan,nan,nan,15.123696327209473,16.323696327209472,0.006922721862792969,nan,nan,nan,nan,0.7358651322556655,-0.1421824104751821,-0.030096337078636983,0.18931390515506222,nan,nan,nan,nan
25.22300672531128,-0.10560169,0.048136156,-1.4171262,3.2493329542918894,nan,nan,nan,nan,nan,15.222339868545532,16.42233986854553,0.007056236267089844,nan,nan,nan,nan,0.7351788040793602,-0.11396804652205725,-0.0972690329175902,0.1850230821265548,nan,nan,nan,nan
25.316713571548462,-0.08449928,0.027562462,-1.4271513,3.2685696258846804,nan,nan,nan,nan,nan,15.31593632698059,16.51593632698059,0.006108522415161133,nan,nan,nan,nan,0.7348899317512716,-0.0985989246435731,-0.1365775064002284,0.183025494206586,nan,nan,nan,nan
25.427833795547485,-0.054379936,0.012826827,-1.4390153,3.2880007717642066,nan,nan,nan,nan,nan,15.427176713943481,16.62717671394348,0.008416175842285156,nan,nan,nan,nan,0.7348138432462877,-0.09453183213672899,-0.16958175920335272,0.1813952190773286,nan,nan,nan,nan
25.525468111038208,-0.0058604903,0.0025195854,-1.4538184,3.3144746292788474,nan,nan,nan,nan,nan,15.524790287017822,16.72479028701782,0.006185054779052734,nan,nan,nan,nan,0.7341794848097628,-0.04653969172619754,-0.20043358214169107,0.17623699375814655,nan,nan,nan,nan
25.618179082870483,0.028045222,0.0021970943,-1.4625913,3.3304338608948836,nan,nan,nan,nan,nan,15.617459297180176,16.817459297180175,0.005715370178222656,nan,nan,nan,nan,0.7342530118330667,-0.03638636245074588,-0.21926950807942627,0.1759038799591342,nan,nan,nan,nan
25.72078013420105,0.088634685,0.009536222,-1.4786804,3.357229234918397,nan,nan,nan,nan,nan,15.720004081726074,16.920004081726074,0.00535273551940918,nan,nan,nan,nan,0.7338790848358168,0.011338513557549812,-0.22169639904072627,0.1723493872431816,nan,nan,nan,nan
25.8192880153656,0.1276195,0.01809208,-1.4916699,3.374848458520696,nan,nan,nan,nan,nan,15.818509101867676,17.018509101867675,0.00554656982421875,nan,nan,nan,nan,0.733851784944862,0.03248799398669803,-0.2290664153948231,0.17210733559972,nan,nan,nan,nan
25.929561138153076,0.17484358,0.03444248,-1.5086081,3.3976029835195494,nan,nan,nan,nan,nan,15.92883586883545,17.12883586883545,0.007848024368286133,nan,nan,nan,nan,0.7336017465902975,0.06609778733531278,-0.20670188371984255,0.17115692523749662,nan,nan,nan,nan
26.030499696731567,0.21194182,0.05926904,-1.5324043,3.420545931050234,nan,nan,nan,nan,nan,16.029768705368042,17.22976870536804,0.008030891418457031,nan,nan,nan,nan,0.7331130695397665,0.09591359633295217,-0.15384144877976794,0.17064984653155135,nan,nan,nan,nan
26.115713357925415,0.22915098,0.083318815,-1.5497295,3.4370652866719356,nan,nan,nan,nan,nan,16.114960193634033,17.314960193634032,0.006951570510864258,nan,nan,nan,nan,0.7327406180675262,0.11609470078086638,-0.11273085639868895,0.17095368899742536,nan,nan,nan,nan
26.21636152267456,0.23853551,0.11396897,-1.5658045,3.454955988190137,nan,nan,nan,nan,nan,16.215609073638916,17.415609073638915,0.005967855453491211,nan,nan,nan,nan,0.7324572296197878,0.14070108560232797,-0.06228957102812767,0.16943638883253187,nan,nan,nan,nan
26.33053159713745,0.23745568,0.15346631,-1.5799396,3.4760597893210026,nan,nan,nan,nan,nan,16.32978844642639,17.52978844642639,0.0074765682220458984,nan,nan,nan,nan,0.7325632258270637,0.16660522694554544,-0.01088418880965893,0.16895181233607268,nan,nan,nan,nan
26.42888069152832,0.22745146,0.18081862,-1.5913839,3.489431937824082,nan,nan,nan,nan,nan,16.4281108379364,17.6281108379364,0.008209228515625,nan,nan,nan,nan,0.7328069058676412,0.19040805680375134,0.011634619415701934,0.17014971922469008,nan,nan,nan,nan
26.52334213256836,0.19808689,0.22070809,-1.6098787,3.5115800484363353,nan,nan,nan,nan,nan,16.522610664367676,17.722610664367675,0.005709171295166016,nan,nan,nan,nan,0.7325579358551306,0.18806483075183456,0.07507365908759026,0.16746506326908575,nan,nan,nan,nan
26.620370388031006,0.17136472,0.243018,-1.625598,3.526392727574338,nan,nan,nan,nan,nan,16.619617462158203,17.819617462158202,0.005857706069946289,nan,nan,nan,nan,0.7326945056459738,0.1892438981646584,0.11313490914300986,0.16540348051654138,nan,nan,nan,nan
26.71481418609619,0.12797469,0.26649567,-1.6522272,3.547086537729677,nan,nan,nan,nan,nan,16.714060306549072,17.91406030654907,0.011387348175048828,nan,nan,nan,nan,0.732137270820439,0.15670578803275226,0.15542263972221007,0.16352141963167796,nan,nan,nan,nan
26.81554412841797,0.09608186,0.27656347,-1.6673614,3.561871763156713,nan,nan,nan,nan,nan,16.814826488494873,18.014826488494872,0.006163120269775391,nan,nan,nan,nan,0.7321554319216591,0.14090341521723687,0.18126307784796222,0.16225323206094086,nan,nan,nan,nan
26.92648196220398,0.041422084,0.28230917,-1.6886563,3.582364876590517,nan,nan,nan,nan,nan,16.925791025161743,18.125791025161742,0.007196903228759766,nan,nan,nan,nan,0.7320372288820552,0.09525133108052765,0.205000030362597,0.16119075969385363,nan,nan,nan,nan
27.022616863250732,-0.018793732,0.27409264,-1.7112893,3.604165501647058,nan,nan,nan,nan,nan,17.021891593933105,18.221891593933105,0.005895853042602539,nan,nan,nan,nan,0.7317602301171436,0.033940460375364724,0.20997985603301023,0.16056741449635867,nan,nan,nan,nan
27.126225233078003,-0.055089872,0.26272127,-1.7298956,3.6185939020540543,nan,nan,nan,nan,nan,17.125494718551636,18.325494718551635,0.0062596797943115234,nan,nan,nan,nan,0.7318972252844846,0.0023740262439684375,0.22161962034962437,0.16192262479566832,nan,nan,nan,nan
27.217445373535156,-0.09418628,0.24267857,-1.7584392,3.6370994200985973,nan,nan,nan,nan,nan,17.2167546749115,18.4167546749115,0.005834341049194336,nan,nan,nan,nan,0.7312364121764764,-0.050515187384041024,0.1926123383644341,0.16305261076189803,nan,nan,nan,nan
27.315837621688843,-0.11392777,0.22302037,-1.7755897,3.6498071366237026,nan,nan,nan,nan,nan,17.31506848335266,18.51506848335266,0.007322549819946289,nan,nan,nan,nan,0.7311277046401423,-0.08418726710807303,0.180918306353225,0.1644125070208047,nan,nan,nan,nan
27.413808345794678,-0.13779454,0.1838502,-1.8021928,3.6709111170046027,nan,nan,nan,nan,nan,17.413037061691284,18.613037061691283,0.008363008499145508,nan,nan,nan,nan,0.7308586222558983,-0.12936680900878444,0.13935591063093897,0.16751851381215954,nan,nan,nan,nan
27.51283836364746,-0.14828283,0.15206304,-1.8215086,3.684796246335156,nan,nan,nan,nan,nan,17.512107372283936,18.712107372283935,0.007997274398803711,nan,nan,nan,nan,0.7309070295134843,-0.1626947875800881,0.1160881088233056,0.168640713593549,nan,nan,nan,nan
27.629762411117554,-0.15512466,0.09777366,-1.8534588,3.7054170711317593,nan,nan,nan,nan,nan,17.629043579101562,18.829043579101562,0.0077321529388427734,nan,nan,nan,nan,0.7305248113943097,-0.2003398975949628,0.0673907877838033,0.16901583513154936,nan,nan,nan,nan
27.72916078567505,-0.14730158,0.048625946,-1.8809072,3.724949943119076,nan,nan,nan,nan,nan,17.72838854789734,18.928388547897338,0.007234096527099609,nan,nan,nan,nan,0.7301323212130091,-0.2132915178801906,0.008992674553358842,0.16868517566823635,nan,nan,nan,nan
27.828559637069702,-0.12431711,0.007010317,-1.9044291,3.744815001375182,nan,nan,nan,nan,nan,17.827823400497437,19.027823400497436,0.009788990020751953,nan,nan,nan,nan,0.7301272239357911,-0.21519962139972917,-0.03601232394978107,0.16783365389795465,nan,nan,nan,nan
27.93016529083252,-0.1009158,-0.014531269,-1.9229507,3.7590840524261866,nan,nan,nan,nan,nan,17.929386615753174,19.129386615753173,0.007841825485229492,nan,nan,nan,nan,0.7301857469872065,-0.21126989775512514,-0.0781122602055252,0.1662688956237438,nan,nan,nan,nan
28.00754165649414,-0.07545167,-0.03169997,-1.9407476,3.7719388605681328,nan,nan,nan,nan,nan,18.00684666633606,19.20684666633606,0.00682377815246582,nan,nan,nan,nan,0.7300850885397252,-0.19123731895434207,-0.11551856414574647,0.16464298727164417,nan,nan,nan,nan
28.112367391586304,-0.023178373,-0.054025207,-1.9726671,3.7951299806727867,nan,nan,nan,nan,nan,18.111701250076294,19.311701250076293,0.006483554840087891,nan,nan,nan,nan,0.7296939423360598,-0.14894373622064,-0.1579757610648935,0.16399720215995114,nan,nan,nan,nan
28.228488445281982,0.013534018,-0.061351012,-1.991489,3.811560661469925,nan,nan,nan,nan,nan,18.227750062942505,19.427750062942504,0.0062808990478515625,nan,nan,nan,nan,0.7298599022508916,-0.12947185010692147,-0.19012410082489772,0.1638354614234848,nan,nan,nan,nan
28.325085163116455,0.061476283,-0.052699648,-2.0174513,3.833420923971299,nan,nan,nan,nan,nan,18.324496746063232,19.52449674606323,0.005608320236206055,nan,nan,nan,nan,0.7296158992789707,-0.06106633740007677,-0.20597162306268502,0.162066935700691,nan,nan,nan,nan
28.42292857170105,0.09207253,-0.03585024,-2.0413394,3.849672804174867,nan,nan,nan,nan,nan,18.42216467857361,19.622164678573608,0.005673408508300781,nan,nan,nan,nan,0.7294937133164602,-0.017599441603399525,-0.21980845958567222,0.16168671819810587,nan,nan,nan,nan
28.521329402923584,0.13083531,-0.002975319,-2.0795143,3.8741959453137405,nan,nan,nan,nan,nan,18.52057695388794,19.72057695388794,0.005736351013183594,nan,nan,nan,nan,0.7290414963875439,0.0412793857574913,-0.2134222265315267,0.16096421958750728,nan,nan,nan,nan
28.62103271484375,0.15052427,0.021562662,-2.105134,3.890224256395277,nan,nan,nan,nan,nan,18.62028408050537,19.82028408050537,0.006441831588745117,nan,nan,nan,nan,0.7288270548508549,0.07723859928443197,-0.21336125983461912,0.1611280806423945,nan,nan,nan,nan
28.71805167198181,0.16621935,0.056979008,-2.1389608,3.911855568635552,nan,nan,nan,nan,nan,18.71730375289917,19.91730375289917,0.0058672428131103516,nan,nan,nan,nan,0.7282093554737036,0.12664794864678333,-0.16467435013050974,0.16070172481393566,nan,nan,nan,nan
28.81754779815674,0.16526322,0.08931655,-2.1630027,3.928577611382248,nan,nan,nan,nan,nan,18.816818952560425,20.016818952560424,0.007635831832885742,nan,nan,nan,nan,0.7282550816151914,0.15632603774418066,-0.1496875957763604,0.16223428049527028,nan,nan,nan,nan
28.91873550415039,0.14852716,0.13097966,-2.2001305,3.950312469032883,nan,nan,nan,nan,nan,18.917973518371582,20.11797351837158,0.005883693695068359,nan,nan,nan,nan,0.7277602896416532,0.1890384201916987,-0.07378282921204238,0.16093337221533055,nan,nan,nan,nan
29.01619601249695,0.12895274,0.1554813,-2.2236092,3.9628648897482988,nan,nan,nan,nan,nan,19.015453100204468,20.215453100204467,0.00798654556274414,nan,nan,nan,nan,0.7275689221262354,0.20936122569993157,-0.03467601386677688,0.1603945099637852,nan,nan,nan,nan
29.119723558425903,0.08092777,0.19533712,-2.2627506,3.9850579277363583,nan,nan,nan,nan,nan,19.11895203590393,20.31895203590393,0.006005048751831055,nan,nan,nan,nan,0.7272128622122964,0.2196137990222304,0.025368396542498426,0.1600490783335196,nan,nan,nan,nan
29.21947979927063,0.043620553,0.215694,-2.2852712,4.000522194352092,nan,nan,nan,nan,nan,19.218724727630615,20.418724727630615,0.005780696868896484,nan,nan,nan,nan,0.7274257633322188,0.23314703271020035,0.05755158744415994,0.15849085781026184,nan,nan,nan,nan
29.316962480545044,-0.00288026,0.22947721,-2.3116293,4.017641090619682,nan,nan,nan,nan,nan,19.316200017929077,20.516200017929076,0.0069735050201416016,nan,nan,nan,nan,0.7273585134787741,0.20414265313232957,0.11501307329243142,0.15638708866483558,nan,nan,nan,nan
29.414047718048096,-0.0487956,0.2340871,-2.3350956,4.033607507534855,nan,nan,nan,nan,nan,19.413288593292236,20.613288593292236,0.00731205940246582,nan,nan,nan,nan,0.7275939482556054,0.19338727665304123,0.149734810444668,0.15486150918818778,nan,nan,nan,nan
29.529966592788696,-0.11574218,0.22261272,-2.3683045,4.057358657257417,nan,nan,nan,nan,nan,19.529191493988037,20.729191493988036,0.009580612182617188,nan,nan,nan,nan,0.727460869381987,0.13068187400735792,0.19291616173853468,0.15271858771005722,nan,nan,nan,nan
29.61489701271057,-0.15457092,0.20566832,-2.388263,4.072331437611753,nan,nan,nan,nan,nan,19.61412739753723,20.81412739753723,0.007284879684448242,nan,nan,nan,nan,0.7273767317465029,0.08879251079042365,0.21142809646612962,0.15167881767854963,nan,nan,nan,nan
29.715044498443604,-0.19659433,0.18199262,-2.4112535,4.090194075903039,nan,nan,nan,nan,nan,19.71429705619812,20.91429705619812,0.006667613983154297,nan,nan,nan,nan,0.7273312355198771,0.04919889117746293,0.21654933332131593,0.15121916901039587,nan,nan,nan,nan
29.814802646636963,-0.22758192,0.15930216,-2.4284399,4.104716727900819,nan,nan,nan,nan,nan,19.81403136253357,21.01403136253357,0.0084686279296875,nan,nan,nan,nan,0.7274362841543098,0.03347252251299663,0.2225375778387563,0.1515540469978641,nan,nan,nan,nan
29.914019346237183,-0.26368278,0.115642,-2.45362,4.125982672512407,nan,nan,nan,nan,nan,19.913519382476807,21.113519382476806,0.007772207260131836,nan,nan,nan,nan,0.727294025815021,-0.019439155114613294,0.1863240858641632,0.1529374229566028,nan,nan,nan,nan
30.01453185081482,-0.27931517,0.08137984,-2.4693565,4.139828476681759,nan,nan,nan,nan,nan,20.013798713684082,21.21379871368408,0.007142543792724609,nan,nan,nan,nan,0.7272439383465803,-0.03922323046499751,0.17121402135673963,0.15567611322551944,nan,nan,nan,nan
30.113652229309082,-0.2854445,0.027600078,-2.4867754,4.160492696721441,nan,nan,nan,nan,nan,20.112915515899658,21.312915515899657,0.0071637630462646484,nan,nan,nan,nan,0.7271168663069071,-0.0919953279678007,0.1114139909714352,0.15736506653527987,nan,nan,nan,nan
30.228411436080933,-0.2673975,-0.0176611,-2.493331,4.179442157919064,nan,nan,nan,nan,nan,20.22780132293701,21.42780132293701,0.0057256221771240234,nan,nan,nan,nan,0.7273670039167708,-0.137773231449216,0.04100695079042023,0.15870298772296917,nan,nan,nan,nan
30.329136610031128,-0.23029754,-0.05717939,-2.4991913,4.19791611417354,nan,nan,nan,nan,nan,20.328481912612915,21.528481912612914,0.006194591522216797,nan,nan,nan,nan,0.7275659514581472,-0.17233606615661512,-0.024488366481739427,0.15906207044255713,nan,nan,nan,nan
30.412233352661133,-0.19720861,-0.07928117,-2.5028346,4.209615466392105,nan,nan,nan,nan,nan,20.411563634872437,21.611563634872436,0.006157398223876953,nan,nan,nan,nan,0.7276028011954202,-0.19442756158345115,-0.07016898709922989,0.15967208175133807,nan,nan,nan,nan
30.51810646057129,-0.15543967,-0.10190685,-2.5069842,4.222483618513973,nan,nan,nan,nan,nan,20.517337560653687,21.717337560653686,0.007012367248535156,nan,nan,nan,nan,0.7275223083114851,-0.21837044951545162,-0.11953316583989379,0.1611046839023648,nan,nan,nan,nan
30.617685317993164,-0.08213575,-0.12937579,-2.5134351,4.242848281890874,nan,nan,nan,nan,nan,20.616973400115967,21.816973400115966,0.007239103317260742,nan,nan,nan,nan,0.7273893761918788,-0.23090045963980077,-0.1618630104236223,0.15911533806567052,nan,nan,nan,nan
30.713488578796387,-0.03147364,-0.14081426,-2.5181713,4.256241282164835,nan,nan,nan,nan,nan,20.7127947807312,21.9127947807312,0.0059015750885009766,nan,nan,nan,nan,0.7271104844671548,-0.2489939271486464,-0.1960375792852707,0.1615213030370223,nan,nan,nan,nan
30.81987428665161,0.04046332,-0.15602449,-2.527136,4.2766475610191765,nan,nan,nan,nan,nan,20.819100379943848,22.019100379943847,0.0060765743255615234,nan,nan,nan,nan,0.7267440789428264,-0.23026525907784096,-0.19010912199804816,0.1586392583336609,nan,nan,nan,nan
30.918152332305908,0.08587342,-0.16510339,-2.5330582,4.290581161948487,nan,nan,nan,nan,nan,20.91738200187683,22.11738200187683,0.010294675827026367,nan,nan,nan,nan,0.7263791049565967,-0.2393859739195006,-0.1914472328495077,0.16387970099889848,nan,nan,nan,nan
31.02228808403015,0.14424033,-0.17645268,-2.5412302,4.3119653509091584,nan,nan,nan,nan,nan,21.021519899368286,22.221519899368285,0.0059621334075927734,nan,nan,nan,nan,0.7261259264832234,-0.199288386794405,-0.1389761566513476,0.16571477650575392,nan,nan,nan,nan
31.125298500061035,0.17321181,-0.18263784,-2.5462837,4.3265469593167865,nan,nan,nan,nan,nan,21.12456727027893,22.32456727027893,0.005542278289794922,nan,nan,nan,nan,0.7259287302860108,-0.18846615467164074,-0.10592796859213585,0.17526251304672402,nan,nan,nan,nan
31.223578929901123,0.19886242,-0.18868184,-2.5562425,4.344284820760408,nan,nan,nan,nan,nan,21.222806692123413,22.422806692123412,0.0056705474853515625,nan,nan,nan,nan,0.7257824604588822,-0.14404936787661848,-0.04301461109393165,0.1821347667544275,nan,nan,nan,nan
31.324104070663452,0.21388371,-0.19435847,-2.5656528,4.365884851999372,nan,nan,nan,nan,nan,21.323327779769897,22.523327779769897,0.006036281585693359,nan,nan,nan,nan,0.7256517217194862,-0.046022137190875674,0.037250037675505505,0.1810810144065405,nan,nan,nan,nan
31.424001216888428,0.21155606,-0.19863403,-2.5680006,4.379666718579028,nan,nan,nan,nan,nan,21.423237562179565,22.623237562179565,0.005999088287353516,nan,nan,nan,nan,0.7256770229268563,-0.006284159056102167,0.09701559488576299,0.19048353822108618,nan,nan,nan,nan
31.52031373977661,0.18863325,-0.20763181,-2.5679183,4.399430018217288,nan,nan,nan,nan,nan,21.519587755203247,22.719587755203246,0.006487369537353516,nan,nan,nan,nan,0.7259754992123588,0.1032833356943278,0.14998947665094053,0.1842246626929942,nan,nan,nan,nan
31.61915135383606,0.16078004,-0.21615775,-2.568151,4.412198803111725,nan,nan,nan,nan,nan,21.618372917175293,22.818372917175292,0.007281780242919922,nan,nan,nan,nan,0.7259909998287888,0.15909139614405346,0.19515730874627282,0.18880632560902913,nan,nan,nan,nan
31.715248107910156,0.10681261,-0.22807373,-2.560277,4.429787119096774,nan,nan,nan,nan,nan,21.714564561843872,22.91456456184387,0.0070116519927978516,nan,nan,nan,nan,0.7262038293357165,0.24036142304914573,0.20330761870518207,0.17853003043952378,nan,nan,nan,nan
31.829405784606934,0.03357531,-0.23574308,-2.5567725,4.44791722104066,nan,nan,nan,nan,nan,21.828914403915405,23.028914403915405,0.00686335563659668,nan,nan,nan,nan,0.7262772826454601,0.3036279985712241,0.19947429585492463,0.17339067996277252,nan,nan,nan,nan
31.925950527191162,-0.027808562,-0.2368329,-2.5545971,4.461362063406161,nan,nan,nan,nan,nan,21.925170183181763,23.125170183181762,0.00529789924621582,nan,nan,nan,nan,0.7261634351602216,0.34673808172407916,0.19320579797064472,0.17388263834072945,nan,nan,nan,nan
32.026957511901855,-0.12689057,-0.22775823,-2.5570815,4.4823117172220694,nan,nan,nan,nan,nan,22.026304006576538,23.226304006576537,0.005710601806640625,nan,nan,nan,nan,0.7262652002790544,0.36457565991417845,0.12189305747483117,0.1635460657227621,nan,nan,nan,nan
32.10537600517273,-0.19788107,-0.21221468,-2.5651033,4.498313204708291,nan,nan,nan,nan,nan,22.104613542556763,23.304613542556762,0.01028895378112793,nan,nan,nan,nan,0.7259017037905153,0.36663626130709565,0.07440795287389966,0.1634338079400403,nan,nan,nan,nan
32.212995290756226,-0.25079662,-0.19015801,-2.5741215,4.511117729021627,nan,nan,nan,nan,nan,22.21235227584839,23.412352275848388,0.006097555160522461,nan,nan,nan,nan,0.7256488649913974,0.3794306445119878,0.03135322281794207,0.17648817874509057,nan,nan,nan,nan
32.31414318084717,-0.31864297,-0.14302233,-2.5821333,4.531136945693824,nan,nan,nan,nan,nan,22.313531637191772,23.51353163719177,0.007593631744384766,nan,nan,nan,nan,0.725525771688592,0.2914737658394891,-0.07207596602493369,0.1765702842612599,nan,nan,nan,nan
32.42845439910889,-0.36475864,-0.08648556,-2.58356,4.547632392742434,nan,nan,nan,nan,nan,22.427801370620728,23.627801370620727,0.0058858394622802734,nan,nan,nan,nan,0.7259377731463547,0.1830122334332176,-0.1620687960024231,0.18979422888165445,nan,nan,nan,nan
32.524728298187256,-0.38778713,-0.04037905,-2.581126,4.5581990775213965,nan,nan,nan,nan,nan,22.523979663848877,23.723979663848876,0.00615239143371582,nan,nan,nan,nan,0.7264880641541694,0.12149177763880342,-0.21649048573728652,0.21052465433085626,nan,nan,nan,nan
32.62735462188721,-0.401412,0.03476095,-2.5698736,4.57163868491555,nan,nan,nan,nan,nan,22.626617431640625,23.826617431640624,0.005492687225341797,nan,nan,nan,nan,0.7272315739232397,-0.0009306390493044741,-0.26736041820716816,0.212960862341058,nan,nan,nan,nan
32.72444295883179,-0.38731387,0.10296562,-2.5621967,4.584247770870749,nan,nan,nan,nan,nan,22.723700046539307,23.923700046539306,0.006006002426147461,nan,nan,nan,nan,0.7279144150909336,-0.11462094381305696,-0.28978513530351974,0.22017577266623276,nan,nan,nan,nan
