time,x,y,z,yaw,platform,trajectory,traj_double,traj_short,traj_spin,traj_time,ref_time,comptime,x_ref,y_ref,yaw_ref,z_ref,throttle_input,p_input,q_input,r_input,cbf_term_pitch_cbf,cbf_term_roll_cbf,cbf_term_thrust_cbf,cbf_term_yaw_cbf
10.007737636566162,0.06627795,0.103573926,-3.1652184,-0.0009881742006332354,SIM,HELIX,NormSpd,Not Short,NoSpin,9.5367431640625e-07,1.2000009536743164,0.007166624069213867,-0.5952690010295759,0.07519851337128117,0.0,-2.4800003814697265,0.7473278998660753,0.0,0.0,0.0,nan,nan,nan,nan
10.125771284103394,0.06092209,0.11663534,-3.1690264,-0.0011734462537358221,nan,nan,nan,nan,nan,0.1180107593536377,1.3180107593536377,0.0056400299072265625,-0.591256233178608,-0.10205913348369947,0.0,-2.527204303741455,0.6881502668514873,-0.44954171458639985,-0.2658393472908348,-0.018235647788852147,nan,nan,nan,nan
10.213732957839966,0.062420096,0.12863322,-3.1730425,-0.0012528262670532617,nan,nan,nan,nan,nan,0.20601272583007812,1.406012725830078,0.0052416324615478516,-0.5544645454568717,-0.2292794535742455,0.0,-2.5624050903320312,0.7016742616555436,-0.2652874801733682,-0.5000312694501321,-0.0017041656316098836,nan,nan,nan,nan
10.311700344085693,0.06386235,0.13655622,-3.1761162,-0.0012545581346149835,nan,nan,nan,nan,nan,0.3039262294769287,1.5039262294769287,0.005503654479980469,-0.48190657084879907,-0.3574437815555775,0.0,-2.6015704917907714,0.7155787498438285,-0.11506122830086919,-0.5004900303585328,-0.0010702058685498274,nan,nan,nan,nan
10.411539077758789,0.06529466,0.13981847,-3.1783786,-0.001099096817097616,nan,nan,nan,nan,nan,0.40378808975219727,1.6037880897521972,0.0055620670318603516,-0.37803572115190354,-0.4659280991023832,0.0,-2.641515235900879,0.7259870081806671,0.0465308009096446,-0.4637093974418625,-0.00032835422277258824,nan,nan,nan,nan
10.512834310531616,0.075083345,0.14284928,-3.177265,-0.0005831717205851406,nan,nan,nan,nan,nan,0.50506591796875,1.70506591796875,0.0053081512451171875,-0.2485348788716405,-0.546104764659913,0.0,-2.6820263671875,0.7359421936089998,0.18575790975849046,-0.37958192956482706,-0.00023817700287720578,nan,nan,nan,nan
10.61428427696228,0.082369626,0.1416026,-3.180589,-3.190607400875914e-05,nan,nan,nan,nan,nan,0.6066575050354004,1.8066575050354003,0.005220890045166016,-0.10255205342033899,-0.5911709366496901,0.0,-2.7226630020141602,0.7442746446964326,0.28995638731691037,-0.2951371248402224,-0.0016501593155698283,nan,nan,nan,nan
10.70904803276062,0.09338067,0.1371283,-3.1878812,0.0014361775751023213,nan,nan,nan,nan,nan,0.7012903690338135,1.9012903690338134,0.00565791130065918,0.03961610120477527,-0.598690708567732,0.0,-2.7605161476135254,0.748189769259057,0.3283012307341794,-0.12502311232182445,-0.0019839871020357444,nan,nan,nan,nan
10.82421875,0.104400285,0.13119966,-3.196184,0.002172128208404168,nan,nan,nan,nan,nan,0.8164594173431396,2.01645941734314,0.008888959884643555,0.20885027634013625,-0.562478054747604,0.0,-2.806583766937256,0.7533895414688753,0.23930183553033982,0.15525574791052296,-0.006574289958337175,nan,nan,nan,nan
10.925928592681885,0.11499422,0.12898181,-3.203684,0.0031000422590497685,nan,nan,nan,nan,nan,0.9181816577911377,2.118181657791138,0.00583958625793457,0.34430161258585307,-0.49138213192054625,0.0,-2.8472726631164553,0.7557636748974829,0.11841913965745172,0.3277689484203801,-0.016873821585593682,nan,nan,nan,nan
11.018668174743652,0.12912644,0.1354355,-3.2236357,0.0057611684888305495,nan,nan,nan,nan,nan,1.0109729766845703,2.2109729766845705,0.005378007888793945,0.44854053023263174,-0.3985114712760845,0.0,-2.8843891906738284,0.7497181301271094,-0.09747492831779951,0.3754528977912748,-0.016086072166309216,nan,nan,nan,nan
11.112651109695435,0.13580422,0.15240502,-3.2507617,0.007740996183637848,nan,nan,nan,nan,nan,1.1048915386199951,2.3048915386199953,0.005167722702026367,0.5292977297848513,-0.2825666527469271,0.0,-2.921956615447998,0.7486793663956594,-0.22665580255179962,0.3796476199490258,-0.02571073435905072,nan,nan,nan,nan
11.227617263793945,0.1415805,0.18819997,-3.2833655,0.009362436001953613,nan,nan,nan,nan,nan,1.2198433876037598,2.41984338760376,0.005364418029785156,0.5878658211962405,-0.12005738739981726,0.0,-2.9679373550415042,0.7447692329315336,-0.37536894875959786,0.292119825619656,-0.027982924836298155,nan,nan,nan,nan
11.327728271484375,0.14019312,0.24621649,-3.3271832,0.008693007715688442,nan,nan,nan,nan,nan,1.3199577331542969,2.519957733154297,0.0056149959564208984,0.5992453729997237,0.030082934338624086,0.0,-3.007983093261719,0.7406783791077649,-0.4502573157681123,0.1132443564948132,-0.021983780746771847,nan,nan,nan,nan
11.424147605895996,0.13278544,0.28044394,-3.3547401,0.007301408341281783,nan,nan,nan,nan,nan,1.4163990020751953,2.6163990020751955,0.007288694381713867,0.5745082300684217,0.1730326373365714,0.0,-3.0465596008300784,0.741280103618281,-0.4796317839287829,0.009692787685624255,-0.029830991719086687,nan,nan,nan,nan
11.516878604888916,0.1099412,0.32526743,-3.3920286,0.005438831995100153,nan,nan,nan,nan,nan,1.5092353820800781,2.7092353820800783,0.006543636322021484,0.5189337787827496,0.30117724555194453,0.0,-3.0836941528320314,0.7407475815677742,-0.43801660354280836,-0.12820595560939263,-0.03128624162707996,nan,nan,nan,nan
11.617788076400757,0.05917624,0.3688603,-3.4375832,0.005298741479170338,nan,nan,nan,nan,nan,1.6104552745819092,2.8104552745819094,0.006864070892333984,0.4264387311234967,0.422078201993164,0.0,-3.124182109832764,0.7376307018282441,-0.2980619928964016,-0.27868156200181265,-0.024753869921968676,nan,nan,nan,nan
11.715654373168945,0.013046386,0.38633615,-3.470767,0.007203033085073474,nan,nan,nan,nan,nan,1.7080461978912354,2.9080461978912355,0.005214691162109375,0.3111864888686937,0.5129941219405679,0.0,-3.163218479156494,0.7415660492356768,-0.21967512972405245,-0.36595626374445095,-0.04062279452079781,nan,nan,nan,nan
11.817276000976562,-0.05546199,0.39215958,-3.5143697,0.012620144716241136,nan,nan,nan,nan,nan,1.8097031116485596,3.0097031116485597,0.0055654048919677734,0.17144063724860745,0.5749853110295874,0.0,-3.203881244659424,0.7349515811220062,-0.023670045238753292,-0.43611250195047513,-0.038335624111857695,nan,nan,nan,nan
11.912761211395264,-0.12718274,0.37675858,-3.5556483,0.020803567445171006,nan,nan,nan,nan,nan,1.9049968719482422,3.1049968719482424,0.0053746700286865234,0.030151301940088943,0.5992419369430995,0.0,-3.241998748779297,0.7351197115588904,0.0947923965732226,-0.4592985099830639,-0.05027432941647484,nan,nan,nan,nan
12.026328086853027,-0.20645748,0.33244154,-3.6044836,0.031281479451439304,nan,nan,nan,nan,nan,2.0185651779174805,3.2185651779174806,0.005887746810913086,-0.1397961987229137,0.5834869517158234,0.0,-3.2874260711669923,0.7313561070809822,0.2600407486260101,-0.42001581583559855,-0.060207128361602406,nan,nan,nan,nan
12.126431703567505,-0.26888317,0.27360725,-3.6494837,0.03896466541662579,nan,nan,nan,nan,nan,2.1186602115631104,3.3186602115631105,0.006018400192260742,-0.2806382215105836,0.5303227212060375,0.0,-3.327464084625244,0.7308163534561126,0.35341754306594464,-0.3789703373420775,-0.0694689502089159,nan,nan,nan,nan
12.221689701080322,-0.3114232,0.21120162,-3.6828544,0.04405803208471762,nan,nan,nan,nan,nan,2.2140276432037354,3.4140276432037355,0.010094881057739258,-0.39851217007897793,0.4485399093714446,0.0,-3.365611057281494,0.7324067734940274,0.4305090518567766,-0.3091271250242561,-0.08890822094799154,nan,nan,nan,nan
12.324215412139893,-0.35366616,0.10534572,-3.7268548,0.04748657886973155,nan,nan,nan,nan,nan,2.3164491653442383,3.5164491653442385,0.007244586944580078,-0.4995711660463401,0.33230806498654236,0.0,-3.4065796661376955,0.7305476133786402,0.48104820581387603,-0.14420271922383576,-0.08057029018597456,nan,nan,nan,nan
12.426906824111938,-0.3652543,0.032799754,-3.7533534,0.046461889236981524,nan,nan,nan,nan,nan,2.4191982746124268,3.619198274612427,0.006261587142944336,-0.5678698173930443,0.19371079085582835,0.0,-3.447679309844971,0.7361248093184283,0.4796550398427325,-0.027185279287504124,-0.09206126053062966,nan,nan,nan,nan
12.524276494979858,-0.3503657,-0.08126455,-3.7942333,0.04213899886920051,nan,nan,nan,nan,nan,2.5165109634399414,3.7165109634399416,0.006735801696777344,-0.5978760226370422,0.050440673624674824,0.0,-3.4866043853759767,0.7367146226639409,0.4357200639644753,0.12024500676161967,-0.08308201799824229,nan,nan,nan,nan
12.61803936958313,-0.31825984,-0.1446797,-3.823519,0.04059541544305729,nan,nan,nan,nan,nan,2.6104214191436768,3.810421419143677,0.005465984344482422,-0.5930952480221766,-0.09076357624902598,0.0,-3.5241685676574708,0.7422854373262797,0.4299908515272453,0.18183502548957145,-0.0939019013810016,nan,nan,nan,nan
12.71765685081482,-0.24128832,-0.23503998,-3.8742344,0.04053339333833651,nan,nan,nan,nan,nan,2.7099955081939697,3.90999550819397,0.005914211273193359,-0.5521417593475759,-0.23481796691174095,0.0,-3.563998203277588,0.7359943000620162,0.30145050962994296,0.3452362091842194,-0.08164341624291223,nan,nan,nan,nan
12.813513994216919,-0.17583697,-0.28011724,-3.9097657,0.042963258637372,nan,nan,nan,nan,nan,2.8057448863983154,4.005744886398316,0.0052487850189208984,-0.48026774444016784,-0.35964273056792573,0.0,-3.6022979545593263,0.737288646275831,0.23542402949345295,0.420303274471565,-0.09749233187427842,nan,nan,nan,nan
12.913051843643188,-0.085058205,-0.31111547,-3.954699,0.04990203589176939,nan,nan,nan,nan,nan,2.9052906036376953,4.1052906036376955,0.005280256271362305,-0.37627357863503713,-0.46735232322219444,0.0,-3.6421162414550783,0.731355188993834,0.06932933698295636,0.4882510175707238,-0.09482358938445655,nan,nan,nan,nan
13.027108192443848,0.03179415,-0.3225953,-4.008071,0.06001240900163789,nan,nan,nan,nan,nan,3.0193428993225098,4.21934289932251,0.005787372589111328,-0.22878379080198202,-0.5546692501538867,0.0,-3.687737159729004,0.7338729481162242,-0.027879425932307696,0.5168153292359696,-0.11441085082293836,nan,nan,nan,nan
13.122128248214722,0.15132867,-0.3043706,-4.0496073,0.06901148666834922,nan,nan,nan,nan,nan,3.114431619644165,4.314431619644165,0.00737452507019043,-0.09098263204344868,-0.5930616836944083,0.0,-3.7257726478576663,0.7315439720154527,-0.1726114605091475,0.48533138261677966,-0.11097450589272448,nan,nan,nan,nan
13.22583794593811,0.23228544,-0.27234298,-4.0764756,0.0732833796236215,nan,nan,nan,nan,nan,3.218075752258301,4.418075752258301,0.006501674652099609,0.06482989111263014,-0.5964872883962612,0.0,-3.7672303009033206,0.7395399476745098,-0.24523597708472503,0.4572439249426496,-0.1291092102609412,nan,nan,nan,nan
13.326545000076294,0.33776948,-0.1965832,-4.114921,0.07613051981559119,nan,nan,nan,nan,nan,3.318774461746216,4.518774461746216,0.006606340408325195,0.21211941200626974,-0.5612533786536295,0.0,-3.8075097846984867,0.7408375207016431,-0.34765876144031105,0.3555457844045254,-0.12096823056093722,nan,nan,nan,nan
13.422351360321045,0.39316067,-0.12949802,-4.1391015,0.07578714873101774,nan,nan,nan,nan,nan,3.4146173000335693,4.6146173000335695,0.006127119064331055,0.3398859531356242,-0.49444669971705574,0.0,-3.845846920013428,0.7475520502767162,-0.4053389167883564,0.2928508366506371,-0.13555402427396687,nan,nan,nan,nan
13.520029067993164,0.44618428,-0.0111109605,-4.1854973,0.07112885618457544,nan,nan,nan,nan,nan,3.5123279094696045,4.712327909469605,0.0068891048431396484,0.44989498502217773,-0.39698174070339115,0.0,-3.884931163787842,0.7428298926950867,-0.46449769621621767,0.1061706117262349,-0.1209193524346875,nan,nan,nan,nan
13.6167893409729,0.46447772,0.06898714,-4.2119284,0.06607049299800043,nan,nan,nan,nan,nan,3.609121084213257,4.809121084213257,0.005115032196044922,0.5322714545907747,-0.27692435542548577,0.0,-3.923648433685303,0.7472686614398726,-0.4846860524293689,0.031802347208781986,-0.13118884852227025,nan,nan,nan,nan
13.711271524429321,0.46688032,0.18469302,-4.2511325,0.056603933354060054,nan,nan,nan,nan,nan,3.703526496887207,4.903526496887207,0.005870819091796875,0.5824495448162045,-0.14405737656710343,0.0,-3.961410598754883,0.7437518309935406,-0.4622379081491787,-0.10723185427204518,-0.1112215833733033,nan,nan,nan,nan
13.81212329864502,0.4379786,0.2942787,-4.293725,0.046801063757605184,nan,nan,nan,nan,nan,3.8043642044067383,5.0043642044067385,0.005754709243774414,0.5999639083458533,0.006580933244492175,0.0,-4.001745681762696,0.7474685220475906,-0.4480580443756897,-0.17603889747351928,-0.11619160229941776,nan,nan,nan,nan
13.909170627593994,0.3951404,0.3686844,-4.323373,0.04073041867987781,nan,nan,nan,nan,nan,3.901400327682495,5.101400327682495,0.0075168609619140625,0.5806211540306768,0.15125830718372138,0.0,-4.040560131072998,0.7478144492369337,-0.3939869474412652,-0.27578108673608914,-0.10877018984300833,nan,nan,nan,nan
14.026038885116577,0.30570588,0.45647284,-4.3802314,0.035416545481770936,nan,nan,nan,nan,nan,4.018277645111084,5.218277645111084,0.007573843002319336,0.5119559108236721,0.3128915872514062,0.0,-4.087311058044434,0.7452205786267536,-0.27333860072787414,-0.39829843517961727,-0.10054794522820852,nan,nan,nan,nan
14.118955612182617,0.20378287,0.50915277,-4.43513,0.03536082324191782,nan,nan,nan,nan,nan,4.111330270767212,5.311330270767212,0.005206584930419922,0.42550950633114043,0.42301496430011687,0.0,-4.124532108306885,0.7365791920295042,-0.1151883652584857,-0.47210583139696993,-0.08521581366324028,nan,nan,nan,nan
14.213260889053345,0.13958421,0.5253255,-4.466731,0.037233027815035014,nan,nan,nan,nan,nan,4.205517530441284,5.405517530441284,0.005626678466796875,0.31444038061280033,0.5110061125271177,0.0,-4.162207012176514,0.7400343108279384,-0.06860814920865542,-0.5014171863024603,-0.09718493342965577,nan,nan,nan,nan
14.32407021522522,0.008855644,0.5256676,-4.529863,0.04343166832928845,nan,nan,nan,nan,nan,4.316544771194458,5.516544771194458,0.006926536560058594,0.1615289275987137,0.5778480817211471,0.0,-4.206617908477783,0.7343295486457136,0.08921250635372079,-0.5161055061993796,-0.09985087046884737,nan,nan,nan,nan
14.418418884277344,-0.11570011,0.48104236,-4.581685,0.05201755450910729,nan,nan,nan,nan,nan,4.410682678222656,5.610682678222656,0.005295276641845703,0.021585353769564056,0.5996116013742919,0.0,-4.244273071289062,0.7268610009008932,0.27494223278870894,-0.47485265558507334,-0.08972025376260338,nan,nan,nan,nan
14.5115647315979,-0.19017708,0.4338998,-4.611469,0.057048925417800114,nan,nan,nan,nan,nan,4.5038440227508545,5.703844022750855,0.008876800537109375,-0.1181174285015086,0.5882586787155724,0.0,-4.281537609100342,0.7312712100173164,0.35935532629843914,-0.4585148157361738,-0.11111578571423636,nan,nan,nan,nan
14.6109778881073,-0.29677683,0.33874094,-4.6570477,0.06013687868678824,nan,nan,nan,nan,nan,4.603225231170654,5.8032252311706545,0.006496429443359375,-0.2598597911438553,0.54080762656112,0.0,-4.321290092468262,0.7294676113647586,0.46935616423912896,-0.32835241134216714,-0.10075577114940551,nan,nan,nan,nan
14.727888345718384,-0.37354544,0.23604912,-4.7019253,0.05517068496086257,nan,nan,nan,nan,nan,4.72015380859375,5.92015380859375,0.006453037261962891,-0.40537071183371215,0.4423512020865655,0.0,-4.3680615234375,0.7351727194267802,0.47117345271110833,-0.19668651331895004,-0.09837746526076305,nan,nan,nan,nan
14.823431015014648,-0.41230866,0.15702458,-4.7364106,0.048166948544885894,nan,nan,nan,nan,nan,4.815675973892212,6.015675973892212,0.006391286849975586,-0.49892446820374525,0.3332782246526315,0.0,-4.406270389556885,0.7424550924411173,0.4393426482564759,-0.14838412257161365,-0.10573487231018855,nan,nan,nan,nan
14.917052745819092,-0.43600342,0.049374476,-4.780435,0.038059880493273385,nan,nan,nan,nan,nan,4.909287691116333,6.109287691116333,0.00527191162109375,-0.5628692186816864,0.20779375029261063,0.0,-4.443715076446534,0.7421750026820952,0.36504441515759356,-0.008369206915156233,-0.08731251946848459,nan,nan,nan,nan
15.012789487838745,-0.4330553,-0.029450368,-4.8133445,0.03036376047885381,nan,nan,nan,nan,nan,5.005032062530518,6.205032062530518,0.005669116973876953,-0.5961722408874763,0.06766579043508515,0.0,-4.482012825012207,0.7458387065900497,0.29439350699770456,0.08533763322102152,-0.08375147467176279,nan,nan,nan,nan
15.113642692565918,-0.39527512,-0.13855255,-4.858763,0.020842422685800416,nan,nan,nan,nan,nan,5.1058876514434814,6.305887651443482,0.005690574645996094,-0.5940909379654065,-0.08399974659118646,0.0,-4.522355060577393,0.7392362328784742,0.16732482588432518,0.27355191401002144,-0.06113645577694309,nan,nan,nan,nan
15.225629806518555,-0.32265484,-0.22630265,-4.8985205,0.01618855317352605,nan,nan,nan,nan,nan,5.217884063720703,6.417884063720703,0.006269931793212891,-0.5473780264377819,-0.24571791992664876,0.0,-4.567153625488282,0.7344771035690957,0.05541200063444107,0.4150605444023504,-0.05329405400042736,nan,nan,nan,nan
15.320247411727905,-0.2606268,-0.27346557,-4.923313,0.015692771212470667,nan,nan,nan,nan,nan,5.312805652618408,6.512805652618408,0.005847454071044922,-0.47381037056225317,-0.36810831659670545,0.0,-4.605122261047364,0.7322782250475675,-0.008962830270669575,0.4899656560291148,-0.05377899512065911,nan,nan,nan,nan
15.419799566268921,-0.13761173,-0.3354792,-4.9704967,0.018454957928550342,nan,nan,nan,nan,nan,5.4122114181518555,6.612211418151856,0.005377054214477539,-0.3680879881227649,-0.4738261632705979,0.0,-4.644884567260743,0.7209464835531545,-0.1004330901548136,0.5653990028260106,-0.044763899523864774,nan,nan,nan,nan
15.52249526977539,-0.048636112,-0.36337656,-5.003859,0.020898717877042235,nan,nan,nan,nan,nan,5.514761209487915,6.714761209487915,0.006280422210693359,-0.2351555218790387,-0.5519980801866949,0.0,-4.685904483795166,0.7169828912421742,-0.145638121993865,0.5968907404084397,-0.04585727373088217,nan,nan,nan,nan
15.617012977600098,0.084271915,-0.38942552,-5.054906,0.023509463167572676,nan,nan,nan,nan,nan,5.609241485595703,6.809241485595703,0.006553173065185547,-0.09871070510458749,-0.5918244644299145,0.0,-4.723696594238281,0.7106290871090015,-0.18338908317608776,0.5522782603555554,-0.03800103042012868,nan,nan,nan,nan
15.720434188842773,0.16822658,-0.3986408,-5.0868673,0.024009803317580677,nan,nan,nan,nan,nan,5.712751388549805,6.912751388549805,0.005630016326904297,0.056842379305651336,-0.5973013844910059,0.0,-4.765100555419922,0.709967968444447,-0.19154487688779823,0.5305514556026759,-0.03616534124507126,nan,nan,nan,nan
15.813593864440918,0.2822576,-0.40457156,-5.129826,0.02187626158186682,nan,nan,nan,nan,nan,5.805837869644165,7.005837869644165,0.006814241409301758,0.19376237559194184,-0.5678522182795162,0.0,-4.802335147857666,0.7097170227905655,-0.1623906331693766,0.3884823998612192,-0.025789984052925864,nan,nan,nan,nan
15.912393569946289,0.3390746,-0.40557867,-5.152943,0.019561796883962593,nan,nan,nan,nan,nan,5.904643297195435,7.104643297195435,0.0062198638916015625,0.3273859740835802,-0.5028105249230025,0.0,-4.841857318878174,0.7116399994393028,-0.12566354905894797,0.3502730061773089,-0.02166451361962915,nan,nan,nan,nan
16.010172128677368,0.40807456,-0.40080974,-5.185592,0.015564134144925332,nan,nan,nan,nan,nan,6.002403736114502,7.202403736114502,0.007123470306396484,0.43985449111288727,-0.4080784564857877,0.0,-4.880961494445801,0.7103286039214076,-0.057763628903234984,0.1601519715050748,-0.01164641621500942,nan,nan,nan,nan
16.122244358062744,0.4365551,-0.39443308,-5.2045836,0.012654635175627336,nan,nan,nan,nan,nan,6.1145970821380615,7.314597082138062,0.006608486175537109,0.5360321482767765,-0.2695728769994932,0.0,-4.9258388328552245,0.7079216442122249,0.016828065342934913,0.02502945197865682,-0.006841539060234739,nan,nan,nan,nan
16.222703218460083,0.438701,-0.38918737,-5.211738,0.010922277300995336,nan,nan,nan,nan,nan,6.214985609054565,7.414985609054566,0.005438566207885742,0.5863562729837943,-0.12722547359925257,0.0,-4.965994243621826,0.7058354600429604,0.08812894059024128,-0.073889638188391,-0.0022129919601051673,nan,nan,nan,nan
16.315529346466064,0.41509342,-0.38026413,-5.2102385,0.009642638357339238,nan,nan,nan,nan,nan,6.307757377624512,7.507757377624512,0.0052378177642822266,0.59988597053579,-0.01169710880232166,0.0,-4.996897048950196,0.7006415742097061,0.1452628968994873,-0.2625767258843851,-0.001679913127393071,nan,nan,nan,nan
16.427537441253662,0.36057398,-0.36616603,-5.192674,0.009201896445338404,nan,nan,nan,nan,nan,6.419773101806641,7.619773101806641,0.007926702499389648,0.5730202677762667,-0.17789820886567584,0.0,-4.952090759277343,0.6988201671998062,0.1872666681323565,-0.3971613664842473,-0.0007375707034858815,nan,nan,nan,nan
16.52420473098755,0.30043787,-0.3539301,-5.1720552,0.008663568506091682,nan,nan,nan,nan,nan,6.516536235809326,7.716536235809326,0.00571894645690918,0.5133204167133527,-0.310647951522668,0.0,-4.91338550567627,0.6977960947685352,0.21785081668320885,-0.4666179911319438,0.005995604271451565,nan,nan,nan,nan
16.623836278915405,0.18851638,-0.3302295,-5.137735,0.006464611770770644,nan,nan,nan,nan,nan,6.616149663925171,7.816149663925171,0.007150411605834961,0.4203546682189201,-0.4281377732769693,0.0,-4.873540134429931,0.7015705123796098,0.15798666344613882,-0.5468981195211822,0.0007540225431416518,nan,nan,nan,nan
16.71960163116455,0.11345761,-0.31226796,-5.114812,0.004199902001417309,nan,nan,nan,nan,nan,6.711882591247559,7.911882591247559,0.0054132938385009766,0.30622585847276845,-0.5159706615715819,0.0,-4.8352469635009765,0.7025587319211088,0.14146743479009596,-0.5779481545200829,0.013710909913295353,nan,nan,nan,nan
16.81143546104431,-0.005775438,-0.28009275,-5.080502,-8.119466205926129e-05,nan,nan,nan,nan,nan,6.80366849899292,8.00366849899292,0.006407260894775391,0.18014117814719188,-0.5723191032420127,0.0,-4.798532600402832,0.7071923947107733,0.06944238918712996,-0.5764804609856875,0.014107231675556152,nan,nan,nan,nan
16.92656397819519,-0.120190494,-0.23653685,-5.031216,-0.0053538584712834875,nan,nan,nan,nan,nan,6.91892409324646,8.11892409324646,0.006798505783081055,0.009161895449801404,-0.599930045648463,0.0,-4.752430362701416,0.7180111688045582,-0.03492017491025902,-0.5282819011585148,0.019959724394609076,nan,nan,nan,nan
17.023155212402344,-0.2331302,-0.17004524,-4.965241,-0.011535813195607439,nan,nan,nan,nan,nan,7.015430927276611,8.21543092727661,0.005707502365112305,-0.13519564752616356,-0.5845700444685661,0.0,-4.713827629089356,0.7322981298767173,-0.1594445371729276,-0.42713810753801273,0.027410522409224487,nan,nan,nan,nan
17.11799120903015,-0.30339003,-0.11232038,-4.9143095,-0.015238789508860054,nan,nan,nan,nan,nan,7.11022162437439,8.310221624374389,0.005206584930419922,-0.2693286112133874,-0.5361549208781619,0.0,-4.675911350250244,0.741197320271022,-0.24139775069820243,-0.364416337972556,0.043062358705924265,nan,nan,nan,nan
17.21074366569519,-0.3758983,-0.02623817,-4.847213,-0.01819763265711401,nan,nan,nan,nan,nan,7.203036308288574,8.403036308288574,0.006423473358154297,-0.38597113050104415,-0.45937597501365474,0.0,-4.63878547668457,0.7497664455594574,-0.3434578923859142,-0.21614465375539396,0.04215015785847583,nan,nan,nan,nan
17.304059267044067,-0.41636437,0.07140721,-4.783094,-0.01991272969988874,nan,nan,nan,nan,nan,7.29641318321228,8.49641318321228,0.010336160659790039,-0.4822113082939005,-0.35703256735693567,0.0,-4.601434726715088,0.7544245744093413,-0.4054032690495799,-0.07289432206019474,0.04968914038851996,nan,nan,nan,nan
17.41284680366516,-0.42707992,0.14299722,-4.7362285,-0.0198946703930215,nan,nan,nan,nan,nan,7.40509819984436,8.60509819984436,0.006011962890625,-0.5606501265397883,-0.21370876353327053,0.0,-4.5579607200622565,0.7553323977924156,-0.436967633620655,0.029929882670369348,0.06115273774877717,nan,nan,nan,nan
17.51145625114441,-0.4117384,0.24644618,-4.6736894,-0.0192127582443551,nan,nan,nan,nan,nan,7.503687381744385,8.703687381744384,0.006314516067504883,-0.5959401567564241,-0.06968019492745928,0.0,-4.518525047302246,0.7537057293283796,-0.38797335240283604,0.21952028556809602,0.05360538303254994,nan,nan,nan,nan
17.620672941207886,-0.3700787,0.32143182,-4.629889,-0.019958798540464125,nan,nan,nan,nan,nan,7.612936735153198,8.812936735153198,0.005185127258300781,-0.5925096226055081,0.09451109522102834,0.0,-4.474825305938721,0.7496910262446064,-0.317765002791652,0.3391083505019774,0.05772956382794102,nan,nan,nan,nan
17.720444917678833,-0.31704852,0.3747928,-4.5961885,-0.02193860141722264,nan,nan,nan,nan,nan,7.713207721710205,8.913207721710204,0.005339145660400391,-0.5502280607123949,0.23926780227326253,0.0,-4.434716911315919,0.7459519848214909,-0.31316660661136725,0.3781500766326066,0.07386604938590775,nan,nan,nan,nan
17.81501579284668,-0.21218246,0.4262123,-4.551909,-0.027356931419470307,nan,nan,nan,nan,nan,7.807276248931885,9.007276248931884,0.006102800369262695,-0.4788800216750081,0.3614884850732368,0.0,-4.3970895004272466,0.7398898908343051,-0.1558346650871268,0.4805896381412046,0.06713051007515583,nan,nan,nan,nan
17.908933401107788,-0.10888665,0.44351485,-4.5170107,-0.0341135455136216,nan,nan,nan,nan,nan,7.9015045166015625,9.101504516601562,0.006534099578857422,-0.3807035560977265,0.46375079770771843,0.0,-4.359398193359375,0.7365326472078141,-0.02894166567187777,0.5259842081997836,0.07894305089776123,nan,nan,nan,nan
18.026822566986084,0.025904832,0.43616766,-4.473056,-0.043959943926128564,nan,nan,nan,nan,nan,8.019401788711548,9.219401788711547,0.00701141357421875,-0.2287016943755974,0.5547031052641862,0.0,-4.312239284515381,0.7336386943020095,0.11783503031975472,0.5289560368958517,0.08311118597693881,nan,nan,nan,nan
18.12665295600891,0.11418561,0.41166648,-4.445594,-0.04987678782944943,nan,nan,nan,nan,nan,8.118904113769531,9.31890411376953,0.005698204040527344,-0.08431065322022714,0.5940468952478235,0.0,-4.272438354492188,0.733723486808133,0.17108376704060066,0.5182616463486691,0.10280334391012365,nan,nan,nan,nan
18.218448638916016,0.22006331,0.35723275,-4.412659,-0.05532362336071976,nan,nan,nan,nan,nan,8.210689783096313,9.410689783096313,0.0053021907806396484,0.053746784908808465,0.5975878873537902,0.0,-4.235724086761475,0.7322099028798662,0.278115958516814,0.44058581948390435,0.09689103879604331,nan,nan,nan,nan
18.31601047515869,0.29414555,0.2956545,-4.3840256,-0.057935318914214176,nan,nan,nan,nan,nan,8.308256149291992,9.508256149291991,0.005536794662475586,0.19721006761731547,0.5666640885307396,0.0,-4.196697540283203,0.7323238881502794,0.32793106870788624,0.38743109929625386,0.10933005687851877,nan,nan,nan,nan
18.412776708602905,0.3551141,0.20475696,-4.345906,-0.05781196740209032,nan,nan,nan,nan,nan,8.405022382736206,9.605022382736205,0.010729789733886719,0.3278648760789755,0.5024983811254699,0.0,-4.157991046905518,0.732719814703204,0.40764954826487015,0.22148764834237306,0.09518704386516291,nan,nan,nan,nan
18.512339115142822,0.38545966,0.12720224,-4.315444,-0.05528393129453423,nan,nan,nan,nan,nan,8.504588842391968,9.704588842391967,0.008788824081420898,0.4420889204166973,0.4056567347460153,0.0,-4.118164463043213,0.7337723973019583,0.4420207431848297,0.13544197735179478,0.10666226087277535,nan,nan,nan,nan
18.60924744606018,0.4024298,0.0049665193,-4.2688656,-0.04861076446818263,nan,nan,nan,nan,nan,8.60152816772461,9.801528167724609,0.007708072662353516,0.5268902914519251,0.2870306965704285,0.0,-4.079388732910156,0.7339349507233671,0.4519705967569221,-0.062173888606388145,0.08937337556994543,nan,nan,nan,nan
18.72598433494568,0.39171416,-0.08318366,-4.2327824,-0.04271308333304473,nan,nan,nan,nan,nan,8.718261241912842,9.918261241912841,0.006990909576416016,0.5873837828524276,0.12239400165846413,0.0,-4.032695503234864,0.733576998797789,0.4524344808443655,-0.13359836361914493,0.09746575129698148,nan,nan,nan,nan
18.82107925415039,0.33761394,-0.19283247,-4.180536,-0.03611531314192236,nan,nan,nan,nan,nan,8.813401699066162,10.013401699066161,0.0054531097412109375,0.5996596861387609,-0.020205465101372232,0.0,-3.994639320373535,0.7347187186635241,0.3615667527051013,-0.2929819214481453,0.07887138327776334,nan,nan,nan,nan
18.91929316520691,0.26811796,-0.25789985,-4.141919,-0.033531873122284436,nan,nan,nan,nan,nan,8.91151738166809,10.11151738166809,0.005397319793701172,0.5765878500324888,-0.16597123604682879,0.0,-3.955393047332764,0.7348018383175461,0.310501852633973,-0.35724843472495993,0.08822215665641285,nan,nan,nan,nan
19.011276960372925,0.21459076,-0.29262373,-4.1135798,-0.03316144461517069,nan,nan,nan,nan,nan,9.003506898880005,10.203506898880004,0.0071675777435302734,0.523215971092172,-0.29367507145495925,0.0,-3.9185972404479985,0.7343537802371449,0.1998059544699805,-0.4315339515487383,0.08665894189710727,nan,nan,nan,nan
19.126863956451416,0.10199143,-0.33511582,-4.054467,-0.03514931520419683,nan,nan,nan,nan,nan,9.119121789932251,10.31912178993225,0.0064198970794677734,0.41714488108576886,-0.43126575122995775,0.0,-3.8723512840270997,0.7357087202261086,0.0959136376741188,-0.474163768139817,0.08730223343773717,nan,nan,nan,nan
19.224167346954346,-0.018325694,-0.33982375,-3.9938202,-0.03948301915916455,nan,nan,nan,nan,nan,9.216919183731079,10.416919183731078,0.0059146881103515625,0.29967016859663276,-0.5198055309952614,0.0,-3.8332323265075683,0.7394098539558902,-0.08441828260197086,-0.4698498416246543,0.07594942041251324,nan,nan,nan,nan
19.321438550949097,-0.09094973,-0.32630104,-3.9631574,-0.042605020739592644,nan,nan,nan,nan,nan,9.313727140426636,10.513727140426635,0.005444049835205078,0.16561686205723838,-0.5766897389431458,0.0,-3.794509143829346,0.7393755781409248,-0.14699991936887302,-0.45932095961101604,0.08908334694200297,nan,nan,nan,nan
19.42020606994629,-0.2032498,-0.27197224,-3.9075415,-0.04702397781551932,nan,nan,nan,nan,nan,9.41243863105774,10.612438631057739,0.005218505859375,0.018938951743078105,-0.59970102226599,0.0,-3.7550245475769044,0.7390872551490706,-0.2701258616788224,-0.3917730684581887,0.07904571231140486,nan,nan,nan,nan
19.51771593093872,-0.27021644,-0.2161579,-3.8725433,-0.04852919415573069,nan,nan,nan,nan,nan,9.509948968887329,10.709948968887328,0.006270408630371094,-0.12712906109073308,-0.5863771839236147,0.0,-3.7160204124450686,0.7400511260135109,-0.32926783845501434,-0.3526979109643354,0.09123344313406194,nan,nan,nan,nan
19.61093759536743,-0.333915,-0.14034326,-3.8380096,-0.048452433459492364,nan,nan,nan,nan,nan,9.603196859359741,10.80319685935974,0.00876760482788086,-0.25982122757989934,-0.5408261547843948,0.0,-3.678721256256104,0.7386399397427488,-0.40933256218053865,-0.276429341245454,0.09109702442194852,nan,nan,nan,nan
19.727304458618164,-0.39073223,-0.018818304,-3.791303,-0.04497310842244928,nan,nan,nan,nan,nan,9.719582319259644,10.919582319259643,0.007287025451660156,-0.4047349407457664,-0.442932983350214,0.0,-3.6321670722961428,0.7376689022096116,-0.4604436949349261,-0.17546700715542862,0.08868656516750181,nan,nan,nan,nan
19.824544191360474,-0.40586564,0.11812109,-3.7437837,-0.03900342606642271,nan,nan,nan,nan,nan,9.816879272460938,11.016879272460937,0.005316734313964844,-0.49993009150299067,-0.33176784595528747,0.0,-3.593248291015625,0.7378159622209517,-0.47139170163616323,-0.019413260708411356,0.07539593665073062,nan,nan,nan,nan
19.917640924453735,-0.4007522,0.18722977,-3.7226207,-0.03542026340694554,nan,nan,nan,nan,nan,9.909885168075562,11.10988516807556,0.005717039108276367,-0.5631806119190932,-0.20694829875704632,0.0,-3.5560459327697753,0.7384054594830635,-0.4618405118563567,0.061850094360894094,0.08151840103461679,nan,nan,nan,nan
20.016364574432373,-0.36829928,0.30589354,-3.6825557,-0.029190287791250207,nan,nan,nan,nan,nan,10.008607149124146,11.208607149124145,0.0063707828521728516,-0.5967561561920522,-0.062306420591195726,0.0,-3.5165571403503417,0.7367939936807837,-0.388686099188901,0.19165529804863743,0.06723511442054499,nan,nan,nan,nan
20.128122568130493,-0.31100306,0.39805534,-3.6434221,-0.025565229242636905,nan,nan,nan,nan,nan,10.120372295379639,11.320372295379638,0.006371974945068359,-0.5906400827551475,0.1055665318317913,0.0,-3.4718510818481447,0.7369983051370459,-0.2729784113389411,0.30280750465468964,0.06493477426446198,nan,nan,nan,nan
20.220805883407593,-0.24884878,0.45324025,-3.6099532,-0.024877444464154366,nan,nan,nan,nan,nan,10.213036060333252,11.413036060333251,0.005203962326049805,-0.5503312373107958,0.23903039396689388,0.0,-3.4347855758666994,0.7369694390876418,-0.22333861403231461,0.3454220966940802,0.07589021551319144,nan,nan,nan,nan
20.31877040863037,-0.17886777,0.4878237,-3.5790784,-0.026334685452098466,nan,nan,nan,nan,nan,10.311012744903564,11.511012744903564,0.0053098201751708984,-0.4754642759930251,0.3659695646558993,0.0,-3.3955949020385745,0.7359533765103259,-0.14211025626149837,0.3985826315261214,0.07762862829244263,nan,nan,nan,nan
20.415775299072266,-0.063258,0.5099674,-3.5335565,-0.031111734634338306,nan,nan,nan,nan,nan,10.408021688461304,11.608021688461303,0.00605320930480957,-0.3730568500774824,0.46992402216769763,0.0,-3.356791324615479,0.7348373281712057,0.02330355758343127,0.44697647564027104,0.06956990314549595,nan,nan,nan,nan
20.51270580291748,0.018510535,0.50568736,-3.5007625,-0.035310461778813085,nan,nan,nan,nan,nan,10.505016565322876,11.705016565322875,0.006174564361572266,-0.24860261400762715,0.546073933005939,0.0,-3.31799337387085,0.7338970601411179,0.09230013576794904,0.4617538319120382,0.08486529285052573,nan,nan,nan,nan
20.622799396514893,0.118188344,0.48240072,-3.4556675,-0.04002479288060286,nan,nan,nan,nan,nan,10.615074157714844,11.815074157714843,0.005274772644042969,-0.09002479375174664,0.5932078358467253,0.0,-3.2739703369140627,0.7352131554645966,0.19840649656703138,0.45379858944800544,0.08918211789084851,nan,nan,nan,nan
20.720261335372925,0.23098624,0.42128953,-3.4050832,-0.04396870483869282,nan,nan,nan,nan,nan,10.712491273880005,11.912491273880004,0.005243539810180664,0.05645188769726687,0.5973384169592771,0.0,-3.2350034904479985,0.7354346635911609,0.2833054995943324,0.4032913155841069,0.08198861850006843,nan,nan,nan,nan
20.812501192092896,0.29212755,0.36618283,-3.3761392,-0.04523517333013063,nan,nan,nan,nan,nan,10.804755449295044,12.004755449295043,0.005747795104980469,0.1922168645169645,0.5683772312428312,0.0,-3.1980978202819825,0.7359039986470741,0.33387362330569037,0.36161851021124164,0.09082642385476734,nan,nan,nan,nan
20.922466039657593,0.36623913,0.26513776,-3.330892,-0.04494890445841006,nan,nan,nan,nan,nan,10.914702653884888,12.114702653884887,0.0053479671478271484,0.33999201284651803,0.4943737768132257,0.0,-3.154118938446045,0.7358756825630803,0.40512639140477114,0.27013213585391077,0.08960915557950064,nan,nan,nan,nan
21.017532348632812,0.41235656,0.14488034,-3.282749,-0.04123355321515246,nan,nan,nan,nan,nan,11.009777069091797,12.209777069091796,0.005907297134399414,0.4473407225482459,0.3998578221693471,0.0,-3.1160891723632815,0.7362749181975254,0.4519646811618608,0.09065994975901245,0.07393353980092437,nan,nan,nan,nan
21.110921621322632,0.42373258,0.07158737,-3.2534623,-0.03737885737196901,nan,nan,nan,nan,nan,11.10324215888977,12.30324215888977,0.006087064743041992,0.5281218496463143,0.28475833951994417,0.0,-3.078703136444092,0.7359122483659879,0.45885544860319083,0.028262725710771576,0.08338690635380448,nan,nan,nan,nan
21.228060960769653,0.41356173,-0.05688909,-3.1973872,-0.029500463858484243,nan,nan,nan,nan,nan,11.220396280288696,12.420396280288696,0.0060577392578125,0.5880320818346555,0.11924039052771071,0.0,-3.0318414878845217,0.7365002543000241,0.4308509575050043,-0.1019945587312022,0.0780927820479973,nan,nan,nan,nan
21.32065486907959,0.38304564,-0.13670379,-3.1621227,-0.025348201944590205,nan,nan,nan,nan,nan,11.312882900238037,12.512882900238036,0.0053539276123046875,0.5996855219628511,-0.019423561675005627,0.0,-2.994846839904785,0.7369162851444508,0.3861107440977766,-0.205654905625046,0.07402727596553618,nan,nan,nan,nan
21.411338090896606,0.32764015,-0.22135608,-3.1173956,-0.022066329666782486,nan,nan,nan,nan,nan,11.403572082519531,12.60357208251953,0.005629539489746094,0.5797869087894604,-0.15442519352865292,0.0,-2.9585711669921877,0.7377518214968606,0.2873627715341402,-0.33459397466147833,0.06220297780676702,nan,nan,nan,nan
21.52273392677307,0.23398754,-0.30378488,-3.0606253,-0.021879904578893397,nan,nan,nan,nan,nan,11.51496696472168,12.714966964721679,0.005195140838623047,0.5145416192760061,-0.30862100063480075,0.0,-2.9140132141113284,0.7382569860954159,0.20814630873036505,-0.4088853849659039,0.06303993050085799,nan,nan,nan,nan
21.615822792053223,0.16957882,-0.337671,-3.027479,-0.02371641862027836,nan,nan,nan,nan,nan,11.608060359954834,12.808060359954833,0.008144140243530273,0.4289715122013463,-0.41950380417785277,0.0,-2.8767758560180665,0.7378117676968641,0.1577864843604079,-0.44677850192084634,0.0742978366607663,nan,nan,nan,nan
21.714650869369507,0.05641855,-0.36294106,-2.9767504,-0.02907666782653666,nan,nan,nan,nan,nan,11.706895351409912,12.906895351409911,0.007134437561035156,0.3126689655613484,-0.5120919038364073,0.0,-2.8372418594360354,0.7378643051848152,-0.01571951599112086,-0.46687553221528366,0.06537587392384643,nan,nan,nan,nan
21.812087059020996,-0.028307118,-0.35444388,-2.9445257,-0.0339603665711108,nan,nan,nan,nan,nan,11.804436922073364,13.004436922073364,0.006326436996459961,0.17903554713586026,-0.5726659347837647,0.0,-2.7982252311706546,0.7369636887033586,-0.13687119205091985,-0.4472410513595255,0.0724521767813765,nan,nan,nan,nan
21.925154209136963,-0.15136118,-0.30761382,-2.8958848,-0.04010675699512316,nan,nan,nan,nan,nan,11.917492628097534,13.117492628097533,0.0064051151275634766,0.011320178419494452,-0.5998932017955786,0.0,-2.7530029487609866,0.733764624274118,-0.27328967761667666,-0.4035705225713956,0.07040328072428187,nan,nan,nan,nan
22.0195951461792,-0.20903236,-0.27111915,-2.8711638,-0.04186349461097558,nan,nan,nan,nan,nan,12.011829853057861,13.21182985305786,0.005998373031616211,-0.12989953938212473,-0.5857696728820226,0.0,-2.715268058776856,0.7326803437453868,-0.3450982046076824,-0.3778542931755947,0.08310688172243272,nan,nan,nan,nan
22.114798545837402,-0.29797813,-0.18804172,-2.8306253,-0.04279600735762128,nan,nan,nan,nan,nan,12.107053756713867,13.307053756713866,0.006648540496826172,-0.2650514048653535,-0.5382822240970832,0.0,-2.6771784973144532,0.7317041909396746,-0.4312053007115992,-0.2778537488852303,0.0703767593948866,nan,nan,nan,nan
22.208455562591553,-0.34272078,-0.11695842,-2.8004727,-0.041396667979789525,nan,nan,nan,nan,nan,12.200773477554321,13.40077347755432,0.0061762332916259766,-0.3833523793114461,-0.4615635961341114,0.0,-2.6396906089782717,0.7322990320510332,-0.4383268876458108,-0.23621120926321035,0.07895550842604994,nan,nan,nan,nan
22.3278067111969,-0.38345566,0.00598272,-2.7466013,-0.03650464067149832,nan,nan,nan,nan,nan,12.320165872573853,13.520165872573852,0.005398750305175781,-0.5026534499445434,-0.32762708871344626,0.0,-2.591933650970459,0.736677324462075,-0.4215720862399032,-0.09149461293860178,0.0728476390292799,nan,nan,nan,nan
22.421390056610107,-0.38913178,0.12832937,-2.6925697,-0.030668975792449944,nan,nan,nan,nan,nan,12.413623332977295,13.613623332977294,0.0052373409271240234,-0.5651000145870643,-0.201648142847138,0.0,-2.554550666809082,0.7411309778041933,-0.3670974825087415,0.06689274514788919,0.05798245102371662,nan,nan,nan,nan
22.524582862854004,-0.3748199,0.21284086,-2.6534061,-0.026717258505451764,nan,nan,nan,nan,nan,12.516846895217896,13.716846895217895,0.005417585372924805,-0.5979183960299774,-0.04993587577022109,0.0,-2.5132612419128417,0.7443480118751254,-0.3117844769168802,0.13852216185316288,0.06378999833927722,nan,nan,nan,nan
22.619055032730103,-0.33350196,0.31403312,-2.6023736,-0.02324159393855641,nan,nan,nan,nan,nan,12.611309289932251,13.81130928993225,0.005573272705078125,-0.592891236021155,0.0920868190856166,0.0,-2.4754762840270996,0.7469818233586999,-0.18981461024419555,0.2950317226820779,0.05262371125495613,nan,nan,nan,nan
22.72034525871277,-0.27047962,0.40057757,-2.5639389,-0.022278102209959134,nan,nan,nan,nan,nan,12.712581396102905,13.912581396102905,0.005409717559814453,-0.5506040169907913,0.2384013768282482,0.0,-2.434967441558838,0.7459450651639762,-0.12237398738234577,0.33002080236327513,0.058839917174520126,nan,nan,nan,nan
22.817960023880005,-0.19704987,0.46460044,-2.5323937,-0.02301605375614859,nan,nan,nan,nan,nan,12.810191631317139,14.010191631317138,0.005944490432739258,-0.47621850836871704,0.36498757826407485,0.0,-2.3959233474731447,0.7422035558732969,0.009646815670552533,0.41706594952652004,0.0537486967635896,nan,nan,nan,nan
22.911298274993896,-0.12617753,0.5046627,-2.5084403,-0.024618809226573286,nan,nan,nan,nan,nan,12.90383791923523,14.103837919235229,0.006027698516845703,-0.37797736761202794,0.4659754388088302,0.0,-2.3584648323059083,0.7389400466848592,0.08578148041742473,0.44690310220693497,0.056088464556140145,nan,nan,nan,nan
23.02866768836975,0.006868365,0.545583,-2.470235,-0.028145570722484255,nan,nan,nan,nan,nan,13.02101755142212,14.221017551422118,0.0063207149505615234,-0.22644724620022008,0.5556272533707619,0.0,-2.3115929794311523,0.7354636655281702,0.18702275603420568,0.4623637209650599,0.05157019373838339,nan,nan,nan,nan
23.124788999557495,0.08548296,0.55644757,-2.4462945,-0.029687899377103345,nan,nan,nan,nan,nan,13.117027044296265,14.317027044296264,0.005209207534790039,-0.08711217440451872,0.5936425431777247,0.0,-2.2731891822814942,0.7351901073907113,0.22466595089665317,0.462266374969364,0.05225117764941796,nan,nan,nan,nan
23.225938320159912,0.20503564,0.56083924,-2.4064512,-0.030319423872233953,nan,nan,nan,nan,nan,13.21819519996643,14.41819519996643,0.0054204463958740234,0.0650089565559344,0.5964677992712671,0.0,-2.232721920013428,0.7413499204446417,0.23401441589081537,0.4010601627080511,0.0442231868583774,nan,nan,nan,nan
23.322884798049927,0.26038343,0.5569949,-2.3840458,-0.02973649876375049,nan,nan,nan,nan,nan,13.315149307250977,14.515149307250976,0.005219697952270508,0.20699709529707602,0.5631626785739385,0.0,-2.1939402770996095,0.7486950088775065,0.21696118666653091,0.36798365853617365,0.04317483859815071,nan,nan,nan,nan
23.416744470596313,0.34766346,0.5409088,-2.3462996,-0.02720562657624026,nan,nan,nan,nan,nan,13.408986330032349,14.608986330032348,0.0075871944427490234,0.3328546560927232,0.4992071493051706,0.0,-2.1564054679870606,0.7579949362268232,0.16698869336030178,0.25898995868975777,0.03412387800617876,nan,nan,nan,nan
23.512676000595093,0.38789606,0.52730036,-2.327757,-0.02505249359217339,nan,nan,nan,nan,nan,13.50496792793274,14.704967927932739,0.005537748336791992,0.4424752074934372,0.40523535229991925,0.0,-2.1180128288269042,0.7671888897664431,0.11352057666753679,0.1670074618537686,0.03085195415433959,nan,nan,nan,nan
23.624874114990234,0.43020976,0.50883025,-2.3009615,-0.021041262120818385,nan,nan,nan,nan,nan,13.617109298706055,14.817109298706054,0.0054798126220703125,0.5377235056845159,0.2661830787904339,0.0,-2.073156280517578,0.7767258263500465,0.021899171438787748,0.055204241319999785,0.023543576012812886,nan,nan,nan,nan
23.727500677108765,0.42624706,0.49111807,-2.2850032,-0.01696890074870151,nan,nan,nan,nan,nan,13.719838857650757,14.919838857650756,0.0058269500732421875,0.5878644543031458,0.12006408025244103,0.0,-2.0320644569396973,0.7768469509580838,-0.08052977260017276,-0.12769218257615914,0.016784210751571525,nan,nan,nan,nan
23.822887897491455,0.401502,0.4812433,-2.2839828,-0.014650026416675845,nan,nan,nan,nan,nan,13.815141916275024,15.015141916275024,0.005327939987182617,0.59956557957036,0.02282796080376404,0.0,-2.0060567665100093,0.7800944090361747,-0.17000689800499372,-0.21002472675597636,0.00992514406708484,nan,nan,nan,nan
23.919628620147705,0.33318868,0.47024617,-2.2953503,-0.011579467703770522,nan,nan,nan,nan,nan,13.911888122558594,15.111888122558593,0.011320829391479492,0.5764329521603194,0.16650841319206333,0.0,-2.0447552490234373,0.766995342529252,-0.2243807197202134,-0.3659113323272772,0.0071432750046956095,nan,nan,nan,nan
24.023409128189087,0.27137685,0.4643966,-2.3094425,-0.0094063244433841,nan,nan,nan,nan,nan,14.015631198883057,15.215631198883056,0.006867885589599609,0.5140256898471653,0.3094795472679023,0.0,-2.0862524795532225,0.7621656767994686,-0.2794379705796843,-0.42974244474364837,-0.003987407975165182,nan,nan,nan,nan
24.1109676361084,0.18833168,0.45891845,-2.3316748,-0.006402161200822057,nan,nan,nan,nan,nan,14.103328227996826,15.303328227996825,0.0053369998931884766,0.433930276083285,0.4143724357366016,0.0,-2.12133129119873,0.7562873121393383,-0.28989176529105676,-0.4752678751929793,-0.010065598158280854,nan,nan,nan,nan
24.229122400283813,0.06775273,0.44872794,-2.358879,-0.001329150985773589,nan,nan,nan,nan,nan,14.221578121185303,15.421578121185302,0.0058710575103759766,0.293563264627164,0.5232787112633588,0.0,-2.168631248474121,0.7473839147778891,-0.20401658712911763,-0.5001729971010277,-0.011243886461558295,nan,nan,nan,nan
24.32550835609436,-0.015360798,0.43548268,-2.3767745,0.002983940015242083,nan,nan,nan,nan,nan,14.317734956741333,15.517734956741332,0.005292415618896484,0.1597997122060635,0.5783286712405492,0.0,-2.207093982696533,0.7504502154614032,-0.1517185985381062,-0.5055448942051776,-0.027759034008451294,nan,nan,nan,nan
24.419751167297363,-0.12828209,0.40411374,-2.4048805,0.00966840415311393,nan,nan,nan,nan,nan,14.412066459655762,15.612066459655761,0.006837368011474609,0.01949988497418735,0.5996830450212791,0.0,-2.2448265838623045,0.7489529601954934,0.016502247759183297,-0.4309135585072238,-0.026974017198997537,nan,nan,nan,nan
24.51807475090027,-0.20326646,0.37158814,-2.4279652,0.013913579271625544,nan,nan,nan,nan,nan,14.510313272476196,15.710313272476196,0.006558418273925781,-0.127665891619035,0.5862605394507776,0.0,-2.284125308990478,0.7541823400138044,0.0915918637590122,-0.4084136911889011,-0.04363873547615284,nan,nan,nan,nan
24.61311101913452,-0.29630962,0.3111676,-2.4712782,0.018495902124165457,nan,nan,nan,nan,nan,14.60542893409729,15.80542893409729,0.005744218826293945,-0.26285105842876183,0.5393601033473644,0.0,-2.322171573638916,0.7488533294188231,0.23716892290343014,-0.28614621180534167,-0.04061990021939403,nan,nan,nan,nan
24.726305961608887,-0.3629832,0.2273156,-2.5262344,0.020687935826306368,nan,nan,nan,nan,nan,14.71871566772461,15.918715667724609,0.005648136138916016,-0.40376921453138587,0.44381349843904894,0.0,-2.3674862670898436,0.7441570350304468,0.3377996554572528,-0.16271991745324352,-0.045000266460225834,nan,nan,nan,nan
24.82296109199524,-0.38179344,0.16869433,-2.5600555,0.020516246806300875,nan,nan,nan,nan,nan,14.815226554870605,16.015226554870605,0.0053751468658447266,-0.4985477078667614,0.33384155370594343,0.0,-2.406090621948242,0.7438225665030005,0.3941070177026248,-0.08329451232007692,-0.057055129270898036,nan,nan,nan,nan
24.917245388031006,-0.3837263,0.07596683,-2.6112165,0.018719030718179524,nan,nan,nan,nan,nan,14.909506797790527,16.109506797790527,0.007242679595947266,-0.5629835601841708,0.20748376071961877,0.0,-2.443802719116211,0.7347103372594276,0.4238455563650377,0.09031047709544907,-0.04672347762529807,nan,nan,nan,nan
25.01433491706848,-0.36660406,0.00035191863,-2.6531284,0.016814865072330973,nan,nan,nan,nan,nan,15.006577253341675,16.206577253341674,0.007552385330200195,-0.5964305239434617,0.06535005821365228,0.0,-2.4826309013366696,0.7358734848365535,0.45977858286665807,0.1441097993685346,-0.058531291448847195,nan,nan,nan,nan
25.11086344718933,-0.30571437,-0.10357218,-2.7178965,0.014602571647606845,nan,nan,nan,nan,nan,15.103212356567383,16.303212356567382,0.005469083786010742,-0.59464229793382,-0.08000335935437988,0.0,-2.521284942626953,0.7237378456572711,0.39063259339017314,0.3249863918793579,-0.044045830091975546,nan,nan,nan,nan
25.225316524505615,-0.21973485,-0.18749066,-2.768939,0.014748406357832172,nan,nan,nan,nan,nan,15.217546701431274,16.417546701431274,0.005578279495239258,-0.547586169927058,-0.24525371863565107,0.0,-2.5670186805725095,0.7243969855399975,0.32219528256950625,0.42122387671680256,-0.050697787697094904,nan,nan,nan,nan
25.322069883346558,-0.14263822,-0.23412843,-2.803488,0.016937805339060225,nan,nan,nan,nan,nan,15.314305067062378,16.514305067062377,0.005284309387207031,-0.47241981559821333,-0.3698912243216242,0.0,-2.605722026824951,0.7298376286178548,0.2648256590623141,0.47225121798460673,-0.06310912707092822,nan,nan,nan,nan
25.41747522354126,-0.021822058,-0.27754042,-2.8506787,0.022812020937119815,nan,nan,nan,nan,nan,15.409719944000244,16.609719944000243,0.008106470108032227,-0.3710477370023666,-0.47151201136919363,0.0,-2.643887977600097,0.7300351856199655,0.10648404904625038,0.5168907604189049,-0.06053131899690689,nan,nan,nan,nan
25.517349004745483,0.06880709,-0.29092145,-2.8838472,0.028408818885526058,nan,nan,nan,nan,nan,15.50967788696289,16.70967788696289,0.006765842437744141,-0.2421883468480939,-0.5489488178792148,0.0,-2.683871154785156,0.7356648274893178,0.019128997146596206,0.531417762306353,-0.07370206296205244,nan,nan,nan,nan
25.61341691017151,0.19863328,-0.27815256,-2.9353983,0.03714490021976173,nan,nan,nan,nan,nan,15.605720520019531,16.80572052001953,0.005923748016357422,-0.103943916333089,-0.5909277978377221,0.0,-2.722288208007812,0.7344862936281535,-0.16403073997327813,0.4728776508448827,-0.06748889697537042,nan,nan,nan,nan
25.727479934692383,0.31145784,-0.2304708,-2.9777007,0.04303976593443862,nan,nan,nan,nan,nan,15.719929218292236,16.919929218292236,0.005125999450683594,0.06760777545758827,-0.5961788227517615,0.0,-2.7679716873168942,0.7375355298637775,-0.30004634915299166,0.389945747119372,-0.07324488045327304,nan,nan,nan,nan
25.82145047187805,0.36738443,-0.19119854,-3.000609,0.04468397553465112,nan,nan,nan,nan,nan,15.813680171966553,17.013680171966552,0.00581669807434082,0.20491630107736983,-0.5639231415297379,0.0,-2.805472068786621,0.7454625119732285,-0.34585858750289233,0.3694427975954901,-0.08955393413695015,nan,nan,nan,nan
25.9172306060791,0.45049995,-0.09682727,-3.0452101,0.04428473750620019,nan,nan,nan,nan,nan,15.909715414047241,17.10971541404724,0.008098602294921875,0.33376883796089873,-0.49859639269275835,0.0,-2.8438861656188963,0.7428085755843102,-0.44280150222471404,0.2139423089025608,-0.07741904662783265,nan,nan,nan,nan
26.02335524559021,0.4876115,-0.022173554,-3.078454,0.04144368512050197,nan,nan,nan,nan,nan,16.01564383506775,17.21564383506775,0.0052034854888916016,0.4531877019407904,-0.3932186501294481,0.0,-2.8862575340270995,0.7478201516645193,-0.48423761904612156,0.14792027389617132,-0.08982150003320762,nan,nan,nan,nan
26.12084412574768,0.4993678,0.0998222,-3.1285946,0.034474796094349315,nan,nan,nan,nan,nan,16.113110780715942,17.31311078071594,0.005897998809814453,0.5350214258984511,-0.2715733304829253,0.0,-2.925244312286377,0.7411550373788763,-0.49576550033181493,-0.04961078020082395,-0.0724270803546177,nan,nan,nan,nan
26.2160382270813,0.48414993,0.18499754,-3.162413,0.0293087645574416,nan,nan,nan,nan,nan,16.208353519439697,17.408353519439697,0.006824970245361328,0.5841542919569255,-0.13698088621520532,0.0,-2.9633414077758786,0.7437156100457174,-0.4881469316773028,-0.15061562106914897,-0.08297036434602205,nan,nan,nan,nan
26.315629720687866,0.43103516,0.2977096,-3.210699,0.02378294189915421,nan,nan,nan,nan,nan,16.30799388885498,17.50799388885498,0.0062639713287353516,0.5998789115898603,0.012053689466907042,0.0,-3.003197555541992,0.7379232000706322,-0.4245407220784094,-0.3012436332321427,-0.06668828678188717,nan,nan,nan,nan
26.412593603134155,0.37359986,0.36804834,-3.245471,0.02169542063441983,nan,nan,nan,nan,nan,16.404975652694702,17.6049756526947,0.005579948425292969,0.5792385589778924,0.15646945961820996,0.0,-3.041990261077881,0.7411609525712416,-0.3855250172894363,-0.37338724867965406,-0.07915205022340961,nan,nan,nan,nan
26.523491621017456,0.26774266,0.43871525,-3.2999947,0.022826960425016668,nan,nan,nan,nan,nan,16.51575779914856,17.71575779914856,0.005660057067871094,0.5139271932642138,0.3096430848954444,0.0,-3.0863031196594237,0.7389086740533711,-0.25681564011491886,-0.46837259788498625,-0.08004553953863716,nan,nan,nan,nan
26.617822885513306,0.14369515,0.47594044,-3.3522124,0.028743351707722978,nan,nan,nan,nan,nan,16.610074758529663,17.810074758529662,0.00895071029663086,0.426842186806034,0.42167018813599183,0.0,-3.124029903411865,0.7327466457018346,-0.05415482121730185,-0.5057126914569927,-0.0682918955036271,nan,nan,nan,nan
26.715622425079346,0.043969326,0.4815809,-3.394456,0.034731891356196004,nan,nan,nan,nan,nan,16.707855939865112,17.90785593986511,0.006699562072753906,0.3114317519770093,0.5128452630770128,0.0,-3.1631423759460446,0.7351790355177482,0.05715929567938173,-0.5016495524356915,-0.08083141392565475,nan,nan,nan,nan
26.81144142150879,-0.07065785,0.45902228,-3.447096,0.041736071826856916,nan,nan,nan,nan,nan,16.80373740196228,18.00373740196228,0.0053713321685791016,0.18004206577430554,0.572350290077432,0.0,-3.201494960784912,0.7370124918280304,0.13537950964769876,-0.4918863652049642,-0.09083142437843035,nan,nan,nan,nan
26.927123546600342,-0.17568465,0.40545934,-3.499566,0.04729516195884338,nan,nan,nan,nan,nan,16.919378757476807,18.119378757476806,0.0054264068603515625,0.008476352047114243,0.5999401232256211,0.0,-3.2477515029907225,0.730568401945482,0.2917171789261564,-0.414036488229448,-0.08299182987813115,nan,nan,nan,nan
27.022169828414917,-0.24785429,0.3486171,-3.535882,0.04988087032421963,nan,nan,nan,nan,nan,17.01440143585205,18.21440143585205,0.006493568420410156,-0.13368268355560767,0.5849178917740261,0.0,-3.28576057434082,0.7335891058297179,0.36074784654095576,-0.3677956406614252,-0.0985698811124091,nan,nan,nan,nan
27.1230685710907,-0.33400926,0.23897694,-3.581885,0.0498546691561271,nan,nan,nan,nan,nan,17.115306615829468,18.315306615829467,0.005591630935668945,-0.2761584783573453,0.5326692170863224,0.0,-3.326122646331787,0.7319528982944049,0.45445841936290327,-0.22353301442288512,-0.09079638282878222,nan,nan,nan,nan
27.22304368019104,-0.37816942,0.14068201,-3.613953,0.04610621943998928,nan,nan,nan,nan,nan,17.215293884277344,18.415293884277343,0.0053179264068603516,-0.39993758796480927,0.44726941068319265,0.0,-3.366117553710937,0.7352530508961825,0.48249087811787356,-0.10415532558018128,-0.08628094687490122,nan,nan,nan,nan
27.318074464797974,-0.39780596,0.03526039,-3.648377,0.040116221777027936,nan,nan,nan,nan,nan,17.31036376953125,18.51036376953125,0.006708860397338867,-0.4944305282767172,0.3399094772259319,0.0,-3.4041455078125,0.7390905259711468,0.4758120988024884,-0.011039255045324962,-0.08061412792743727,nan,nan,nan,nan
27.412903308868408,-0.39538592,-0.062148906,-3.6824646,0.03385025977183052,nan,nan,nan,nan,nan,17.40562891960144,18.60562891960144,0.005928993225097656,-0.560934681919241,0.21296075370865855,0.0,-3.442251567840576,0.7409999658287507,0.4588122108961374,0.08978178515197911,-0.08268086586128603,nan,nan,nan,nan
27.52564549446106,-0.36047447,-0.19240095,-3.7349617,0.025529305340411812,nan,nan,nan,nan,nan,17.517917156219482,18.71791715621948,0.00577855110168457,-0.5980505532758271,0.04832738071194301,0.0,-3.487166862487793,0.738926036890522,0.38464693684311224,0.2256263752808035,-0.06830772738242462,nan,nan,nan,nan
27.626020431518555,-0.31988552,-0.25838736,-3.76578,0.022274709928373528,nan,nan,nan,nan,nan,17.61825704574585,18.81825704574585,0.005265235900878906,-0.5911929468200703,-0.10242509277614292,0.0,-3.5273028182983395,0.7422896932056037,0.3419859436069939,0.2924248373414269,-0.07526560704068473,nan,nan,nan,nan
27.721752405166626,-0.23573259,-0.3444549,-3.8118832,0.01999129862299534,nan,nan,nan,nan,nan,17.71398687362671,18.91398687362671,0.0071201324462890625,-0.5497584664924164,-0.24034481171830313,0.0,-3.565594749450683,0.7377069741906637,0.22795453668693277,0.39443567684223213,-0.0591375497168586,nan,nan,nan,nan
27.82247829437256,-0.16290376,-0.3886132,-3.8436506,0.020530096811790785,nan,nan,nan,nan,nan,17.8147132396698,19.0147132396698,0.005960226058959961,-0.47204011430144643,-0.3703756613092677,0.0,-3.6058852958679197,0.7413779402594174,0.1773671401132481,0.44296711339349826,-0.06961658706894833,nan,nan,nan,nan
27.916342735290527,-0.04459467,-0.4205574,-3.8871026,0.024263149070478537,nan,nan,nan,nan,nan,17.908939838409424,19.108939838409423,0.0058345794677734375,-0.3719714787513833,-0.47078362226771353,0.0,-3.6435759353637693,0.7374940750221203,0.024929318765934176,0.4897410201522595,-0.060508956358809526,nan,nan,nan,nan
28.017008781433105,0.051850356,-0.42578176,-3.9179811,0.028056134983788172,nan,nan,nan,nan,nan,18.009327173233032,19.20932717323303,0.006710052490234375,-0.2426721180073063,-0.5487351302239069,0.0,-3.6837308692932127,0.7414147609926863,-0.04443067462656329,0.5221959507381182,-0.07382453857643986,nan,nan,nan,nan
28.111894130706787,0.1956263,-0.399649,-3.9625573,0.03410155006405394,nan,nan,nan,nan,nan,18.104137420654297,19.304137420654296,0.005285739898681641,-0.10629424884787092,-0.5905095534044025,0.0,-3.7216549682617184,0.7374263395115588,-0.2053483318134156,0.500347374588101,-0.06507957478360757,nan,nan,nan,nan
28.21012043952942,0.2964847,-0.3586904,-3.9951484,0.03759011563485176,nan,nan,nan,nan,nan,18.2023503780365,19.4023503780365,0.005344390869140625,0.04121092657614087,-0.5985830431366528,0.0,-3.7609401512145992,0.7406299607385259,-0.30081149495347875,0.4555807224792634,-0.0744493837037102,nan,nan,nan,nan
28.307612895965576,0.39844736,-0.28952858,-4.03481,0.039358099360534034,nan,nan,nan,nan,nan,18.29984712600708,19.49984712600708,0.005395650863647461,0.18519093726524535,-0.5707051048964079,0.0,-3.7999388504028317,0.743624430758723,-0.37476141081907977,0.38641927433617934,-0.07808263642024117,nan,nan,nan,nan
28.42593479156494,0.47776973,-0.18557945,-4.0830483,0.03742577450969694,nan,nan,nan,nan,nan,18.418358325958252,19.61835832595825,0.005403757095336914,0.34451975993827316,-0.4912292082236912,0.0,-3.8473433303833007,0.744265621853167,-0.4394023656122499,0.23066644312662485,-0.07370826484366116,nan,nan,nan,nan
28.523332357406616,0.50346017,-0.121792905,-4.1094184,0.03458905550625398,nan,nan,nan,nan,nan,18.515568017959595,19.715568017959594,0.005705118179321289,0.45311276622408203,-0.393304997533416,0.0,-3.8862272071838375,0.7486665985381978,-0.4690682340159799,0.12808399204329785,-0.08710304326328681,nan,nan,nan,nan
28.62106156349182,0.5198744,0.009900922,-4.157057,0.027233746456614326,nan,nan,nan,nan,nan,18.61333394050598,19.81333394050598,0.008954763412475586,0.5351736568274796,-0.2712732147446611,0.0,-3.925333576202392,0.7445551433585028,-0.4803100693312101,-0.034682495231119395,-0.07062395904759042,nan,nan,nan,nan
28.717782020568848,0.50754434,0.09774829,-4.1887407,0.022066154678114982,nan,nan,nan,nan,nan,18.710111379623413,19.910111379623412,0.006989955902099609,0.5847537684979173,-0.1343987731621244,0.0,-3.964044551849365,0.7468757649322485,-0.4853914159232265,-0.13840449086416254,-0.08194565294888893,nan,nan,nan,nan
28.81580376625061,0.45932916,0.2210896,-4.2377996,0.01600090799088675,nan,nan,nan,nan,nan,18.80850911140442,20.00850911140442,0.006543397903442383,0.5998628004012412,0.012830459648068228,0.0,-4.003403644561767,0.7392349758274325,-0.40371203587946636,-0.31923300602671434,-0.06349996486231477,nan,nan,nan,nan
28.911503791809082,0.41705373,0.28911844,-4.268743,0.01432186925772834,nan,nan,nan,nan,nan,18.903730154037476,20.103730154037475,0.00527191162109375,0.5797255134512664,0.15465551737220837,0.0,-4.04149206161499,0.7435120671909059,-0.38052286085345033,-0.3698814484966145,-0.07579163808432363,nan,nan,nan,nan
29.008679389953613,0.30656224,0.38357478,-4.3245306,0.016021301229248094,nan,nan,nan,nan,nan,19.000914573669434,20.200914573669433,0.005553245544433594,0.5251182116576304,0.2902599934291532,0.0,-4.080365829467773,0.7361096612341234,-0.24345760430282656,-0.4682161208564048,-0.06006074077881324,nan,nan,nan,nan
29.126977682113647,0.21323052,0.43196964,-4.3682513,0.02030242679939606,nan,nan,nan,nan,nan,19.119253396987915,20.319253396987914,0.005448341369628906,0.4170022108225698,0.43140370439889486,0.0,-4.127701358795166,0.7349937047550756,-0.12702221867509356,-0.5208239257017974,-0.06585531468880142,nan,nan,nan,nan
