time,x,y,z,yaw,platform,trajectory,traj_double,traj_short,traj_spin,traj_time,ref_time,comptime,x_ref,y_ref,yaw_ref,z_ref,throttle_input,p_input,q_input,r_input,cbf_term_pitch_cbf,cbf_term_roll_cbf,cbf_term_thrust_cbf,cbf_term_yaw_cbf
10.0563063621521,0.032864533,-0.05200205,-2.7928512,0.0003288852749552255,SIM,FIG8_VERTICAL,NormSpd,Not Short,NoSpin,0.05430722236633301,1.254307222366333,0.00556182861328125,0.0,0.2299033854587861,0.0,-5.3277695922744615,0.8785971096381056,-0.2758385919691808,0.021489786947247864,0.00047524516701716275,nan,nan,nan,nan
10.19181513786316,0.0120869065,-0.057825904,-2.8071198,0.00010180447038250697,nan,nan,nan,nan,nan,0.19006991386413574,1.3900699138641357,0.006358623504638672,0.0,0.1535563055061543,0.0,-5.341013695965233,0.8785971096381054,-0.2893856394905561,0.01815293197265214,-7.991651187069816e-05,nan,nan,nan,nan
10.271756887435913,-0.0001753809,-0.057192598,-2.8117855,-7.044608193086557e-05,nan,nan,nan,nan,nan,0.2697718143463135,1.4697718143463134,0.005880594253540039,0.0,0.10346576119677223,0.0,-5.346067241913686,0.8785971096381059,-0.30803250488323686,0.010753644114025242,0.00029103169541970953,nan,nan,nan,nan
10.3671555519104,-0.008843057,-0.056391988,-2.817849,-0.0001824323511238398,nan,nan,nan,nan,nan,0.36516714096069336,1.5651671409606933,0.006383180618286133,0.0,0.040395720781273334,0.0,-5.3494147660450535,0.8785971096381053,-0.2959950770258018,0.009169704789495409,0.00014342209081205298,nan,nan,nan,nan
10.461092233657837,-0.019062841,-0.060326915,-2.824382,-0.00034311743713074955,nan,nan,nan,nan,nan,0.4591183662414551,1.659118366241455,0.006181240081787109,0.0,-0.023069480308615564,0.0,-5.349809669600078,0.8785971096381059,-0.24655215358444393,0.011529672584565585,0.00040128865505511673,nan,nan,nan,nan
10.556330442428589,-0.02892151,-0.06534328,-2.8282392,-0.00041000103388719915,nan,nan,nan,nan,nan,0.5543608665466309,1.7543608665466308,0.005533933639526367,0.0,-0.08662251089684288,0.0,-5.347267180627441,0.8785971096381059,-0.22055249023512016,0.01399559932366333,0.00038844225820049627,nan,nan,nan,nan
10.655962705612183,-0.040196013,-0.07431419,-2.8384123,-0.00047794099798270206,nan,nan,nan,nan,nan,0.6539673805236816,1.8539673805236816,0.005263566970825195,0.0,-0.14992055767499574,0.0,-5.341462225443197,0.8785971096381059,-0.19866815554682188,0.012519736567820884,0.0005017889619592506,nan,nan,nan,nan
10.769024133682251,-0.045867626,-0.08126773,-2.8629236,-0.0005944602401772104,nan,nan,nan,nan,nan,0.7670319080352783,1.9670319080352783,0.005955219268798828,0.0,-0.2149352776616654,0.0,-5.331044092121451,0.8785971096381059,-0.1146331166114137,0.013576206853920362,0.0004985402746738946,nan,nan,nan,nan
10.861924648284912,-0.05226287,-0.09010578,-2.9397688,-0.0008557190217765801,nan,nan,nan,nan,nan,0.8600506782531738,2.060050678253174,0.005762577056884766,0.0,-0.2608768122445718,0.0,-5.319504147041605,0.878597109638095,0.07614876944629358,0.004860133492493751,0.0005336108127966749,nan,nan,nan,nan
10.955662965774536,-0.057256788,-0.09636479,-3.0359476,-0.0010581172628132771,nan,nan,nan,nan,nan,0.9536609649658203,2.1536609649658205,0.0056324005126953125,0.0,-0.2986133871827001,0.0,-5.30528495954182,0.8785971096381059,0.19081550730197733,-0.0013455297467413838,0.0007710258489272999,nan,nan,nan,nan
11.069481134414673,-0.061671548,-0.10740635,-3.1865723,-0.0012185270351154059,nan,nan,nan,nan,nan,1.0675454139709473,2.2675454139709474,0.005753517150878906,0.0,-0.33127653805298923,0.0,-5.2846310225338,0.8785971096381059,0.2698597108835227,-0.005270914837237933,0.0009437601729759686,nan,nan,nan,nan
11.16227102279663,-0.062361754,-0.116856545,-3.3437078,-0.0014820640681531185,nan,nan,nan,nan,nan,1.1604301929473877,2.360430192947388,0.005822420120239258,0.0,-0.3461221054304131,0.0,-5.265221425879324,0.8785971096381059,0.23846895830512477,-0.0002183828713598576,0.0015338240571359468,nan,nan,nan,nan
11.258957147598267,-0.06143435,-0.12514849,-3.5853486,-0.001818400275343815,nan,nan,nan,nan,nan,1.2570390701293945,2.4570390701293947,0.005115985870361328,0.0,-0.34975031801747486,0.0,-5.24276913551722,0.8566286282645601,0.16829156193761283,0.009846853881972845,0.0020177153368410405,nan,nan,nan,nan
11.370793342590332,-0.06249503,-0.12595174,-3.829991,0.016130861816093835,nan,nan,nan,nan,nan,1.3687961101531982,2.5687961101531984,0.005527973175048828,0.0,-0.3387849378721566,0.0,-5.214170812050338,0.7601555324023532,0.10032343720492957,0.002561621149854949,-0.021621176546355262,nan,nan,nan,nan
11.464970350265503,-0.06757124,-0.11896761,-4.136588,0.02268422940611626,nan,nan,nan,nan,nan,1.4630751609802246,2.663075160980225,0.005942106246948242,0.0,-0.3172418279181547,0.0,-5.188088898100386,0.6401010092877184,-0.013391429915123017,-0.011240289115155242,-0.030419260253583248,nan,nan,nan,nan
11.555851697921753,-0.067924455,-0.10863405,-4.329812,0.025876017182189195,nan,nan,nan,nan,nan,1.5538578033447266,2.7538578033447267,0.00539398193359375,0.0,-0.2865534876164318,0.0,-5.1614962911847115,0.5811415463900537,-0.05463010127995516,-0.014046779759489661,-0.03308725849344206,nan,nan,nan,nan
11.671082735061646,-0.06185548,-0.082925156,-4.6211333,0.024048982034881396,nan,nan,nan,nan,nan,1.6690802574157715,2.8690802574157717,0.0057260990142822266,0.0,-0.2350758987965368,0.0,-5.125982317910241,0.5228159280126029,-0.11567730004550383,-0.006858985916002239,-0.035914447174123176,nan,nan,nan,nan
11.765856504440308,-0.04662646,-0.05283371,-4.840252,0.012719244094051133,nan,nan,nan,nan,nan,1.7638978958129883,2.9638978958129885,0.006083965301513672,0.0,-0.18386991115392812,0.0,-5.095566409669129,0.5073177212091389,-0.1626397670128804,0.022951261047969476,-0.024135377668480788,nan,nan,nan,nan
11.857054471969604,-0.035618525,-0.033722695,-4.9408903,0.005811797768046488,nan,nan,nan,nan,nan,1.8550481796264648,3.055048179626465,0.005624532699584961,0.0,-0.12881328144283885,0.0,-5.065567448369,0.5145342235431644,-0.18274217924847955,0.04951511506833426,-0.011676507948108832,nan,nan,nan,nan
11.967501640319824,-0.014532388,0.008742175,-5.071493,-0.005253175782350912,nan,nan,nan,nan,nan,1.9654979705810547,3.165497970581055,0.0067386627197265625,0.0,-0.05692436274260749,0.0,-5.028557398363514,0.5362129341007861,-0.20790225145621388,0.07133910326913837,0.0019054674840663032,nan,nan,nan,nan
12.064761638641357,0.007475897,0.061614502,-5.1516576,-0.013062810074727609,nan,nan,nan,nan,nan,2.062864065170288,3.2628640651702883,0.0068929195404052734,0.0,0.008703581749763337,0.0,-4.995647872648036,0.5772290620596464,-0.22538682236510696,0.07687276198040609,0.014962968983465181,nan,nan,nan,nan
12.15854287147522,0.019228771,0.10336353,-5.179647,-0.015084739117042011,nan,nan,nan,nan,nan,2.1565754413604736,3.356575441360474,0.0052242279052734375,0.0,0.07160518787803823,0.0,-4.964006571785059,0.6074661478300516,-0.23857389294901116,0.06649651781608482,0.020180461600955688,nan,nan,nan,nan
12.27052092552185,0.030038757,0.14852127,-5.1865315,-0.015496778016997382,nan,nan,nan,nan,nan,2.2685515880584717,3.468551588058472,0.005715847015380859,0.0,0.14352204369707455,0.0,-4.926607248277131,0.6429184848433709,-0.22951545195757414,0.0315051281237348,0.02056685279292242,nan,nan,nan,nan
12.363634824752808,0.04453685,0.1968435,-5.165393,-0.017940543629777945,nan,nan,nan,nan,nan,2.3616878986358643,3.5616878986358644,0.005681514739990234,0.0,0.19837017947240898,0.0,-4.896136277050728,0.6754439459750785,-0.1916436280065734,0.008399033672207722,0.02298753605973685,nan,nan,nan,nan
12.457088470458984,0.053402584,0.2220286,-5.144585,-0.01904708868293037,nan,nan,nan,nan,nan,2.4550845623016357,3.655084562301636,0.005507707595825195,0.0,0.24692912534109637,0.0,-4.8664251666392495,0.6902350991168146,-0.18040467275193744,-0.0015780688228470554,0.0237988754706344,nan,nan,nan,nan
12.570900201797485,0.064045735,0.25041622,-5.1038747,-0.01964915130597405,nan,nan,nan,nan,nan,2.5689034461975098,3.76890344619751,0.0057697296142578125,0.0,0.29511653530279136,0.0,-4.831711411462002,0.7125666326128735,-0.10933262226082997,-0.01628871972293882,0.024856657775362185,nan,nan,nan,nan
12.666728496551514,0.067479156,0.2671839,-5.0568714,-0.019057023453180312,nan,nan,nan,nan,nan,2.6647233963012695,3.8647233963012697,0.005795955657958984,0.0,0.32472545579377254,0.0,-4.804048481147078,0.7302516310283285,-0.004316643825260086,-0.029871894415867378,0.0250872641946244,nan,nan,nan,nan
12.771376371383667,0.06342161,0.2705849,-5.0087323,-0.01654791112098139,nan,nan,nan,nan,nan,2.769375801086426,3.969375801086426,0.00618290901184082,0.0,0.3443430442253387,0.0,-4.775762900690983,0.7403458340065994,0.05051219844775225,-0.04625938629233622,0.02216296370099074,nan,nan,nan,nan
12.867154359817505,0.05787385,0.26292774,-4.9746337,-0.01564444029739099,nan,nan,nan,nan,nan,2.8652193546295166,4.065219354629517,0.0063745975494384766,0.0,0.34999516315959334,0.0,-4.751862925299096,0.7462669550901508,0.0933320269650462,-0.05693657804346934,0.020257092556567786,nan,nan,nan,nan
12.955390214920044,0.055572428,0.25120744,-4.950393,-0.0160583010271919,nan,nan,nan,nan,nan,2.9533989429473877,4.153398942947388,0.005444049835205078,0.0,0.34460947864261243,0.0,-4.731749407620227,0.7487673843899695,0.10048774627748633,-0.05635088456403919,0.020059654039131913,nan,nan,nan,nan
13.065436601638794,0.050196968,0.22170706,-4.9161587,-0.016715439244299288,nan,nan,nan,nan,nan,3.063450574874878,4.263450574874878,0.0067386627197265625,0.0,0.3239180297730146,0.0,-4.709394990796358,0.7503356242257219,0.11324308871906459,-0.048676033155663566,0.021713870854942384,nan,nan,nan,nan
13.158274173736572,0.040487695,0.17106968,-4.881472,-0.01699492974633677,nan,nan,nan,nan,nan,3.1562676429748535,4.356267642974854,0.005208253860473633,0.0,0.29505428069434614,0.0,-4.693086279820141,0.7518217330460927,0.16086720585944603,-0.03694127999118959,0.023410333707372197,nan,nan,nan,nan
13.268666982650757,0.029819306,0.12117508,-4.8594265,-0.015993953286005197,nan,nan,nan,nan,nan,3.2666659355163574,4.466665935516358,0.0065765380859375,0.0,0.24848251240092495,0.0,-4.676912646574589,0.752149364168718,0.19664401823558794,-0.03362228409771015,0.021824018908614073,nan,nan,nan,nan
13.363688230514526,0.010251184,0.049469016,-4.831663,-0.01566499086088424,nan,nan,nan,nan,nan,3.36169695854187,4.56169695854187,0.005350351333618164,0.0,0.19926961337502594,0.0,-4.665928625783542,0.7526845256767103,0.21229008575301891,-0.03818173533638079,0.021416552975849344,nan,nan,nan,nan
13.460596561431885,0.0020717892,-5.9404643e-05,-4.817124,-0.013751582426271334,nan,nan,nan,nan,nan,3.4586398601531982,4.658639860153198,0.00515294075012207,0.0,0.14216832017051326,0.0,-4.657626793124165,0.7535478868729141,0.2099779658348868,-0.032727507042847284,0.019366250682443537,nan,nan,nan,nan
13.569501399993896,-0.0045387936,-0.06329689,-4.8037047,-0.008223649804499753,nan,nan,nan,nan,nan,3.5675079822540283,4.7675079822540285,0.005872964859008789,0.0,0.0722121590372613,0.0,-4.651887698917122,0.7534816233271928,0.19526803102556245,-0.012306866486767752,0.014235406065904524,nan,nan,nan,nan
13.660929679870605,-0.00892598,-0.1293504,-4.7991056,0.0010410862927812403,nan,nan,nan,nan,nan,3.6592493057250977,4.859249305725098,0.005271434783935547,0.0,0.01065607173800967,0.0,-4.650040565990652,0.7511319949114076,0.15823481000818473,0.018188813872795938,0.0022258329455007967,nan,nan,nan,nan
13.759083032608032,-0.011253723,-0.1741245,-4.8037567,0.008531281969384425,nan,nan,nan,nan,nan,3.757077693939209,4.957077693939209,0.0050699710845947266,0.0,-0.05530515687048264,0.0,-4.651101015758585,0.7500795303989928,0.14457244362900606,0.02947633846637027,-0.009286888291705845,nan,nan,nan,nan
13.870970964431763,-0.012540386,-0.22733863,-4.821419,0.01950132296145852,nan,nan,nan,nan,nan,3.8690037727355957,5.069003772735596,0.006221771240234375,0.0,-0.12821659447994002,0.0,-4.656136464993261,0.7460803160017032,0.1280264618069533,0.03342524283885448,-0.024147196831645727,nan,nan,nan,nan
13.964425563812256,-0.009859214,-0.27847236,-4.845253,0.03122098465859907,nan,nan,nan,nan,nan,3.962672233581543,5.162672233581543,0.0077991485595703125,0.0,-0.18477307387087522,0.0,-4.663445179799151,0.7400061422863062,0.0830037580855415,0.03061933383595757,-0.03932807001961447,nan,nan,nan,nan
14.069393634796143,-0.0074340785,-0.30035472,-4.8566837,0.03604213134353072,nan,nan,nan,nan,nan,4.067397356033325,5.267397356033325,0.0061299800872802734,0.0,-0.24077142249817612,0.0,-4.674877684276426,0.7406747430583527,0.07449503819664428,0.025306825483143752,-0.047859620682761055,nan,nan,nan,nan
14.161282777786255,-0.0030228973,-0.3226041,-4.879594,0.040117773009912455,nan,nan,nan,nan,nan,4.15932297706604,5.35932297706604,0.005070924758911133,0.0,-0.28188703245427515,0.0,-4.687661208288898,0.7396311924714063,0.03394958721813731,0.016989007207093277,-0.05400150889242021,nan,nan,nan,nan
14.255059480667114,-0.00085086946,-0.32710993,-4.894865,0.04092582130076568,nan,nan,nan,nan,nan,4.253073692321777,5.4530736923217775,0.005544424057006836,0.0,-0.3146656401230677,0.0,-4.7032362315641585,0.7404229787935531,0.012445980450004697,0.009777230666929107,-0.056208645006895874,nan,nan,nan,nan
14.370017290115356,0.008582435,-0.31900433,-4.929672,0.039965690555564454,nan,nan,nan,nan,nan,4.3680479526519775,5.568047952651978,0.006113290786743164,0.0,-0.34070846889723544,0.0,-4.725647327609595,0.7384977064786143,-0.030995448151638683,0.009470128462766526,-0.05616158829409717,nan,nan,nan,nan
14.464977502822876,0.00736331,-0.30359718,-4.971462,0.03590961593833274,nan,nan,nan,nan,nan,4.463037014007568,5.6630370140075685,0.006066799163818359,0.0,-0.34960864665918884,0.0,-4.746730030875106,0.7328555627717463,-0.07937206893050539,0.0033286390708119756,-0.05140467434440144,nan,nan,nan,nan
14.561248779296875,0.005645688,-0.2815408,-5.0005546,0.032270424721202964,nan,nan,nan,nan,nan,4.559333562850952,5.759333562850952,0.005068063735961914,0.0,-0.3466303268817952,0.0,-4.770280116790364,0.731710241534826,-0.08743037985570325,-0.007487907377353787,-0.046790047158129455,nan,nan,nan,nan
14.656913995742798,0.004034671,-0.24586934,-5.0394635,0.02681623612068495,nan,nan,nan,nan,nan,4.654921531677246,5.854921531677246,0.005320549011230469,0.0,-0.33182565354684224,0.0,-4.79562456185101,0.7287041296870401,-0.12006597636904223,-0.015566384685192442,-0.039435647217707,nan,nan,nan,nan
14.76760196685791,0.0030573842,-0.20240381,-5.080398,0.020748107232910654,nan,nan,nan,nan,nan,4.765603303909302,5.965603303909302,0.007321834564208984,0.0,-0.30061941907332274,0.0,-4.827134393117326,0.726255434137805,-0.12987255213506052,-0.012638188441118735,-0.031357760241866414,nan,nan,nan,nan
14.864532232284546,4.4938934e-05,-0.16289186,-5.1037717,0.016515725459728157,nan,nan,nan,nan,nan,4.862573623657227,6.062573623657227,0.005877256393432617,0.0,-0.26194572409248823,0.0,-4.856378232741061,0.7283147938738807,-0.13787323581774816,-0.011943113283255561,-0.025097388984466222,nan,nan,nan,nan
14.966017723083496,-0.008079997,-0.102542564,-5.1406226,0.012304962599743672,nan,nan,nan,nan,nan,4.96417760848999,6.16417760848999,0.0064029693603515625,0.0,-0.21160379281210265,0.0,-4.888367750292332,0.7271664432556876,-0.16057780027040047,-0.015044988527952373,-0.018357906958923347,nan,nan,nan,nan
15.05903935432434,-0.017229775,-0.04501986,-5.1693726,0.00912851626507565,nan,nan,nan,nan,nan,5.057043790817261,6.257043790817261,0.005172014236450195,0.0,-0.15841791133860286,0.0,-4.918555285921726,0.726662680271149,-0.171913996754685,-0.02088620542700922,-0.013904071520160976,nan,nan,nan,nan
15.170976638793945,-0.029469218,0.023679225,-5.1966696,0.006301670920807614,nan,nan,nan,nan,nan,5.168990850448608,6.368990850448609,0.006343841552734375,0.0,-0.0877026834807403,0.0,-4.955794660495151,0.7277026749295277,-0.1824536372984524,-0.026531333017414466,-0.008691599944066156,nan,nan,nan,nan
15.26870083808899,-0.038233534,0.070682615,-5.214955,0.0053847924860866495,nan,nan,nan,nan,nan,5.266798257827759,6.466798257827759,0.006483316421508789,0.0,-0.022450558838033582,0.0,-4.988768936846281,0.7311194110230183,-0.1819031460045121,-0.029992577191856308,-0.006990933093659343,nan,nan,nan,nan
15.364768743515015,-0.043375894,0.1279243,-5.246677,0.0057090504352392685,nan,nan,nan,nan,nan,5.36286735534668,6.56286735534668,0.006643056869506836,0.0,0.04243458632651617,0.0,-5.021256531641328,0.7305078049232567,-0.15432143574829996,-0.020047115178448836,-0.0065624849731702375,nan,nan,nan,nan
15.465856313705444,-0.041983888,0.16528346,-5.265086,0.005991644494757316,nan,nan,nan,nan,nan,5.4638824462890625,6.663882446289063,0.005830287933349609,0.0,0.10904521060602601,0.0,-5.055213972013002,0.731365043309411,-0.1387901068716267,-0.003818882091648748,-0.006613607961603839,nan,nan,nan,nan
15.560262441635132,-0.04135717,0.21495673,-5.293062,0.00624483094580968,nan,nan,nan,nan,nan,5.558326721191406,6.758326721191406,0.005151510238647461,0.0,0.16762072880382,0.0,-5.0864930196986275,0.7299784120651521,-0.09258620315996421,0.021130335020838012,-0.0067543769851145475,nan,nan,nan,nan
15.658307790756226,-0.04132799,0.2421633,-5.3126545,0.006241401200823754,nan,nan,nan,nan,nan,5.656316757202148,6.856316757202149,0.0053730010986328125,0.0,0.22248090788795802,0.0,-5.118181540241672,0.7309013546462635,-0.08422980474134818,0.026460445143867556,-0.006811726774012157,nan,nan,nan,nan
15.771463871002197,-0.039475143,0.26894787,-5.340716,0.004812010986409251,nan,nan,nan,nan,nan,5.7695043087005615,6.969504308700562,0.006090402603149414,0.0,0.27582870063295184,0.0,-5.1534481049309235,0.7299734408848969,-0.056698507767459806,0.02767672151642759,-0.00588739932281333,nan,nan,nan,nan
15.864167213439941,-0.03594286,0.28549483,-5.3672905,0.00250272802774483,nan,nan,nan,nan,nan,5.862302780151367,7.062302780151367,0.0058443546295166016,0.0,0.3098475696322958,0.0,-5.181011130114476,0.727927710571022,-0.018820684402925367,0.024445948128017647,-0.003822632223348888,nan,nan,nan,nan
15.959702014923096,-0.030958233,0.2874904,-5.385027,0.00011380243466004719,nan,nan,nan,nan,nan,5.9576945304870605,7.157694530487061,0.005187511444091797,0.0,0.3344417920104227,0.0,-5.207825205751333,0.7274805397561647,-0.007492015675880723,0.022177166712276784,-0.0011407544388725825,nan,nan,nan,nan
16.067338705062866,-0.021146644,0.2755181,-5.4110646,-0.0033371181336264294,nan,nan,nan,nan,nan,6.065411806106567,7.265411806106568,0.006034135818481445,0.0,0.3485507103903551,0.0,-5.235969919276565,0.724813284754489,0.04439072902598177,0.021402330820620562,0.0028918819549583904,nan,nan,nan,nan
16.159101009368896,-0.015708582,0.26206547,-5.427337,-0.005031210292707963,nan,nan,nan,nan,nan,6.157097339630127,7.357097339630127,0.005236387252807617,0.0,0.34869989055457795,0.0,-5.257923250995908,0.7227434261878734,0.06747447419619192,0.023922661263333086,0.006454296390224734,nan,nan,nan,nan
16.271725177764893,-0.015299301,0.22742993,-5.454415,-0.007214672777509895,nan,nan,nan,nan,nan,6.2697224617004395,7.46972246170044,0.006491422653198242,0.0,0.3339559508074714,0.0,-5.2821027626842145,0.7192490668814036,0.10265843245153854,0.01040614243379574,0.009286190783038216,nan,nan,nan,nan
16.363328218460083,-0.014795667,0.17653337,-5.473294,-0.008364759318756111,nan,nan,nan,nan,nan,6.361608982086182,7.561608982086182,0.00519251823425293,0.0,0.3101893343180623,0.0,-5.2993673806945205,0.7158103056672921,0.16049836619265145,-0.009078663306247414,0.010892277758452364,nan,nan,nan,nan
16.454657793045044,-0.015637757,0.1374599,-5.4810667,-0.008763365560607066,nan,nan,nan,nan,nan,6.452669382095337,7.652669382095337,0.006508827209472656,0.0,0.2770018086737916,0.0,-5.314148638112737,0.7152312615846719,0.17384311995691726,-0.016987925394136967,0.011341535179765229,nan,nan,nan,nan
16.56500482559204,-0.020901337,0.07089028,-5.492582,-0.009810630201249053,nan,nan,nan,nan,nan,6.563018798828125,7.763018798828125,0.0060122013092041016,0.0,0.22542635130671868,0.0,-5.328791619279902,0.7145084757765888,0.1930609961562019,-0.024170962007815433,0.012045381829214342,nan,nan,nan,nan
16.658395528793335,-0.030016478,0.0036138962,-5.5018153,-0.011283296834401792,nan,nan,nan,nan,nan,6.656390905380249,7.856390905380249,0.00526738166809082,0.0,0.17369498948842232,0.0,-5.338268023211975,0.7138569714926766,0.20812112620345063,-0.04041702746976469,0.01432264335075253,nan,nan,nan,nan
16.75455379486084,-0.035632066,-0.052136756,-5.5049143,-0.012156881357892549,nan,nan,nan,nan,nan,6.752553224563599,7.952553224563599,0.0067594051361083984,0.0,0.11453663558414114,0.0,-5.34514850769951,0.7137271048747923,0.21274659640226115,-0.042750346744391855,0.015482142157603672,nan,nan,nan,nan
16.866820812225342,-0.03838572,-0.12929665,-5.5058875,-0.012181385919676893,nan,nan,nan,nan,nan,6.864910840988159,8.064910840988158,0.005841732025146484,0.0,0.040567982409845445,0.0,-5.3494097429041,0.7144391196615086,0.2015995597001602,-0.028916139066630573,0.0160389119709473,nan,nan,nan,nan
16.957329273223877,-0.0429196,-0.18870132,-5.501277,-0.010183777089559396,nan,nan,nan,nan,nan,6.955369710922241,8.15536971092224,0.005524635314941406,0.0,-0.02053788226671664,0.0,-5.349849193105135,0.7167016265162746,0.15972258774978235,-0.009677924986740244,0.014268569522559607,nan,nan,nan,nan
17.06767511367798,-0.044868086,-0.23821251,-5.494853,-0.0070945862094071825,nan,nan,nan,nan,nan,7.0657126903533936,8.265712690353393,0.005666971206665039,0.0,-0.09404330865213376,0.0,-5.346767281252535,0.7181601588752986,0.11170572597519789,0.0033448783699905685,0.009624167086738036,nan,nan,nan,nan
17.15989637374878,-0.043871887,-0.2658951,-5.4906793,-0.00508935016311364,nan,nan,nan,nan,nan,7.157902240753174,8.357902240753173,0.005234718322753906,0.0,-0.15232209643510075,0.0,-5.341167507539975,0.7170832240990971,0.09722967561433594,0.012105461603921126,0.006583704830355352,nan,nan,nan,nan
17.270519256591797,-0.0399083,-0.30239755,-5.482374,-0.003035259061658656,nan,nan,nan,nan,nan,7.268517732620239,8.468517732620239,0.006380319595336914,0.0,-0.21572786684360773,0.0,-5.330880560572654,0.7165887458886114,0.05199469792134295,0.024382237738970823,0.0032665635643681786,nan,nan,nan,nan
17.360636472702026,-0.034984197,-0.32003093,-5.476644,-0.0008325539111674954,nan,nan,nan,nan,nan,7.358628988265991,8.55862898826599,0.005254507064819336,0.0,-0.2602345094278292,0.0,-5.319700212242705,0.716173353471683,-0.00407145709753041,0.030756236987099624,0.0010218437416758747,nan,nan,nan,nan
17.45905566215515,-0.029056964,-0.32556224,-5.4648786,0.0007309636518351703,nan,nan,nan,nan,nan,7.457051038742065,8.657051038742065,0.0052640438079833984,0.0,-0.2998034952475349,0.0,-5.304722379862012,0.7148139892950769,-0.02089509572262436,0.03229735032833139,-0.0012335957782922818,nan,nan,nan,nan
17.570399284362793,-0.020815838,-0.32135844,-5.4412346,0.00212790956525679,nan,nan,nan,nan,nan,7.568400859832764,8.768400859832763,0.009645223617553711,0.0,-0.33146287071400843,0.0,-5.284462500635633,0.7169613053505741,-0.05453249740809052,0.03129427854326894,-0.003144779608845045,nan,nan,nan,nan
17.666894674301147,-0.016089933,-0.31219542,-5.4248414,0.0024835772149793267,nan,nan,nan,nan,nan,7.665006160736084,8.865006160736083,0.005432605743408203,0.0,-0.3465681976691404,0.0,-5.264208632473856,0.7175519780889233,-0.04838880650454933,0.027943387928528116,-0.003975777866916017,nan,nan,nan,nan
17.763293027877808,-0.009185389,-0.2933735,-5.402715,0.00265527153955622,nan,nan,nan,nan,nan,7.761343240737915,8.961343240737914,0.005372762680053711,0.0,-0.34962822110736497,0.0,-5.241718077895445,0.7200438302078235,-0.0727211509949195,0.022682286214431645,-0.00396626874080378,nan,nan,nan,nan
17.857258558273315,0.003424876,-0.26217845,-5.374597,0.002636028464250019,nan,nan,nan,nan,nan,7.855255603790283,9.055255603790282,0.005853176116943359,0.0,-0.3409693764684567,0.0,-5.217775654716129,0.7216026556682644,-0.09289598822756899,0.02019436112375137,-0.003884605137711078,nan,nan,nan,nan
17.96773409843445,0.0139974635,-0.2293581,-5.3509274,0.002671475806956026,nan,nan,nan,nan,nan,7.965839862823486,9.165839862823486,0.0068628787994384766,0.0,-0.316447083284204,0.0,-5.187299403307768,0.7201025021715262,-0.08990316482105051,0.020098027055297403,-0.0039570640804999675,nan,nan,nan,nan
18.067800521850586,0.024802983,-0.18102776,-5.319946,0.002866410566956565,nan,nan,nan,nan,nan,8.06588339805603,9.26588339805603,0.006886005401611328,0.0,-0.2818042370625797,0.0,-5.157875901212774,0.722526788807574,-0.1271205066544857,0.018424283337278607,-0.004302537812491925,nan,nan,nan,nan
18.16310739517212,0.029771624,-0.13747765,-5.29426,0.002345508315120086,nan,nan,nan,nan,nan,8.16112470626831,9.36112470626831,0.005120038986206055,0.0,-0.23903615171716505,0.0,-5.128489721924491,0.7226579582285471,-0.13325204551477537,0.010135213068905278,-0.003963595278429791,nan,nan,nan,nan
18.264175176620483,0.03089542,-0.09746722,-5.273268,0.0020379488586695707,nan,nan,nan,nan,nan,8.262215375900269,9.462215375900268,0.005158424377441406,0.0,-0.18483765743754457,0.0,-5.096113891518549,0.7213438132920669,-0.13768696925075463,-0.0017948544117883005,-0.003433020879782398,nan,nan,nan,nan
18.35793113708496,0.03193346,-0.03981486,-5.2420335,0.001276386776263537,nan,nan,nan,nan,nan,8.355934381484985,9.555934381484985,0.005366086959838867,0.0,-0.12825553244012278,0.0,-5.065272907883132,0.724017715475744,-0.15155925497516273,-0.017421632993849395,-0.0024468185504424016,nan,nan,nan,nan
18.46693444252014,0.03162312,0.019134356,-5.211472,-0.0003704831202222059,nan,nan,nan,nan,nan,8.465220928192139,9.665220928192138,0.005742549896240234,0.0,-0.05710931951728993,0.0,-5.028650815285952,0.7245386771775952,-0.1543078603452115,-0.022956743691863752,-0.0010429222738197609,nan,nan,nan,nan
18.56052303314209,0.03091584,0.06069974,-5.1890306,-0.001917388068822275,nan,nan,nan,nan,nan,8.558561325073242,9.758561325073241,0.005462169647216797,0.0,0.005792762322525204,0.0,-4.997103519652113,0.7241355591663459,-0.1574464874958453,-0.022379737079947042,0.0008654698356488496,nan,nan,nan,nan
18.658036470413208,0.030345842,0.11524638,-5.154072,-0.0050280622358760095,nan,nan,nan,nan,nan,8.656042337417603,9.856042337417602,0.005849361419677734,0.0,0.07125205460416548,0.0,-4.964185982873096,0.7284820066240587,-0.1402124235485444,-0.014151616425448531,0.005322871338531033,nan,nan,nan,nan
18.772079944610596,0.031112775,0.15499699,-5.1188607,-0.006149271352585604,nan,nan,nan,nan,nan,8.770084619522095,9.970084619522094,0.007269382476806641,0.0,0.14446751339192687,0.0,-4.9261001969875196,0.7318439243878186,-0.11197911944474158,-0.006395784357876918,0.007913538012863017,nan,nan,nan,nan
18.85376477241516,0.03163087,0.18261333,-5.087121,-0.006248116841849269,nan,nan,nan,nan,nan,8.851774215698242,10.051774215698241,0.007362842559814453,0.0,0.1928074500403968,0.0,-4.899343961308322,0.7329454260791867,-0.0960097972375461,-0.003251021791111623,0.008389130267076533,nan,nan,nan,nan
18.968214750289917,0.030387865,0.20097786,-5.050412,-0.00613109288133961,nan,nan,nan,nan,nan,8.966286182403564,10.166286182403564,0.0057828426361083984,0.0,0.2522424429800903,0.0,-4.8629301224571835,0.7363232359367312,-0.04713387676846613,-0.0009014619607683431,0.008273254991232043,nan,nan,nan,nan
19.061883449554443,0.026514424,0.21002607,-5.0175047,-0.005967165120486319,nan,nan,nan,nan,nan,9.059881687164307,10.259881687164306,0.005166053771972656,0.0,0.291789897055856,0.0,-4.834394076079788,0.7386286412902509,-0.022918489460287923,-0.0027845542035988217,0.00822732854929834,nan,nan,nan,nan
19.154387950897217,0.0218009,0.21308519,-4.9973574,-0.005557809687640837,nan,nan,nan,nan,nan,9.152398109436035,10.352398109436034,0.007147789001464844,0.0,0.3215218593847545,0.0,-4.807517475657249,0.741050398318,0.0102191400916475,-0.012393560054056603,0.007559580573676443,nan,nan,nan,nan
19.264121532440186,0.013126625,0.205687,-4.9614677,-0.004058503307346403,nan,nan,nan,nan,nan,9.26221489906311,10.46221489906311,0.0050487518310546875,0.0,0.3434424280891995,0.0,-4.777628442945478,0.7425681565263276,0.029947615029930957,-0.021222021842626133,0.0059332953715246165,nan,nan,nan,nan
19.355446100234985,0.012656867,0.18604822,-4.933893,-0.002575209879222294,nan,nan,nan,nan,nan,9.353446960449219,10.553446960449218,0.00672149658203125,0.0,0.34994639456648224,0.0,-4.7546878535047465,0.7436235509889487,0.07200231670270626,-0.01571348720524043,0.004023795864746367,nan,nan,nan,nan
19.46431541442871,0.015906611,0.15763605,-4.906068,-0.0010288257519525598,nan,nan,nan,nan,nan,9.46231460571289,10.66231460571289,0.005236625671386719,0.0,0.34350362384035893,0.0,-4.729821880211225,0.744281000921615,0.09860124353111814,0.0054354746313773775,0.0022057610410813155,nan,nan,nan,nan
19.555443048477173,0.017788969,0.13917519,-4.8927565,-0.00014432574412045346,nan,nan,nan,nan,nan,9.55343747138977,10.75343747138977,0.006762266159057617,0.0,0.3264236650850674,0.0,-4.711296588238503,0.7453058501155879,0.09300875974169451,0.016628070667791962,0.0008911324889691421,nan,nan,nan,nan
19.66308093070984,0.017980784,0.09710715,-4.867351,0.0011639809833380414,nan,nan,nan,nan,nan,9.66108226776123,10.86108226776123,0.00538945198059082,0.0,0.29328916158750157,0.0,-4.692306622987053,0.7468127639895306,0.10504533739582642,0.019606205284937506,-0.0009394540700554963,nan,nan,nan,nan
19.754945755004883,0.015796613,0.06156771,-4.855631,0.0013950000404095164,nan,nan,nan,nan,nan,9.752987146377563,10.952987146377563,0.0068018436431884766,0.0,0.2549132606207066,0.0,-4.678720461104217,0.7470778389817698,0.11198087986412358,0.013324733838609404,-0.0017776004240625486,nan,nan,nan,nan
19.86889672279358,0.011262223,0.004681446,-4.8440175,0.001593907810980625,nan,nan,nan,nan,nan,9.866919994354248,11.066919994354247,0.006056785583496094,0.0,0.19635405854922097,0.0,-4.6654058630741035,0.7455820385116565,0.13122848323814082,-0.00302640441119811,-0.002018068151086838,nan,nan,nan,nan
19.960124492645264,0.0045178602,-0.04564776,-4.840063,0.002384002512400939,nan,nan,nan,nan,nan,9.958121538162231,11.15812153816223,0.005384206771850586,0.0,0.14248873457758437,0.0,-4.657663244971014,0.7436470678942799,0.15069808443764224,-0.015270688736777439,-0.002912014170963677,nan,nan,nan,nan
20.066011428833008,-0.005365913,-0.09691823,-4.839664,0.0034488534616316235,nan,nan,nan,nan,nan,10.064074754714966,11.264074754714965,0.005199909210205078,0.0,0.07448366496785264,0.0,-4.652010091043668,0.7416961596895137,0.1453459314410756,-0.02465492766704629,-0.0046026679680659785,nan,nan,nan,nan
20.160634756088257,-0.0114803165,-0.12584436,-4.837645,0.003599461494909581,nan,nan,nan,nan,nan,10.158637285232544,11.358637285232543,0.0053784847259521484,0.0,0.01106999631097028,0.0,-4.650043779695616,0.7431113634359546,0.1375160072902392,-0.029335046774690145,-0.005214199505413761,nan,nan,nan,nan
20.25848889350891,-0.024103262,-0.17474258,-4.841117,0.0026561287686110747,nan,nan,nan,nan,nan,10.256538152694702,11.456538152694701,0.006187915802001953,0.0,-0.0549446324764081,0.0,-4.651086595656263,0.743654831639998,0.12366361858279307,-0.030904191272614987,-0.004682156704357933,nan,nan,nan,nan
20.368183612823486,-0.034034535,-0.216693,-4.852139,0.0015924275459077465,nan,nan,nan,nan,nan,10.36624550819397,11.566245508193969,0.004933357238769531,0.0,-0.12647814186957204,0.0,-4.655963707746005,0.7426289016310824,0.10427981741296662,-0.026052438285504877,-0.003179623708943788,nan,nan,nan,nan
20.471900939941406,-0.03928994,-0.24514866,-4.866092,0.0008698512479824901,nan,nan,nan,nan,nan,10.469976902008057,11.669976902008056,0.006131410598754883,0.0,-0.18895231419346245,0.0,-4.664131967362287,0.7409193203976393,0.07766409156333497,-0.011561759772982577,-0.0022469707351811968,nan,nan,nan,nan
20.56414771080017,-0.041126102,-0.25758624,-4.8772197,0.0005531648236553471,nan,nan,nan,nan,nan,10.562142133712769,11.762142133712768,0.0050868988037109375,0.0,-0.23817817433172347,0.0,-4.674223536687871,0.7415291475021838,0.06727803652218795,0.0004876397832615046,-0.0019035851171552915,nan,nan,nan,nan
20.655741214752197,-0.043512296,-0.26751706,-4.8989153,0.000878893900388214,nan,nan,nan,nan,nan,10.653770685195923,11.853770685195922,0.006373167037963867,0.0,-0.2796439216427915,0.0,-4.68681804245617,0.7396705812778239,0.025082792654654008,0.013941086286619348,-0.0019709989418026518,nan,nan,nan,nan
20.761736154556274,-0.040389128,-0.26325253,-4.919461,0.0016956597098267759,nan,nan,nan,nan,nan,10.75974154472351,11.95974154472351,0.005181312561035156,0.0,-0.31661496686803503,0.0,-4.704438381544079,0.7392173618698016,-0.013137099655871122,0.026198463255890172,-0.002833166096139207,nan,nan,nan,nan
20.86668372154236,-0.038178008,-0.2543832,-4.938454,0.0022220346523868506,nan,nan,nan,nan,nan,10.86471939086914,12.06471939086914,0.0049703121185302734,0.0,-0.3401858997034065,0.0,-4.72494949500476,0.7385909925845114,-0.05054437883491354,0.03264647261294443,-0.003657596247289609,nan,nan,nan,nan
20.956721544265747,-0.0347044,-0.238383,-4.960026,0.002481526601358558,nan,nan,nan,nan,nan,10.954720258712769,12.154720258712768,0.009427785873413086,0.0,-0.3492974184281316,0.0,-4.744796201747768,0.740981135473337,-0.04107736216984038,0.03068115040833752,-0.003999721930280117,nan,nan,nan,nan
21.068261861801147,-0.029890042,-0.21742865,-4.981594,0.002723991014775641,nan,nan,nan,nan,nan,11.066310167312622,12.266310167312621,0.005330324172973633,0.0,-0.34594533253168197,0.0,-4.772066133199302,0.7387562785759506,-0.06933993803173286,0.02410848011323291,-0.003891118700962623,nan,nan,nan,nan
21.15856623649597,-0.022729307,-0.19116443,-5.0061846,0.002490979409518663,nan,nan,nan,nan,nan,11.156564235687256,12.356564235687255,0.006851911544799805,0.0,-0.33147045433817224,0.0,-4.796075994435609,0.7402417195868444,-0.06306796596238251,0.023713178232862144,-0.003959616607776774,nan,nan,nan,nan
21.254940271377563,-0.020957442,-0.16059057,-5.028175,0.002370246863439552,nan,nan,nan,nan,nan,11.252957344055176,12.452957344055175,0.006967306137084961,0.0,-0.3049113211255503,0.0,-4.823427214016779,0.7392711474771216,-0.07357035043127323,0.01894916634339888,-0.0035100691092138413,nan,nan,nan,nan
21.351502418518066,-0.025835462,-0.10855401,-5.0609818,0.0022639569481498305,nan,nan,nan,nan,nan,11.349647521972656,12.549647521972656,0.00780034065246582,0.0,-0.26766423784606524,0.0,-4.85240147402899,0.7350618764903762,-0.11225317101195255,-0.0012162809526141975,-0.0028097857955972525,nan,nan,nan,nan
21.47011375427246,-0.03319223,-0.05706569,-5.0884833,0.0021760169855948707,nan,nan,nan,nan,nan,11.468209743499756,12.668209743499755,0.00637507438659668,0.0,-0.2094241406905554,0.0,-4.889661520141893,0.7355953546955282,-0.13247713142114115,-0.026911939725165847,-0.0024585544599520343,nan,nan,nan,nan
21.563769578933716,-0.03775261,-0.014592737,-5.112343,0.0021594950476899605,nan,nan,nan,nan,nan,11.561762809753418,12.761762809753417,0.005414485931396484,0.0,-0.15556403923902945,0.0,-4.9201088640350115,0.736091113407822,-0.15063693767592645,-0.03573686897341038,-0.00238390144251693,nan,nan,nan,nan
21.66098117828369,-0.040531855,0.05013786,-5.1471467,0.0022098493437886745,nan,nan,nan,nan,nan,11.659015893936157,12.859015893936157,0.005614519119262695,0.0,-0.09422019552037475,0.0,-4.952449011868787,0.7313531310437248,-0.17400604934563169,-0.030294002340946664,-0.002581054901561465,nan,nan,nan,nan
21.754789352416992,-0.044768706,0.092092,-5.1715803,0.002531132568585338,nan,nan,nan,nan,nan,11.752876996994019,12.952876996994018,0.006360769271850586,0.0,-0.031841725702672484,0.0,-4.984062605690263,0.7301080894794454,-0.18391987532992451,-0.023299969613440524,-0.0023803987044535534,nan,nan,nan,nan
21.870275020599365,-0.05348375,0.16117147,-5.215811,0.003614601255662729,nan,nan,nan,nan,nan,11.868339776992798,13.068339776992797,0.005889177322387695,0.0,0.04610774461457506,0.0,-5.023104266952691,0.7280159955709359,-0.18687132085906447,-0.018278075185801025,-0.003148625759399403,nan,nan,nan,nan
21.964585304260254,-0.061646823,0.22154903,-5.2599115,0.004939952210049042,nan,nan,nan,nan,nan,11.962581157684326,13.162581157684325,0.005188703536987305,0.0,0.10820817435441928,0.0,-5.054779182248665,0.7231200654008005,-0.1611182561017289,-0.016421729848084488,-0.0050957781681479145,nan,nan,nan,nan
22.058441400527954,-0.06630044,0.25954825,-5.2927976,0.005715133008674739,nan,nan,nan,nan,nan,12.056439876556396,13.256439876556396,0.0075871944427490234,0.0,0.16649882098238425,0.0,-5.085874308293812,0.7230025896381445,-0.15665390847932903,-0.013140424908838249,-0.00594436587155694,nan,nan,nan,nan
22.169893980026245,-0.07370357,0.3090145,-5.3457265,0.006264410604800541,nan,nan,nan,nan,nan,12.167910099029541,13.36791009902954,0.006266117095947266,0.0,0.22848034525798488,0.0,-5.121865996105382,0.718859897213279,-0.10237431710997195,-0.005053913412032702,-0.00710345111626076,nan,nan,nan,nan
22.268526792526245,-0.06826453,0.3286061,-5.3693943,0.005902469533959925,nan,nan,nan,nan,nan,12.266603946685791,13.46660394668579,0.005750417709350586,0.0,0.2746162944063849,0.0,-5.152565571842471,0.7196470208866719,-0.07890904715291226,0.008151345397300449,-0.006696370978545756,nan,nan,nan,nan
22.367725372314453,-0.06525386,0.34560034,-5.402378,0.00496992403962053,nan,nan,nan,nan,nan,12.36576771736145,13.56576771736145,0.00518798828125,0.0,0.31093096886432847,0.0,-5.182013440492403,0.7188789561403901,-0.004511801340211682,0.029432233559455047,-0.005594993494901808,nan,nan,nan,nan
22.465385675430298,-0.064814374,0.34990543,-5.425507,0.004303995185871899,nan,nan,nan,nan,nan,12.463385105133057,13.663385105133056,0.0050776004791259766,0.0,0.3355568039634911,0.0,-5.209371166398744,0.7202175570552352,0.007107225451918187,0.028748455735599338,-0.0046948693423045,nan,nan,nan,nan
22.56499171257019,-0.06311877,0.34389004,-5.4589515,0.0035652879867238765,nan,nan,nan,nan,nan,12.56300663948059,13.76300663948059,0.006120443344116211,0.0,0.3483989917446621,0.0,-5.235368303399821,0.7172691522831375,0.06850847157054542,0.018905929545276822,-0.004459474475533574,nan,nan,nan,nan
22.667603969573975,-0.05929459,0.33239087,-5.476034,0.0035127838254258026,nan,nan,nan,nan,nan,12.665668725967407,13.865668725967407,0.00522613525390625,0.0,0.3481525991221927,0.0,-5.259874650270366,0.7177617793545523,0.07501244821225292,0.016143526818488144,-0.004174974131034204,nan,nan,nan,nan
22.76515531539917,-0.048569243,0.2967049,-5.5004845,0.0032088709322418835,nan,nan,nan,nan,nan,12.763149499893188,13.963149499893188,0.005210399627685547,0.0,0.3352601071037747,0.0,-5.280780799683072,0.7158123598620559,0.12173597124838906,0.01858476786826977,-0.004431605873678559,nan,nan,nan,nan
22.86292862892151,-0.04351998,0.27039883,-5.5117106,0.0025942036802530932,nan,nan,nan,nan,nan,12.860928773880005,14.060928773880004,0.005864620208740234,0.0,0.3104022587555045,0.0,-5.299248090583969,0.7148813348197164,0.1372638088893337,0.022704447247562598,-0.0037672575045341467,nan,nan,nan,nan
22.960907220840454,-0.037478667,0.21098931,-5.5300684,0.00046621476701596415,nan,nan,nan,nan,nan,12.958932161331177,14.158932161331176,0.006413698196411133,0.0,0.2743912444865112,0.0,-5.315077031050135,0.7134662140499262,0.17276279830840616,0.014934485703924487,-0.0017239567800473614,nan,nan,nan,nan
23.056323766708374,-0.035448458,0.16595438,-5.5409327,-0.00046623288000166227,nan,nan,nan,nan,nan,13.054409742355347,14.254409742355346,0.0066030025482177734,0.0,0.22985107533443122,0.0,-5.3277817550404265,0.7122819070089123,0.18970891764073158,0.005681425770276169,-0.00013037622930145177,nan,nan,nan,nan
23.170926570892334,-0.029626463,0.09668986,-5.5539722,-0.0017807973678858613,nan,nan,nan,nan,nan,13.168954610824585,14.368954610824584,0.0058841705322265625,0.0,0.16626398035403667,0.0,-5.339334362073937,0.710478046100143,0.21045673956136185,-0.003086313624488611,0.0016824134629106174,nan,nan,nan,nan
23.26706337928772,-0.029120585,0.018029086,-5.562232,-0.004099484700421078,nan,nan,nan,nan,nan,13.265061378479004,14.465061378479003,0.005730628967285156,0.0,0.10650629693142098,0.0,-5.345825422348386,0.7103712798165271,0.20951690134501466,-0.010502342854156396,0.003919948032569873,nan,nan,nan,nan
23.365613222122192,-0.031849634,-0.046262775,-5.5620294,-0.006489412608215922,nan,nan,nan,nan,nan,13.363610744476318,14.563610744476318,0.0056340694427490234,0.0,0.041441635245822325,0.0,-5.349383932416823,0.7102784187532374,0.201700122245177,-0.019833003012213284,0.006668425182689145,nan,nan,nan,nan
23.456424951553345,-0.034837265,-0.093021676,-5.559085,-0.008210562478972998,nan,nan,nan,nan,nan,13.454434871673584,14.654434871673583,0.006010293960571289,0.0,-0.019906379398844286,0.0,-5.349858333858312,0.7123812022980953,0.19156869064078474,-0.028107376536698887,0.00995812881634972,nan,nan,nan,nan
23.57163667678833,-0.041853704,-0.1591343,-5.5486226,-0.011303606793853643,nan,nan,nan,nan,nan,13.569652557373047,14.769652557373046,0.006418943405151367,0.0,-0.0966084313690644,0.0,-5.3465840178847,0.7146748267467643,0.16940193318001096,-0.03398424533925561,0.013823260491247602,nan,nan,nan,nan
23.668860912322998,-0.041057207,-0.2008493,-5.5407443,-0.01221501505424933,nan,nan,nan,nan,nan,13.66691517829895,14.86691517829895,0.0049936771392822266,0.0,-0.15778946314872588,0.0,-5.340473851884112,0.7170685181007925,0.11904014472332733,-0.02203631287537799,0.01615303600365393,nan,nan,nan,nan
23.76697874069214,-0.047454048,-0.24541312,-5.528568,-0.012407999134260106,nan,nan,nan,nan,nan,13.765142679214478,14.965142679214477,0.005421161651611328,0.0,-0.2139249386932924,0.0,-5.3312510365816586,0.71752058986767,0.0757977722339236,-0.009948300222840812,0.016043988742757618,nan,nan,nan,nan
23.86846089363098,-0.051648982,-0.26637897,-5.5172496,-0.012315278721985123,nan,nan,nan,nan,nan,13.86653208732605,15.066532087326049,0.00541234016418457,0.0,-0.26377999139129277,0.0,-5.318602655595592,0.7163624450590944,0.056509135457547134,-0.011202183505975157,0.01622327077778376,nan,nan,nan,nan
23.96371817588806,-0.049809746,-0.28266403,-5.494724,-0.011047763396435387,nan,nan,nan,nan,nan,13.961774349212646,15.161774349212646,0.005388736724853516,0.0,-0.30144016317298417,0.0,-5.3039330963210585,0.7194012070825899,-0.014932308236721552,0.001563834921213086,0.014990907955260325,nan,nan,nan,nan
24.055787324905396,-0.042923767,-0.2815415,-5.4787335,-0.009556270011641735,nan,nan,nan,nan,nan,14.05381464958191,15.253814649581908,0.006172895431518555,0.0,-0.32816207826774213,0.0,-5.287309256243213,0.7191202222446256,-0.03016579244738058,0.019044804286782905,0.013017388731552521,nan,nan,nan,nan
24.168766498565674,-0.03329971,-0.25658053,-5.4522147,-0.006679859489443919,nan,nan,nan,nan,nan,14.166802644729614,15.366802644729614,0.00511932373046875,0.0,-0.3467359169033933,0.0,-5.2638096046278315,0.7205438631793909,-0.11079732562412009,0.04062490082056366,0.009186222271157802,nan,nan,nan,nan
24.257097959518433,-0.025164329,-0.23377438,-5.4343214,-0.005093513337200789,nan,nan,nan,nan,nan,14.255163431167603,15.455163431167602,0.007432699203491211,0.0,-0.34979594887181586,0.0,-5.2432258438572585,0.7183921765428151,-0.11559525323135214,0.04191893206908688,0.007059657593809563,nan,nan,nan,nan
24.357604265213013,-0.009763519,-0.19122043,-5.40399,-0.0029343362550801957,nan,nan,nan,nan,nan,14.35561728477478,15.55561728477478,0.006399631500244141,0.0,-0.3409140586150884,0.0,-5.217679847855017,0.720632484414535,-0.16026790527820303,0.04455684787304019,0.004293594936053813,nan,nan,nan,nan
24.470433473587036,0.0053873193,-0.14981268,-5.3755064,-0.0015706792720995844,nan,nan,nan,nan,nan,14.468471765518188,15.668471765518188,0.005942344665527344,0.0,-0.31568211341686986,0.0,-5.186546587988785,0.7205614434924632,-0.14846081194690783,0.0492370643100705,0.002006427468959111,nan,nan,nan,nan
24.56739616394043,0.020819692,-0.094655976,-5.335591,0.00047865259361951074,nan,nan,nan,nan,nan,14.565393686294556,15.765393686294555,0.005380392074584961,0.0,-0.2820006308496863,0.0,-5.158023752394167,0.7249718367128865,-0.14815303870915955,0.040503796520963344,-9.824348311077799e-05,nan,nan,nan,nan
24.663808822631836,0.02389627,-0.06078085,-5.3077397,0.0017841528539361724,nan,nan,nan,nan,nan,14.661810398101807,15.861810398101806,0.005762577056884766,0.0,-0.23869702957564762,0.0,-5.128273904996693,0.7259026579090192,-0.13010509373530063,0.02336990440085303,-0.002238914092749397,nan,nan,nan,nan
24.7588050365448,0.026236782,-0.01831702,-5.2762446,0.0031626282485065077,nan,nan,nan,nan,nan,14.756837368011475,15.956837368011474,0.007537126541137695,0.0,-0.18791779591565358,0.0,-5.097862150707366,0.7287332037937292,-0.11737362113793616,-0.005753983216402751,-0.0042910604723226395,nan,nan,nan,nan
24.872289896011353,0.024711968,0.040371854,-5.2357025,0.004698975697066036,nan,nan,nan,nan,nan,14.870313167572021,16.07031316757202,0.005553483963012695,0.0,-0.1191545094732346,0.0,-5.060487394890647,0.7281859497040384,-0.10986738545603655,-0.025480343011084726,-0.006367734572172021,nan,nan,nan,nan
24.96539807319641,0.016552983,0.09473375,-5.201506,0.00577799777348248,nan,nan,nan,nan,nan,14.963392972946167,16.163392972946166,0.005502939224243164,0.0,-0.05832927090800082,0.0,-5.029267138289671,0.729590143055402,-0.11053006682017182,-0.04799353791447643,-0.008005115680002749,nan,nan,nan,nan
25.072537660598755,0.007874642,0.14318325,-5.1705227,0.0059056486653172625,nan,nan,nan,nan,nan,15.070531845092773,16.270531845092773,0.005310773849487305,0.0,0.013889239865431585,0.0,-4.993054012090419,0.7299806313809478,-0.11311437310030223,-0.05504070078895539,-0.0086046000399342,nan,nan,nan,nan
25.162697315216064,0.00040268648,0.17565843,-5.1492457,0.006067081869497969,nan,nan,nan,nan,nan,15.160693168640137,16.360693168640136,0.006364583969116211,0.0,0.07433021976458638,0.0,-4.9626211152695925,0.7295501361585112,-0.1067722438639596,-0.05116569414520476,-0.008513008952404514,nan,nan,nan,nan
25.271990537643433,-0.012464225,0.21022682,-5.1163607,0.006484760718921356,nan,nan,nan,nan,nan,15.27004599571228,16.47004599571228,0.0057446956634521484,0.0,0.14444370839745785,0.0,-4.926112969853003,0.7303061843514813,-0.08562973580730064,-0.04243159431122479,-0.008616894760884302,nan,nan,nan,nan
25.36771321296692,-0.022427,0.23104942,-5.0848327,0.006799005062531442,nan,nan,nan,nan,nan,15.365839958190918,16.565839958190917,0.005187273025512695,0.0,0.20067843487648948,0.0,-4.894795648223266,0.7322082288337466,-0.07038647030286861,-0.03708881938764652,-0.00881154553123941,nan,nan,nan,nan
25.462898015975952,-0.02880816,0.24213795,-5.055748,0.007196079972284171,nan,nan,nan,nan,nan,15.46098279953003,16.66098279953003,0.0059015750885009766,0.0,0.24974145776081713,0.0,-4.864582865467052,0.735249725401711,-0.04465160904359881,-0.024138224324660604,-0.009192424221965942,nan,nan,nan,nan
25.571287631988525,-0.037065104,0.24883826,-5.0193315,0.008025005759518464,nan,nan,nan,nan,nan,15.569454193115234,16.769454193115234,0.005204439163208008,0.0,0.29531671755531663,0.0,-4.83154805658995,0.7382255915991112,-0.00891306478276449,-0.00728753264116832,-0.009892496696790173,nan,nan,nan,nan
25.673429250717163,-0.03774795,0.2475619,-4.9923496,0.008504436908979514,nan,nan,nan,nan,nan,15.671471357345581,16.87147135734558,0.005692005157470703,0.0,0.3264014012001208,0.0,-4.802160995598066,0.7399947761445452,0.01715445494941382,0.010707227147259144,-0.010594408404226225,nan,nan,nan,nan
25.76583957672119,-0.03760716,0.24289933,-4.973066,0.008525728774103888,nan,nan,nan,nan,nan,15.763853311538696,16.963853311538696,0.005494594573974609,0.0,0.34365430247955747,0.0,-4.777200664112754,0.7407516046479765,0.018441319470208193,0.02408567786993038,-0.010682746786908533,nan,nan,nan,nan
25.86326575279236,-0.035233352,0.22773927,-4.937175,0.007918313495913529,nan,nan,nan,nan,nan,15.861264705657959,17.06126470565796,0.005751609802246094,0.0,0.3499990019052722,0.0,-4.7528083250858995,0.7437631893274674,0.03946557813941992,0.032433648220663525,-0.01054053532875934,nan,nan,nan,nan
25.957755088806152,-0.031839173,0.21472318,-4.918227,0.007028447481785709,nan,nan,nan,nan,nan,15.955792665481567,17.155792665481567,0.006691932678222656,0.0,0.3443226138160013,0.0,-4.731229932722931,0.7452696731373517,0.03649331747507843,0.03593618120540629,-0.009474506679389925,nan,nan,nan,nan
26.070956468582153,-0.025348773,0.18887377,-4.891308,0.0055381276147686564,nan,nan,nan,nan,nan,16.069000482559204,17.269000482559203,0.0050699710845947266,0.0,0.3224768997270281,0.0,-4.708352718435266,0.7465903648080701,0.05043128552083524,0.035465575651135214,-0.007674348885893541,nan,nan,nan,nan
26.161611557006836,-0.02138241,0.15689825,-4.8754673,0.00449126611063555,nan,nan,nan,nan,nan,16.159627676010132,17.35962767601013,0.006084918975830078,0.0,0.29382512422825796,0.0,-4.692541470648871,0.7460649308449242,0.08184010624054451,0.028447939877130506,-0.006484178808129338,nan,nan,nan,nan
26.25448751449585,-0.016753783,0.12826432,-4.866318,0.003843831791093731,nan,nan,nan,nan,nan,16.25255012512207,17.45255012512207,0.005504131317138672,0.0,0.2551158004783042,0.0,-4.678779146315408,0.7445085855098867,0.0943717048678211,0.01856992956017967,-0.0056343522890169966,nan,nan,nan,nan
26.366669178009033,-0.011583204,0.096206166,-4.8592668,0.003135360522811402,nan,nan,nan,nan,nan,16.364665508270264,17.564665508270263,0.005620241165161133,0.0,0.1976150101928182,0.0,-4.665630464442727,0.7445028321587923,0.10294731540117641,0.014353207156747566,-0.004707026214966566,nan,nan,nan,nan
26.459329843521118,-0.009421533,0.050374944,-4.846616,0.0016323696514926218,nan,nan,nan,nan,nan,16.457361459732056,17.657361459732055,0.006691932678222656,0.0,0.14295833826920934,0.0,-4.657716854145689,0.7439731341794761,0.13362029049350185,0.0005190038399115747,-0.0029040214251264324,nan,nan,nan,nan
26.573041677474976,-0.009164369,0.0058176466,-4.838304,0.0001822944556368845,nan,nan,nan,nan,nan,16.571318864822388,17.771318864822387,0.005532979965209961,0.0,0.0696870662748415,0.0,-4.651756333571152,0.7449653740381023,0.14184436614109472,-0.01186998551113465,-0.0009485500686020885,nan,nan,nan,nan
26.668829202651978,-0.010726231,-0.025806228,-4.843086,-0.0007535699959145253,nan,nan,nan,nan,nan,16.666829824447632,17.86682982444763,0.005395650863647461,0.0,0.00552812533730639,0.0,-4.650010915197327,0.7449492939136348,0.14740159997121996,-0.018344770767247914,0.00032642052287625375,nan,nan,nan,nan
26.76200032234192,-0.012657218,-0.068701245,-4.8556504,-0.0019084802627723513,nan,nan,nan,nan,nan,16.760017156600952,17.96001715660095,0.007032632827758789,0.0,-0.05726825465304403,0.0,-4.651181244455692,0.7397863620391972,0.13202553430068092,-0.024432917958505104,0.001980135518933631,nan,nan,nan,nan
26.858142137527466,-0.014095204,-0.09743048,-4.8671036,-0.0027223170545164106,nan,nan,nan,nan,nan,16.85620141029358,18.05620141029358,0.006596803665161133,0.0,-0.12011761940416119,0.0,-4.655355297312209,0.7395707478786092,0.13232116923395199,-0.022383573899781933,0.0030867832947014916,nan,nan,nan,nan
26.95642399787903,-0.020770017,-0.13258168,-4.887,-0.004172601346294179,nan,nan,nan,nan,nan,16.95462679862976,18.15462679862976,0.00550079345703125,0.0,-0.180127405814852,0.0,-4.662708165011946,0.7360655675786879,0.10625594741094,-0.023555769923282538,0.0050653777213681694,nan,nan,nan,nan
27.0701744556427,-0.025808368,-0.1582708,-4.903997,-0.005505328978430531,nan,nan,nan,nan,nan,17.068233013153076,18.268233013153075,0.0052106380462646484,0.0,-0.2411815035248258,0.0,-4.674982476876148,0.7376641575303359,0.10703562227562374,-0.022329156000237944,0.006587617095458059,nan,nan,nan,nan
27.165199995040894,-0.030170392,-0.17866135,-4.92051,-0.006351236368440538,nan,nan,nan,nan,nan,17.16324496269226,18.36324496269226,0.005770683288574219,0.0,-0.2834519447832707,0.0,-4.68826222104433,0.7370357517051077,0.05664376590233409,-0.015379191552396579,0.008060554677295892,nan,nan,nan,nan
27.26178240776062,-0.031688828,-0.18535927,-4.933997,-0.006369545458003507,nan,nan,nan,nan,nan,17.25981330871582,18.45981330871582,0.009621143341064453,0.0,-0.3166356612560499,0.0,-4.704451386782086,0.7403140531394226,0.05387066411860152,-0.008685098512283175,0.008357192992676163,nan,nan,nan,nan
27.361069917678833,-0.032863513,-0.17973627,-4.9611073,-0.005203814131934159,nan,nan,nan,nan,nan,17.359104871749878,18.559104871749877,0.008317947387695312,0.0,-0.33927253593933426,0.0,-4.723778867737945,0.7385127895432461,-0.00909796870688324,0.007004741862144734,0.007187310561483927,nan,nan,nan,nan
27.457489013671875,-0.035773057,-0.16798876,-4.980021,-0.004431479515424559,nan,nan,nan,nan,nan,17.45562243461609,18.655622434616088,0.005678892135620117,0.0,-0.349335547572132,0.0,-4.745005182213161,0.7386138966711628,-0.035728565320385625,0.008471277093128496,0.005909776234751763,nan,nan,nan,nan
27.570837020874023,-0.03775017,-0.13638139,-5.019865,-0.0028676039471201217,nan,nan,nan,nan,nan,17.56886053085327,18.76886053085327,0.005185127258300781,0.0,-0.3456792114598459,0.0,-4.772721620060226,0.7364569010957961,-0.07772338142372684,0.00794203702058254,0.004290610301144329,nan,nan,nan,nan
27.6664080619812,-0.03649091,-0.096700475,-5.056711,-0.0017959649221949078,nan,nan,nan,nan,nan,17.664409637451172,18.86440963745117,0.0053255558013916016,0.0,-0.3297280083438565,0.0,-4.7982390666840296,0.7313963555604448,-0.13098038514226185,0.010952632548771737,0.0028138490807042525,nan,nan,nan,nan
27.761008501052856,-0.034822382,-0.0678422,-5.079343,-0.001201962079397708,nan,nan,nan,nan,nan,17.759058713912964,18.959058713912963,0.00877523422241211,0.0,-0.3028631787043171,0.0,-4.825212578322196,0.7320704545969788,-0.14090089336524078,0.015064067212686551,0.002004816522045024,nan,nan,nan,nan
27.85872507095337,-0.031822667,-0.026678633,-5.105262,-0.0002471550472363422,nan,nan,nan,nan,nan,17.85677433013916,19.05677433013916,0.005341053009033203,0.0,-0.2645317812781887,0.0,-4.854591250156694,0.7335004922787525,-0.14652495704380455,0.01716942828583181,0.0009618460978568725,nan,nan,nan,nan
27.95752716064453,-0.02269938,0.03437961,-5.1322904,0.00022761584404261404,nan,nan,nan,nan,nan,17.955665111541748,19.155665111541747,0.005411624908447266,0.0,-0.21616300718556497,0.0,-4.885641983645257,0.7330924887709447,-0.1578333607369409,0.022922815947062396,2.7985664631762177e-05,nan,nan,nan,nan
28.058332920074463,-0.01555759,0.07886287,-5.1572905,0.0001644589881267611,nan,nan,nan,nan,nan,18.056476354599,19.256476354599,0.006239175796508789,0.0,-0.1587601904632629,0.0,-4.918368590154498,0.7349413638130976,-0.15806615656524378,0.027639737726425376,-0.00010627152641984173,nan,nan,nan,nan
28.158666849136353,-0.0058259415,0.1474447,-5.1996856,-0.00036007338488588773,nan,nan,nan,nan,nan,18.156662225723267,19.356662225723266,0.00697016716003418,0.0,-0.09575303348230496,0.0,-4.951660213273776,0.7295792761041352,-0.16373698437958664,0.029981244501102226,0.0003947660372762178,nan,nan,nan,nan
28.27190327644348,0.004156188,0.21580328,-5.240742,-0.0012526287504745978,nan,nan,nan,nan,nan,18.269933223724365,19.469933223724365,0.00506138801574707,0.0,-0.020333251017888646,0.0,-4.989829079062826,0.7265365609313476,-0.1636450811794992,0.023692096469048872,0.001406172352187073,nan,nan,nan,nan
28.362048387527466,0.009427623,0.24973984,-5.261851,-0.0017763297656296466,nan,nan,nan,nan,nan,18.36011528968811,19.56011528968811,0.007225990295410156,0.0,0.04058554452498809,0.0,-5.020327082660526,0.728121987478135,-0.16831426940750135,0.021139839287579305,0.002001340110981402,nan,nan,nan,nan
28.461078643798828,0.016641105,0.30912632,-5.3050647,-0.002444167606273473,nan,nan,nan,nan,nan,18.459332704544067,19.659332704544067,0.00629878044128418,0.0,0.1061156737309083,0.0,-5.053693424303157,0.7251830265393375,-0.14086100330819198,0.010469812224651336,0.002943519840705473,nan,nan,nan,nan
28.557605981826782,0.01569005,0.33772203,-5.331726,-0.002663019633519205,nan,nan,nan,nan,nan,18.55565118789673,19.755651187896728,0.005817890167236328,0.0,0.166029213442302,0.0,-5.085615606212807,0.7253787282613945,-0.12610833973718216,-0.0019088231170337618,0.003036224700456113,nan,nan,nan,nan
28.656024932861328,0.013684741,0.3650404,-5.3654203,-0.0025007535145508894,nan,nan,nan,nan,nan,18.654090881347656,19.854090881347656,0.005136251449584961,0.0,0.22131615719218828,0.0,-5.117472426600303,0.7233120504009142,-0.06361844908977303,-0.022262098411595,0.0029826935371447356,nan,nan,nan,nan
28.769945859909058,0.010032427,0.3757844,-5.3898478,-0.0020843402551431675,nan,nan,nan,nan,nan,18.76794672012329,19.96794672012329,0.0052564144134521484,0.0,0.2751786747951664,0.0,-5.152974305505572,0.7242612849939498,-0.020345059331117958,-0.030370641404411498,0.0022794045778717674,nan,nan,nan,nan
28.865394830703735,-0.0031500494,0.37446675,-5.4230576,-0.0008787059384596854,nan,nan,nan,nan,nan,18.863430738449097,20.063430738449096,0.005816221237182617,0.0,0.3102017827217881,0.0,-5.181337640681978,0.722549394890848,0.03466075813198493,-0.046992513626213823,0.0010835117448582071,nan,nan,nan,nan
28.958773851394653,-0.006944996,0.36500618,-5.442492,-7.432635962514172e-05,nan,nan,nan,nan,nan,18.956834077835083,20.156834077835082,0.005402803421020508,0.0,0.33426966839146777,0.0,-5.207590897773264,0.7220018645538068,0.055223907498328145,-0.04680560344429258,-0.0005102316915828765,nan,nan,nan,nan
29.056082010269165,-0.008685908,0.3378271,-5.4705577,0.001085680880494204,nan,nan,nan,nan,nan,19.054150342941284,20.254150342941283,0.005532026290893555,0.0,0.3477754248338093,0.0,-5.2331420933099,0.7193118969212644,0.1027332016243061,-0.028927848705175653,-0.0011808931703757857,nan,nan,nan,nan
29.158894777297974,-0.0085730245,0.31330895,-5.4878707,0.0017110072947226218,nan,nan,nan,nan,nan,19.157165050506592,20.35716505050659,0.005573272705078125,0.0,0.34869594217422123,0.0,-5.257938735910626,0.7191893663607779,0.10490736557233409,-0.011029855020738447,-0.002191474804451805,nan,nan,nan,nan
29.25920867919922,-0.008798245,0.2684477,-5.510414,0.0022142089742736015,nan,nan,nan,nan,nan,19.257275819778442,20.45727581977844,0.006917715072631836,0.0,0.33637971965531854,0.0,-5.279589885270187,0.7168309609593976,0.12355002816316593,0.009042253298773766,-0.002818110756283085,nan,nan,nan,nan
29.354027032852173,-0.009543157,0.2401067,-5.5191727,0.0020918603705933556,nan,nan,nan,nan,nan,19.352070093154907,20.552070093154907,0.0052912235260009766,0.0,0.313126125391092,0.0,-5.297682722567024,0.717169496322263,0.11860777092961285,0.0135362418459405,-0.0030042563839241814,nan,nan,nan,nan
29.46351432800293,-0.010008617,0.18724559,-5.5326247,0.0016446928832550244,nan,nan,nan,nan,nan,19.461525440216064,20.661525440216064,0.007750749588012695,0.0,0.2732984687538338,0.0,-5.315458079328242,0.7167103618699885,0.11957862862834394,0.013618282239375865,-0.002598446412771307,nan,nan,nan,nan
29.56887936592102,-0.0018970278,0.11993342,-5.5446672,0.0014953464585326752,nan,nan,nan,nan,nan,19.566882371902466,20.766882371902465,0.005555152893066406,0.0,0.2234202490317277,0.0,-5.3292374280269765,0.715933551577637,0.12756789361620324,0.01736826578077889,-0.0022388785444414287,nan,nan,nan,nan
29.666486501693726,0.002996508,0.058989327,-5.5561104,0.001138637405817035,nan,nan,nan,nan,nan,19.66448211669922,20.864482116699218,0.008908271789550781,0.0,0.16892078211406028,0.0,-5.338960490203065,0.7144762182013237,0.14057479359251018,0.02514022771906156,-0.0021591383818521425,nan,nan,nan,nan
29.76248860359192,0.004695249,0.015550381,-5.5641427,0.0005970215524763663,nan,nan,nan,nan,nan,19.760494232177734,20.960494232177734,0.0062408447265625,0.0,0.10944590958747105,0.0,-5.345584112755442,0.7117244627053211,0.15259165133247746,0.02015517289452316,-0.0014176156497203696,nan,nan,nan,nan
29.855765342712402,0.008226462,-0.047054823,-5.5704784,-0.0005616420146903594,nan,nan,nan,nan,nan,19.853760719299316,21.053760719299316,0.0052263736724853516,0.0,0.048051862473950095,0.0,-5.349170457781097,0.7104641224971114,0.16290795008027736,0.010862819234480988,-2.179993363201841e-05,nan,nan,nan,nan
