time,x,y,z,yaw,platform,trajectory,traj_double,traj_short,traj_spin,traj_time,ref_time,comptime,x_ref,y_ref,yaw_ref,z_ref,throttle_input,p_input,q_input,r_input,cbf_term_pitch_cbf,cbf_term_roll_cbf,cbf_term_thrust_cbf,cbf_term_yaw_cbf
10.035343647003174,0.024977608,-0.12764621,-2.463095,0.09939856442672919,SIM,SAWTOOTH,NormSpd,Not Short,NoSpin,0.03331780433654785,1.2333178043365478,0.0062792301177978516,nan,nan,nan,nan,0.720025810324461,0.26557133035081815,-0.034296269283500096,-0.053377333870612866,nan,nan,nan,nan
10.137734413146973,0.018371938,-0.13334048,-2.4720566,0.12109824078013158,nan,nan,nan,nan,nan,0.1358354091644287,1.3358354091644287,0.005219459533691406,nan,nan,nan,nan,0.7199669958433298,0.24930371563127113,-0.03489882351611898,-0.07014595596786602,nan,nan,nan,nan
10.24796748161316,0.014092683,-0.14190741,-2.4829152,0.1386560331320969,nan,nan,nan,nan,nan,0.24591445922851562,1.4459144592285156,0.005385160446166992,nan,nan,nan,nan,0.7187646533718903,0.24912800217896616,-0.03288418299171465,-0.0845766119883998,nan,nan,nan,nan
10.341675996780396,0.019784465,-0.14614967,-2.4934695,0.14777988280442045,nan,nan,nan,nan,nan,0.33971071243286133,1.5397107124328613,0.00708460807800293,nan,nan,nan,nan,0.71801023418473,0.2471638538600449,-0.007440301683827257,-0.09193260958166166,nan,nan,nan,nan
10.436619281768799,0.027722806,-0.14644536,-2.504601,0.14878390478807554,nan,nan,nan,nan,nan,0.4346749782562256,1.6346749782562255,0.005410671234130859,nan,nan,nan,nan,0.7175460282554476,0.2410266939187389,0.01964051289581578,-0.09510837187020359,nan,nan,nan,nan
10.5516939163208,0.035016455,-0.1441053,-2.5193937,0.15083354188176654,nan,nan,nan,nan,nan,0.5496904850006104,1.7496904850006103,0.005053520202636719,nan,nan,nan,nan,0.7168052937688293,0.23349965158232017,0.06451836296173105,-0.09588046633335416,nan,nan,nan,nan
10.648352861404419,0.043108895,-0.13896993,-2.5270796,0.15641346485563035,nan,nan,nan,nan,nan,0.646331787109375,1.846331787109375,0.005557537078857422,nan,nan,nan,nan,0.7166721299738966,0.2209817749043921,0.10781413532944957,-0.09941151150874572,nan,nan,nan,nan
10.741963148117065,0.05386429,-0.13398068,-2.5347028,0.1680892796371315,nan,nan,nan,nan,nan,0.7399857044219971,1.939985704421997,0.0065233707427978516,nan,nan,nan,nan,0.716675280045782,0.2041015227404623,0.12609278281994654,-0.1050615796052518,nan,nan,nan,nan
10.851289510726929,0.064949535,-0.12834412,-2.5395272,0.1812049280078257,nan,nan,nan,nan,nan,0.8492324352264404,2.0492324352264406,0.005823612213134766,nan,nan,nan,nan,0.716742618592037,0.1810350533470042,0.1319078197847203,-0.11316692395913037,nan,nan,nan,nan
10.946961402893066,0.073378906,-0.12465504,-2.5434752,0.18999323249513178,nan,nan,nan,nan,nan,0.944934606552124,2.144934606552124,0.005712270736694336,nan,nan,nan,nan,0.7167196477643014,0.16181910114267373,0.12877683991673647,-0.11890782825311173,nan,nan,nan,nan
11.048652648925781,0.08990682,-0.11903224,-2.54908,0.20451979678717208,nan,nan,nan,nan,nan,1.0466125011444092,2.2466125011444094,0.005464792251586914,nan,nan,nan,nan,0.7167043986486286,0.1380842635395403,0.11850373223731185,-0.127896018905491,nan,nan,nan,nan
11.146041870117188,0.1026322,-0.11488949,-2.5506127,0.21407104173925579,nan,nan,nan,nan,nan,1.143993854522705,2.3439938545227053,0.006815433502197266,nan,nan,nan,nan,0.7167213810296755,0.119661800043362,0.10998249952683287,-0.13398068737188407,nan,nan,nan,nan
11.24701738357544,0.115753174,-0.10915356,-2.552474,0.22796730393148795,nan,nan,nan,nan,nan,1.2450039386749268,2.445003938674927,0.0053195953369140625,nan,nan,nan,nan,0.7167106354665418,0.10155949069361868,0.09042951840275551,-0.14216386011130197,nan,nan,nan,nan
11.3358736038208,0.123115994,-0.108983554,-2.5548131,0.23673827963151572,nan,nan,nan,nan,nan,1.333892822265625,2.533892822265625,0.005130767822265625,nan,nan,nan,nan,0.71655134586799,0.08641321246516678,0.07350231267531564,-0.1477540216422017,nan,nan,nan,nan
11.444795370101929,0.1340846,-0.110092744,-2.561875,0.2476676997699292,nan,nan,nan,nan,nan,1.4427692890167236,2.642769289016724,0.00756072998046875,nan,nan,nan,nan,0.716373527126235,0.08619345181183369,0.04893537313594404,-0.1562369659515745,nan,nan,nan,nan
11.537876844406128,0.14459391,-0.10777453,-2.571371,0.24964277165846083,nan,nan,nan,nan,nan,1.5363025665283203,2.7363025665283205,0.005442142486572266,nan,nan,nan,nan,0.7156736662720815,0.06954164466434015,0.03961288621260541,-0.15854843524660656,nan,nan,nan,nan
11.649402379989624,0.15118359,-0.10578012,-2.5739987,0.25100276460901416,nan,nan,nan,nan,nan,1.6473476886749268,2.847347688674927,0.00558018684387207,nan,nan,nan,nan,0.7154365308917539,0.04741477342140629,0.027758082303919608,-0.15957934728075807,nan,nan,nan,nan
11.743805408477783,0.15646891,-0.101158135,-2.571356,0.25142490199100664,nan,nan,nan,nan,nan,1.7418849468231201,2.9418849468231203,0.008487701416015625,nan,nan,nan,nan,0.7153791450106175,0.028246139376924752,0.019487495513378666,-0.15980377088336015,nan,nan,nan,nan
11.840009450912476,0.1587428,-0.094754286,-2.5732872,0.2520123713104443,nan,nan,nan,nan,nan,1.8381118774414062,3.0381118774414064,0.0056264400482177734,nan,nan,nan,nan,0.7153910886286265,0.001742979445911877,0.007171136333848364,-0.16018453880418582,nan,nan,nan,nan
11.949367761611938,0.15424486,-0.08833145,-2.5800164,0.25272524935780605,nan,nan,nan,nan,nan,1.947326421737671,3.147326421737671,0.005630970001220703,nan,nan,nan,nan,0.7151335231302074,-0.02538847086799926,-0.00944372352257947,-0.16047063801009578,nan,nan,nan,nan
12.042322158813477,0.14876103,-0.08324467,-2.5857818,0.2532680267244284,nan,nan,nan,nan,nan,2.0403029918670654,3.2403029918670656,0.008005142211914062,nan,nan,nan,nan,0.7150024658560893,-0.047220351682218865,-0.02200761466079942,-0.16080447564403946,nan,nan,nan,nan
12.13709044456482,0.14078459,-0.080046445,-2.5915086,0.25354767797205735,nan,nan,nan,nan,nan,2.1350786685943604,3.3350786685943605,0.005145072937011719,nan,nan,nan,nan,0.7148592590438598,-0.06915287563099731,-0.03411639780240004,-0.16102420924021865,nan,nan,nan,nan
12.235727310180664,0.13613321,-0.07768701,-2.5977917,0.25370943126472606,nan,nan,nan,nan,nan,2.233672857284546,3.433672857284546,0.0050809383392333984,nan,nan,nan,nan,0.7146743731250024,-0.08882488716156256,-0.05064438139042485,-0.16114919100304512,nan,nan,nan,nan
12.344738006591797,0.1350504,-0.0750436,-2.6028652,0.2535149422152551,nan,nan,nan,nan,nan,2.3426833152770996,3.5426833152771,0.00812983512878418,nan,nan,nan,nan,0.7144006682705126,-0.10811311630256601,-0.05372156089150585,-0.16111962153891807,nan,nan,nan,nan
12.440686225891113,0.13391788,-0.07111525,-2.6097596,0.25299144710269345,nan,nan,nan,nan,nan,2.438739776611328,3.6387397766113283,0.00540924072265625,nan,nan,nan,nan,0.7143328672798943,-0.12731316332844622,-0.05780655787393047,-0.16093091307331375,nan,nan,nan,nan
12.551509380340576,0.13687631,-0.069477715,-2.6169863,0.25014101166362646,nan,nan,nan,nan,nan,2.5494675636291504,3.7494675636291506,0.005524873733520508,nan,nan,nan,nan,0.7140397722052771,-0.14557165795902036,-0.057842938198070716,-0.1595509417665097,nan,nan,nan,nan
12.646986722946167,0.137412,-0.06853721,-2.6255763,0.2441447589991989,nan,nan,nan,nan,nan,2.6449379920959473,3.8449379920959474,0.00648808479309082,nan,nan,nan,nan,0.7137010740128665,-0.15296628341349072,-0.059111839570647716,-0.1567715419692358,nan,nan,nan,nan
12.744704484939575,0.14034207,-0.068982296,-2.62444,0.24006495061577376,nan,nan,nan,nan,nan,2.7426862716674805,3.9426862716674806,0.007083415985107422,nan,nan,nan,nan,0.7134045137035685,-0.15733005657209054,-0.061628835149905505,-0.15411954640517012,nan,nan,nan,nan
12.84344744682312,0.14586307,-0.06894406,-2.6225216,0.23104032839279415,nan,nan,nan,nan,nan,2.8416318893432617,4.041631889343262,0.005365133285522461,nan,nan,nan,nan,0.713355085041503,-0.14041978307677283,-0.05782248466235658,-0.1490861876113103,nan,nan,nan,nan
12.943937540054321,0.14751035,-0.06837904,-2.6249354,0.22729785707697775,nan,nan,nan,nan,nan,2.941930055618286,4.141930055618286,0.008994340896606445,nan,nan,nan,nan,0.7133169608349196,-0.12925856104082017,-0.0575794924222042,-0.14586252545126144,nan,nan,nan,nan
13.042045593261719,0.1468731,-0.06114679,-2.6325684,0.22288221580398246,nan,nan,nan,nan,nan,3.0402164459228516,4.240216445922852,0.006018877029418945,nan,nan,nan,nan,0.7128641282109247,-0.08610453533703497,-0.05169455061755713,-0.14223545016243616,nan,nan,nan,nan
13.13018012046814,0.14712645,-0.06208472,-2.6375287,0.22283875811186515,nan,nan,nan,nan,nan,3.128455638885498,4.328455638885498,0.00571894645690918,nan,nan,nan,nan,0.7124511603421755,-0.045075725757791854,-0.045347159454424406,-0.14137905916700563,nan,nan,nan,nan
13.250390529632568,0.14931339,-0.069593385,-2.6405306,0.2232846147278685,nan,nan,nan,nan,nan,3.2483363151550293,4.4483363151550295,0.005826711654663086,nan,nan,nan,nan,0.7126511448206373,0.055292570052746515,-0.015043689311308868,-0.14161877854558583,nan,nan,nan,nan
13.346513509750366,0.1528763,-0.079772905,-2.6411057,0.2218932762941434,nan,nan,nan,nan,nan,3.3444676399230957,4.544467639923096,0.010006904602050781,nan,nan,nan,nan,0.7132240531686066,0.09481470541514249,0.0013593230292652837,-0.14157513689863402,nan,nan,nan,nan
13.447788715362549,0.1619061,-0.10396152,-2.6375964,0.21681187509534172,nan,nan,nan,nan,nan,3.4457507133483887,4.645750713348389,0.006678342819213867,nan,nan,nan,nan,0.7144248106765155,0.16887353432239274,0.03761527545927166,-0.13865283273591375,nan,nan,nan,nan
13.551932334899902,0.17122102,-0.12783642,-2.6318457,0.2117467359064164,nan,nan,nan,nan,nan,3.549889087677002,4.749889087677002,0.005416393280029297,nan,nan,nan,nan,0.7153421683033422,0.20577306830315703,0.05383118392354057,-0.1366192866916483,nan,nan,nan,nan
13.651198863983154,0.19039634,-0.16475691,-2.627374,0.20197340251267354,nan,nan,nan,nan,nan,3.6491425037384033,4.8491425037384035,0.00552821159362793,nan,nan,nan,nan,0.7164418065060545,0.22881585474406754,0.07444397484802612,-0.13104805136880016,nan,nan,nan,nan
13.747486114501953,0.20822391,-0.1929316,-2.6207514,0.1942973229550028,nan,nan,nan,nan,nan,3.745454788208008,4.945454788208008,0.0071258544921875,nan,nan,nan,nan,0.7169503370853475,0.231398409173758,0.08154957672546839,-0.12717399770224472,nan,nan,nan,nan
13.846118927001953,0.23683704,-0.23858154,-2.602854,0.18234551069715493,nan,nan,nan,nan,nan,3.8442022800445557,5.044202280044556,0.0065915584564208984,nan,nan,nan,nan,0.7179662542200079,0.1997066864350662,0.08751583225817502,-0.11918343645419295,nan,nan,nan,nan
13.946115016937256,0.2530543,-0.26691324,-2.5927067,0.19302597467348828,nan,nan,nan,nan,nan,3.9440741539001465,5.144074153900147,0.009359359741210938,nan,nan,nan,nan,0.7171049490857284,0.19990536568898765,0.067266133251834,-0.12032526574801355,nan,nan,nan,nan
14.041468381881714,0.2812525,-0.30249375,-2.5866954,0.21677591483706654,nan,nan,nan,nan,nan,4.039458751678467,5.239458751678467,0.006199836730957031,nan,nan,nan,nan,0.7173530292101775,0.2297294882808884,0.061798034684774246,-0.13364374687807556,nan,nan,nan,nan
14.150876522064209,0.30580458,-0.32551274,-2.576831,0.24419986539820226,nan,nan,nan,nan,nan,4.148844242095947,5.348844242095947,0.005755186080932617,nan,nan,nan,nan,0.717734952764545,0.25299530760633976,0.05987654564137469,-0.15127157622492363,nan,nan,nan,nan
14.246864557266235,0.32050586,-0.34082922,-2.574119,0.2674647101115173,nan,nan,nan,nan,nan,4.244828224182129,5.444828224182129,0.00715184211730957,nan,nan,nan,nan,0.7179470597950572,0.2680704946622319,0.05517403611262127,-0.16572534762457194,nan,nan,nan,nan
14.339675903320312,0.33626705,-0.35779992,-2.577964,0.29912457109951507,nan,nan,nan,nan,nan,4.3377110958099365,5.537711095809937,0.005175352096557617,nan,nan,nan,nan,0.7177196501631632,0.2694392237215994,0.0399026742580112,-0.1872653962762847,nan,nan,nan,nan
14.436195850372314,0.34827918,-0.36759296,-2.5848322,0.32349881484929754,nan,nan,nan,nan,nan,4.434176921844482,5.634176921844483,0.0052907466888427734,nan,nan,nan,nan,0.7174609611833879,0.269993858388636,0.0299804518535133,-0.19955568675198151,nan,nan,nan,nan
14.551116466522217,0.36269814,-0.3796403,-2.5924544,0.3575861214849365,nan,nan,nan,nan,nan,4.549085378646851,5.749085378646851,0.00532221794128418,nan,nan,nan,nan,0.7168925472861531,0.2427864441728867,0.013870822769656205,-0.2220133232031396,nan,nan,nan,nan
14.644447803497314,0.37746808,-0.38756633,-2.5880587,0.38375156082849504,nan,nan,nan,nan,nan,4.64267897605896,5.84267897605896,0.007452726364135742,nan,nan,nan,nan,0.7167881667946003,0.19527185643877706,0.006082106057375529,-0.2397825310002561,nan,nan,nan,nan
14.750123977661133,0.38218552,-0.38945433,-2.5844574,0.39760051798067375,nan,nan,nan,nan,nan,4.74810004234314,5.94810004234314,0.0060100555419921875,nan,nan,nan,nan,0.716900740246085,0.16674135419218167,5.50467511544245e-05,-0.2502388143606884,nan,nan,nan,nan
14.845217227935791,0.38006645,-0.386816,-2.5798085,0.40999828051246295,nan,nan,nan,nan,nan,4.843178033828735,6.0431780338287355,0.007163047790527344,nan,nan,nan,nan,0.7171972185001677,0.08850843400254113,-0.009589495368326042,-0.2602685272269994,nan,nan,nan,nan
14.937625885009766,0.37525794,-0.380488,-2.5783958,0.4087617970152174,nan,nan,nan,nan,nan,4.935568571090698,6.135568571090698,0.0051419734954833984,nan,nan,nan,nan,0.7170808660318926,0.027600706428664145,-0.02211207620384997,-0.26206561257519456,nan,nan,nan,nan
15.050794839859009,0.36836827,-0.36930007,-2.5741277,0.3930294036387286,nan,nan,nan,nan,nan,5.048752546310425,6.248752546310425,0.005973339080810547,nan,nan,nan,nan,0.7176053184251869,-0.06692617367347249,-0.026752068445861844,-0.2550593123287878,nan,nan,nan,nan
15.146921873092651,0.3631919,-0.35504904,-2.5713067,0.3704994680838657,nan,nan,nan,nan,nan,5.144908666610718,6.344908666610718,0.012865781784057617,nan,nan,nan,nan,0.7181866219164048,-0.11989158149806958,-0.02894590317560769,-0.2448630729605156,nan,nan,nan,nan
15.25161075592041,0.35778773,-0.33511582,-2.5692112,0.3446930132098892,nan,nan,nan,nan,nan,5.24958610534668,6.44958610534668,0.005351543426513672,nan,nan,nan,nan,0.718860856605027,-0.1770127597372612,-0.025059637203438453,-0.22861173232135062,nan,nan,nan,nan
15.345134973526001,0.3512066,-0.30229074,-2.5658524,0.3076675777604564,nan,nan,nan,nan,nan,5.343133211135864,6.543133211135864,0.00729823112487793,nan,nan,nan,nan,0.7196182207811272,-0.23015244948669625,-0.022358518468839517,-0.20506855383195624,nan,nan,nan,nan
15.438005208969116,0.34734723,-0.27023587,-2.5591729,0.2742986512128149,nan,nan,nan,nan,nan,5.4359471797943115,6.635947179794312,0.0054416656494140625,nan,nan,nan,nan,0.7202882027448577,-0.2547237295654564,-0.026225337400017562,-0.18496891110936295,nan,nan,nan,nan
15.533738374710083,0.33702016,-0.21391912,-2.5542617,0.2215096946925938,nan,nan,nan,nan,nan,5.531707763671875,6.731707763671875,0.009881734848022461,nan,nan,nan,nan,0.7208574280991078,-0.28255147540390835,-0.036980308504310624,-0.15232162080036618,nan,nan,nan,nan
15.638142585754395,0.32356372,-0.15226994,-2.5470166,0.16816021965599087,nan,nan,nan,nan,nan,5.636090278625488,6.8360902786254885,0.00518798828125,nan,nan,nan,nan,0.7212659293448986,-0.29568901652517304,-0.05364325287793758,-0.11898734452463906,nan,nan,nan,nan
15.735334396362305,0.31198937,-0.10092186,-2.542658,0.126658049222457,nan,nan,nan,nan,nan,5.733280181884766,6.933280181884766,0.006226301193237305,nan,nan,nan,nan,0.7215170462220557,-0.29681183909490805,-0.06049500910734663,-0.09552167130670046,nan,nan,nan,nan
15.849536657333374,0.29620463,-0.030168919,-2.5377164,0.07156341088175357,nan,nan,nan,nan,nan,5.847482681274414,7.047482681274414,0.006685495376586914,nan,nan,nan,nan,0.7219551244908187,-0.2903206652857341,-0.07376644617258069,-0.05808514512461525,nan,nan,nan,nan
15.94106936454773,0.2786039,0.046785634,-2.5323796,0.018344847003110537,nan,nan,nan,nan,nan,5.939074277877808,7.139074277877808,0.005170345306396484,nan,nan,nan,nan,0.7221044401996203,-0.26566680848967766,-0.08845759205862337,-0.017683096775503112,nan,nan,nan,nan
16.03426694869995,0.26901945,0.096554846,-2.5289977,-0.00745490807892466,nan,nan,nan,nan,nan,6.0322265625,7.2322265625,0.0061533451080322266,nan,nan,nan,nan,0.7206530664063667,-0.2707751613701985,-0.07898420984083636,-0.0022041342911389176,nan,nan,nan,nan
16.151733875274658,0.26039317,0.16015036,-2.5236769,-0.03621909468879275,nan,nan,nan,nan,nan,6.149681091308594,7.349681091308594,0.005425453186035156,nan,nan,nan,nan,0.7214378019252601,-0.2759127293247597,-0.07565680182174975,0.016762990515868856,nan,nan,nan,nan
16.248496532440186,0.257612,0.21657705,-2.5147,-0.06424346158692806,nan,nan,nan,nan,nan,6.246444463729858,7.446444463729859,0.007102012634277344,nan,nan,nan,nan,0.7225945770703572,-0.2902732360341733,-0.07785719455761814,0.03489341327893468,nan,nan,nan,nan
16.341174125671387,0.25683737,0.24444179,-2.5136304,-0.07967141154115714,nan,nan,nan,nan,nan,6.339234828948975,7.539234828948975,0.005079746246337891,nan,nan,nan,nan,0.7214360440228508,-0.2956490563686509,-0.08026359669592838,0.047224104468457644,nan,nan,nan,nan
16.437405347824097,0.26087376,0.2747017,-2.504558,-0.10591448488828775,nan,nan,nan,nan,nan,6.435351371765137,7.635351371765137,0.0051364898681640625,nan,nan,nan,nan,0.722014637314155,-0.2783730382924918,-0.058420578575424174,0.06327494335332212,nan,nan,nan,nan
16.53631567955017,0.2681093,0.2933145,-2.496348,-0.1317361518411215,nan,nan,nan,nan,nan,6.534258127212524,7.734258127212525,0.00554656982421875,nan,nan,nan,nan,0.7223762335281846,-0.27745236355190306,-0.03932255992153103,0.08061109742585071,nan,nan,nan,nan
16.650962591171265,0.2820218,0.31830215,-2.4875052,-0.17879695147647934,nan,nan,nan,nan,nan,6.648947477340698,7.848947477340698,0.005385398864746094,nan,nan,nan,nan,0.7224880845397429,-0.2767587942653106,-0.019268521354936893,0.10432813434562871,nan,nan,nan,nan
16.74211859703064,0.29173732,0.33786562,-2.4842293,-0.22940239892268455,nan,nan,nan,nan,nan,6.740199089050293,7.940199089050293,0.0058879852294921875,nan,nan,nan,nan,0.7220939529308786,-0.25452547307319784,0.009565175899510432,0.13477050823718378,nan,nan,nan,nan
16.83567523956299,0.2951697,0.34824055,-2.4840274,-0.2708397707937798,nan,nan,nan,nan,nan,6.83362078666687,8.03362078666687,0.0055730342864990234,nan,nan,nan,nan,0.7216303123472885,-0.2180629483485095,0.02402948225507587,0.16168519218729632,nan,nan,nan,nan
16.936331033706665,0.30297253,0.35177052,-2.4792218,-0.3039191552275864,nan,nan,nan,nan,nan,6.9342875480651855,8.134287548065185,0.005278587341308594,nan,nan,nan,nan,0.7214026916511276,-0.16332328759235773,0.0411194499270216,0.18537586853968507,nan,nan,nan,nan
17.049168348312378,0.31440666,0.35464564,-2.481205,-0.3370119234498109,nan,nan,nan,nan,nan,7.047145843505859,8.247145843505859,0.0063323974609375,nan,nan,nan,nan,0.7214549470919203,-0.028717238260129795,0.06762897520002477,0.2107352460606903,nan,nan,nan,nan
17.144524097442627,0.3234455,0.35183042,-2.4804516,-0.3458648335367476,nan,nan,nan,nan,nan,7.1425676345825195,8.342567634582519,0.005575895309448242,nan,nan,nan,nan,0.7216140207949452,0.07497080145659922,0.08070823582376967,0.2200246787671084,nan,nan,nan,nan
17.236384630203247,0.33606464,0.3377302,-2.476451,-0.3454507735304011,nan,nan,nan,nan,nan,7.234334468841553,8.434334468841552,0.005162239074707031,nan,nan,nan,nan,0.722515401301229,0.19251081776145668,0.09747601292364216,0.2215354181929585,nan,nan,nan,nan
17.351393222808838,0.35072765,0.30533734,-2.4714239,-0.3358034852694181,nan,nan,nan,nan,nan,7.349350690841675,8.549350690841674,0.00629115104675293,nan,nan,nan,nan,0.7235829244280474,0.2691904501436246,0.10525302371638862,0.2174112962662867,nan,nan,nan,nan
17.446079969406128,0.36063048,0.2687393,-2.464852,-0.3231607815030506,nan,nan,nan,nan,nan,7.44406270980835,8.644062709808349,0.00688934326171875,nan,nan,nan,nan,0.7244084447355006,0.3019263029763998,0.1033833777748205,0.21154561829748011,nan,nan,nan,nan
17.54209280014038,0.36876488,0.21031772,-2.4573963,-0.3046249691636107,nan,nan,nan,nan,nan,7.540182828903198,8.740182828903198,0.0056073665618896484,nan,nan,nan,nan,0.7253483765865224,0.32925865336249904,0.09370513752341772,0.1987456164075688,nan,nan,nan,nan
17.65211510658264,0.38119665,0.13560565,-2.445046,-0.2813344176515553,nan,nan,nan,nan,nan,7.6501240730285645,8.850124073028564,0.005533933639526367,nan,nan,nan,nan,0.7262022292028258,0.32851305112315277,0.0798019002015148,0.18565792627973707,nan,nan,nan,nan
17.74839949607849,0.3905632,0.07903077,-2.4359741,-0.26321639591698487,nan,nan,nan,nan,nan,7.746350526809692,8.946350526809692,0.008377790451049805,nan,nan,nan,nan,0.7270404298128614,0.3121824378076678,0.07119289551520974,0.17331158860351822,nan,nan,nan,nan
17.842554330825806,0.40133852,0.0040453277,-2.4237385,-0.2385675028172053,nan,nan,nan,nan,nan,7.840630531311035,9.040630531311034,0.005896568298339844,nan,nan,nan,nan,0.7279198739174491,0.27309113791916284,0.058548155859164,0.157622599202511,nan,nan,nan,nan
17.94617772102356,0.40791214,-0.052934203,-2.4135673,-0.21938808925147418,nan,nan,nan,nan,nan,7.944208383560181,9.14420838356018,0.005988121032714844,nan,nan,nan,nan,0.7285194671905582,0.23840107864332716,0.04823295764441948,0.1454788293060192,nan,nan,nan,nan
18.041269540786743,0.4185227,-0.1312058,-2.3969176,-0.19289542852642824,nan,nan,nan,nan,nan,8.039220094680786,9.239220094680785,0.0052683353424072266,nan,nan,nan,nan,0.7292461849830463,0.1760886373350504,0.03224243592175789,0.12743655809620316,nan,nan,nan,nan
18.139208793640137,0.4251376,-0.1754975,-2.384373,-0.1818063801156932,nan,nan,nan,nan,nan,8.137221097946167,9.337221097946166,0.005300760269165039,nan,nan,nan,nan,0.7292112746347327,0.1871916239258773,0.04154978057886682,0.1184910415447448,nan,nan,nan,nan
18.23675799369812,0.43375447,-0.22785656,-2.3640602,-0.17307989989647862,nan,nan,nan,nan,nan,8.234709978103638,9.434709978103637,0.0056149959564208984,nan,nan,nan,nan,0.7296174491418993,0.2163696561699505,0.054874269858597786,0.11106365825164924,nan,nan,nan,nan
18.336423873901367,0.43887678,-0.259791,-2.3499494,-0.17120440527450606,nan,nan,nan,nan,nan,8.334376096725464,9.534376096725463,0.005298137664794922,nan,nan,nan,nan,0.7298801006205592,0.22558847646522429,0.06093944938567067,0.10878566081786972,nan,nan,nan,nan
18.44751238822937,0.44586325,-0.2959897,-2.3377278,-0.17374552035950733,nan,nan,nan,nan,nan,8.445570945739746,9.645570945739745,0.007063627243041992,nan,nan,nan,nan,0.7298404090804106,0.2239898490727224,0.06635204716486533,0.10917977540039016,nan,nan,nan,nan
18.54657816886902,0.4511319,-0.32585675,-2.3294418,-0.1800332027515296,nan,nan,nan,nan,nan,8.544577836990356,9.744577836990356,0.006586551666259766,nan,nan,nan,nan,0.7294923312753512,0.19184552397828095,0.0625669227441673,0.11271284156895318,nan,nan,nan,nan
18.63957405090332,0.45313212,-0.34046626,-2.3262734,-0.18444350317533115,nan,nan,nan,nan,nan,8.637519359588623,9.837519359588622,0.009128808975219727,nan,nan,nan,nan,0.7291811537943269,0.15860092354288596,0.055366676086056735,0.11570117834529178,nan,nan,nan,nan
18.7428617477417,0.45573977,-0.36248225,-2.3250864,-0.19096572351042443,nan,nan,nan,nan,nan,8.740853309631348,9.940853309631347,0.005495786666870117,nan,nan,nan,nan,0.7286968438617426,0.08022674886795589,0.0287580866534639,0.12030893788749278,nan,nan,nan,nan
18.837549686431885,0.45849222,-0.3782947,-2.3269444,-0.1918846257934444,nan,nan,nan,nan,nan,8.835500001907349,10.035500001907348,0.005548954010009766,nan,nan,nan,nan,0.7285188896065137,0.03888037474841739,0.018453852230419125,0.12192865096870441,nan,nan,nan,nan
18.93827724456787,0.45698437,-0.3881624,-2.3281038,-0.1867518732051052,nan,nan,nan,nan,nan,8.936216831207275,10.136216831207275,0.00562739372253418,nan,nan,nan,nan,0.7282872921320627,-0.04599062233910904,-0.0017248062401705217,0.12076956143194546,nan,nan,nan,nan
19.038811683654785,0.45705,-0.3909717,-2.334845,-0.17334595216794274,nan,nan,nan,nan,nan,9.036763429641724,10.236763429641723,0.005855083465576172,nan,nan,nan,nan,0.7280168984475838,-0.14096501611416554,-0.02682303682882317,0.11371078967508344,nan,nan,nan,nan
19.139710903167725,0.45589805,-0.38598144,-2.3421295,-0.1616203382018842,nan,nan,nan,nan,nan,9.13766074180603,10.33766074180603,0.005118370056152344,nan,nan,nan,nan,0.7277990219087742,-0.1661337862107667,-0.02697956134662467,0.10653040525540051,nan,nan,nan,nan
19.23474621772766,0.44804806,-0.36885303,-2.352193,-0.1432250203922247,nan,nan,nan,nan,nan,9.232740640640259,10.432740640640258,0.007345438003540039,nan,nan,nan,nan,0.7274747338595583,-0.1860281442676757,-0.03395764891619127,0.09623382638522428,nan,nan,nan,nan
19.33609366416931,0.4381437,-0.35281345,-2.354038,-0.12944072658038192,nan,nan,nan,nan,nan,9.334046602249146,10.534046602249145,0.005869626998901367,nan,nan,nan,nan,0.7274488391848849,-0.18219325095687455,-0.03726267039474395,0.08655349784232103,nan,nan,nan,nan
19.435986280441284,0.41857272,-0.3237383,-2.357962,-0.10842567951754631,nan,nan,nan,nan,nan,9.43399691581726,10.63399691581726,0.005689144134521484,nan,nan,nan,nan,0.7274300428414096,-0.16166205214507237,-0.0445595637016068,0.07349103873838334,nan,nan,nan,nan
19.54074716567993,0.40666407,-0.30066103,-2.3628683,-0.09427372547293691,nan,nan,nan,nan,nan,9.538710355758667,10.738710355758666,0.00525975227355957,nan,nan,nan,nan,0.7273627786962545,-0.1389683893762067,-0.04329109044848377,0.06421263211939743,nan,nan,nan,nan
19.640300273895264,0.39176017,-0.26173225,-2.373499,-0.07349660791379226,nan,nan,nan,nan,nan,9.638267517089844,10.838267517089843,0.005621910095214844,nan,nan,nan,nan,0.7271074285591791,-0.10801684874762157,-0.03806124329695963,0.050926640025099154,nan,nan,nan,nan
19.73683214187622,0.38210776,-0.23470055,-2.3827438,-0.060307754768436264,nan,nan,nan,nan,nan,9.734824180603027,10.934824180603027,0.005578517913818359,nan,nan,nan,nan,0.7269169190048195,-0.0882996230167582,-0.02999553263992859,0.04224855566768327,nan,nan,nan,nan
19.848230600357056,0.37163177,-0.20574921,-2.3796468,-0.044052981448499125,nan,nan,nan,nan,nan,9.846201419830322,11.046201419830322,0.005827188491821289,nan,nan,nan,nan,0.7270115199572122,-0.058734030296270875,-0.02061509402345025,0.030872057026618615,nan,nan,nan,nan
19.939935445785522,0.35753843,-0.17925625,-2.373444,-0.02806631313425879,nan,nan,nan,nan,nan,9.937888383865356,11.137888383865356,0.005068540573120117,nan,nan,nan,nan,0.7274158303004179,-0.030421237515879974,-0.014901461775047248,0.021180952268782825,nan,nan,nan,nan
20.035780906677246,0.34399784,-0.16199966,-2.3688462,-0.017542228795108295,nan,nan,nan,nan,nan,10.03389835357666,11.23389835357666,0.008698463439941406,nan,nan,nan,nan,0.7276435657205855,-0.010209922704874247,-0.01146576879059188,0.014275236997003322,nan,nan,nan,nan
20.149787664413452,0.3216583,-0.14092356,-2.36211,-0.003969169148417482,nan,nan,nan,nan,nan,10.147812128067017,11.347812128067016,0.006097316741943359,nan,nan,nan,nan,0.7280781718978176,0.012196575126445756,-0.015463739994458369,0.005357314443807109,nan,nan,nan,nan
20.242615699768066,0.30031955,-0.12508102,-2.3519094,0.008094914508873848,nan,nan,nan,nan,nan,10.240597486495972,11.440597486495971,0.00501561164855957,nan,nan,nan,nan,0.7285318352096236,0.02721294431808501,-0.019774085809343818,-0.0026556182827528383,nan,nan,nan,nan
20.337568521499634,0.28537777,-0.114256926,-2.3416824,0.01566733545580448,nan,nan,nan,nan,nan,10.335517168045044,11.535517168045043,0.009582281112670898,nan,nan,nan,nan,0.7289615873525724,0.035864592666195315,-0.019296354597775903,-0.007709673658413693,nan,nan,nan,nan
20.437105417251587,0.26768467,-0.10459134,-2.3276856,0.023552422638616427,nan,nan,nan,nan,nan,10.435060262680054,11.635060262680053,0.0058743953704833984,nan,nan,nan,nan,0.7294725559733941,0.0383919996490405,-0.01867546003692468,-0.013459801555981652,nan,nan,nan,nan
20.549785375595093,0.2474463,-0.0957392,-2.31679,0.031922087171648295,nan,nan,nan,nan,nan,10.547759056091309,11.747759056091308,0.0062465667724609375,nan,nan,nan,nan,0.729919842470007,0.041567831379914835,-0.014773049732352503,-0.01832330072705316,nan,nan,nan,nan
20.643981218338013,0.23492186,-0.09055537,-2.3143332,0.036788003474589076,nan,nan,nan,nan,nan,10.641955137252808,11.841955137252807,0.005282163619995117,nan,nan,nan,nan,0.7299859229505484,0.04260843217855791,-0.00885245449045497,-0.021924666440537074,nan,nan,nan,nan
20.73607301712036,0.22126316,-0.083871126,-2.311131,0.04155649432269583,nan,nan,nan,nan,nan,10.73406720161438,11.93406720161438,0.007097005844116211,nan,nan,nan,nan,0.7300222354795601,0.032983626418862835,-0.005167831518984506,-0.02596912600012693,nan,nan,nan,nan
20.848938465118408,0.20581008,-0.07020453,-2.3047931,0.0468723968536611,nan,nan,nan,nan,nan,10.846927165985107,12.046927165985107,0.006235361099243164,nan,nan,nan,nan,0.7301202584586511,0.018532151334045895,-0.0013939915936370477,-0.029424738131011225,nan,nan,nan,nan
20.939582109451294,0.19203246,-0.054298792,-2.301663,0.05122901575963967,nan,nan,nan,nan,nan,10.93752932548523,12.137529325485229,0.005611896514892578,nan,nan,nan,nan,0.7301469585104517,0.0030767054141225556,0.0019828299751691357,-0.03193047304531812,nan,nan,nan,nan
21.03705883026123,0.18421541,-0.042794432,-2.301591,0.05374174430130728,nan,nan,nan,nan,nan,11.035024166107178,12.235024166107177,0.005722761154174805,nan,nan,nan,nan,0.7300548069970544,-0.003958952807781193,0.0053108236749501705,-0.03351300132423679,nan,nan,nan,nan
21.149802684783936,0.17682207,-0.02622196,-2.300739,0.05629560847545139,nan,nan,nan,nan,nan,11.147786617279053,12.347786617279052,0.0057981014251708984,nan,nan,nan,nan,0.7299633705650342,-0.01724522803567207,0.011153742198092854,-0.035436099650775585,nan,nan,nan,nan
21.245693922042847,0.1737427,-0.0083307605,-2.2904208,0.05786853364171632,nan,nan,nan,nan,nan,11.243684530258179,12.443684530258178,0.004981279373168945,nan,nan,nan,nan,0.7302966432672571,-0.03010122904503627,0.01697229418922835,-0.03672468671676472,nan,nan,nan,nan
21.34047508239746,0.17291291,0.0038836736,-2.2856524,0.058596518925859625,nan,nan,nan,nan,nan,11.338422298431396,12.538422298431396,0.0052449703216552734,nan,nan,nan,nan,0.7304407066880265,-0.03355836153087794,0.02020622415227169,-0.03728167946256585,nan,nan,nan,nan
21.436334133148193,0.17096528,0.020256257,-2.2847705,0.059095689347454905,nan,nan,nan,nan,nan,11.434282302856445,12.634282302856445,0.007069826126098633,nan,nan,nan,nan,0.7303769813706633,-0.03749070632220374,0.019004716880536773,-0.037717401094921194,nan,nan,nan,nan
21.55080795288086,0.16945782,0.036149234,-2.2872455,0.05927244265140915,nan,nan,nan,nan,nan,11.548785924911499,12.748785924911498,0.0064716339111328125,nan,nan,nan,nan,0.7301185215279107,-0.04107886405066897,0.017386472469343335,-0.037959748171439996,nan,nan,nan,nan
21.6417019367218,0.16880295,0.05394793,-2.2884803,0.058938051851712914,nan,nan,nan,nan,nan,11.639651775360107,12.839651775360107,0.005532979965209961,nan,nan,nan,nan,0.7298590802240166,-0.039678514849982666,0.015461832316561029,-0.037826983139403775,nan,nan,nan,nan
21.73371648788452,0.16733828,0.065843314,-2.2869382,0.05861472961504607,nan,nan,nan,nan,nan,11.731675863265991,12.93167586326599,0.007135629653930664,nan,nan,nan,nan,0.7299477799540697,-0.0447553330693221,0.013443764106021586,-0.03773053947436821,nan,nan,nan,nan
21.837795734405518,0.16406626,0.08254519,-2.285781,0.057915778676102744,nan,nan,nan,nan,nan,11.835774183273315,13.035774183273315,0.005913257598876953,nan,nan,nan,nan,0.7299469875743673,-0.044632014399555,0.006024887143391016,-0.03720750602542134,nan,nan,nan,nan
21.950850248336792,0.15424022,0.102551386,-2.2895105,0.056825619303583166,nan,nan,nan,nan,nan,11.948817014694214,13.148817014694213,0.007175922393798828,nan,nan,nan,nan,0.7297989428606934,-0.04788237530140632,-0.0012828049768902248,-0.03675227674296827,nan,nan,nan,nan
22.04431653022766,0.13717756,0.12145164,-2.2957494,0.0557156930947988,nan,nan,nan,nan,nan,12.042325258255005,13.242325258255004,0.0057332515716552734,nan,nan,nan,nan,0.7294761746711064,-0.04577484140987725,-0.013773870640163348,-0.03592804495957681,nan,nan,nan,nan
22.145101308822632,0.1216526,0.13411081,-2.301677,0.05493481030026756,nan,nan,nan,nan,nan,12.143085241317749,13.343085241317748,0.005219459533691406,nan,nan,nan,nan,0.7293078015860045,-0.05071888568518922,-0.022944667588846182,-0.03560875639831952,nan,nan,nan,nan
22.24237298965454,0.0961435,0.14989352,-2.3078902,0.05400028673601527,nan,nan,nan,nan,nan,12.240355253219604,13.440355253219604,0.0052280426025390625,nan,nan,nan,nan,0.7290361549855413,-0.043635944625268916,-0.036208038687359036,-0.03485605168911335,nan,nan,nan,nan
22.340887308120728,0.082326606,0.15666172,-2.3042414,0.053211021180154534,nan,nan,nan,nan,nan,12.338890552520752,13.538890552520751,0.00546717643737793,nan,nan,nan,nan,0.7289874225997651,-0.04199537634072565,-0.04001760261270805,-0.03446959677936521,nan,nan,nan,nan
22.435819625854492,0.0580531,0.16097945,-2.3070285,0.05171468926472055,nan,nan,nan,nan,nan,12.433780431747437,13.633780431747436,0.006379604339599609,nan,nan,nan,nan,0.7290503403714551,-0.01883057119584595,-0.03675153978967672,-0.033366688095670505,nan,nan,nan,nan
22.530146598815918,0.040289894,0.16266479,-2.3162758,0.0503647736548956,nan,nan,nan,nan,nan,12.52821159362793,13.728211593627929,0.008381843566894531,nan,nan,nan,nan,0.7288299544469176,-0.002508597374114715,-0.036167599518392705,-0.03259348186318904,nan,nan,nan,nan
22.645567178726196,0.031752206,0.16356608,-2.3284938,0.049171849382471426,nan,nan,nan,nan,nan,12.643595695495605,13.843595695495605,0.005137205123901367,nan,nan,nan,nan,0.7283330405033294,0.009392181210035508,-0.0194914580894282,-0.031524915660336966,nan,nan,nan,nan
22.740172147750854,0.027007427,0.15807937,-2.3396952,0.04805744723607633,nan,nan,nan,nan,nan,12.738137483596802,13.938137483596801,0.00794219970703125,nan,nan,nan,nan,0.72808727817386,0.010824904834901476,-0.0114043631717139,-0.03102544450501767,nan,nan,nan,nan
22.83522319793701,0.021497102,0.15106879,-2.3508036,0.04643486513633669,nan,nan,nan,nan,nan,12.833199739456177,14.033199739456176,0.007758617401123047,nan,nan,nan,nan,0.7277263852976369,0.023429804494136872,0.00199068164626117,-0.029892096561916617,nan,nan,nan,nan
22.951680421829224,0.011519271,0.14108436,-2.3568387,0.045032051526709665,nan,nan,nan,nan,nan,12.949659824371338,14.149659824371337,0.006744861602783203,nan,nan,nan,nan,0.7276112495042945,0.023071444599885638,0.0085280684375375,-0.029027692298474773,nan,nan,nan,nan
23.04659342765808,0.002778609,0.12810878,-2.3635101,0.04366919340353957,nan,nan,nan,nan,nan,13.044580936431885,14.244580936431884,0.005255937576293945,nan,nan,nan,nan,0.7276020276125204,0.02733930716469997,0.006716208864314448,-0.028126778268218983,nan,nan,nan,nan
23.143399953842163,0.00023704582,0.116771124,-2.3706033,0.042644332160742954,nan,nan,nan,nan,nan,13.141347408294678,14.341347408294677,0.005182743072509766,nan,nan,nan,nan,0.7275752029997334,0.024262112167569662,0.010546396556441316,-0.027448072523187712,nan,nan,nan,nan
23.241541862487793,-0.0025703553,0.09225739,-2.3788097,0.04087212566769065,nan,nan,nan,nan,nan,13.239486694335938,14.439486694335937,0.005221366882324219,nan,nan,nan,nan,0.7274522376288671,0.028614711091831974,0.014981363538498715,-0.026379839026293102,nan,nan,nan,nan
23.336308240890503,-0.005616015,0.070214115,-2.3898787,0.03940311080063995,nan,nan,nan,nan,nan,13.334257125854492,14.534257125854491,0.006348133087158203,nan,nan,nan,nan,0.7272437925908711,0.029087028297948844,0.01572800412453376,-0.025447738375322573,nan,nan,nan,nan
23.451953411102295,-0.0111489,0.0445751,-2.400834,0.037768000396046573,nan,nan,nan,nan,nan,13.449921369552612,14.649921369552612,0.006999969482421875,nan,nan,nan,nan,0.7269083036183581,0.028986846572753664,0.012143229684997906,-0.024312339225635814,nan,nan,nan,nan
23.544835090637207,-0.014634696,0.024078649,-2.407834,0.03646704351472427,nan,nan,nan,nan,nan,13.542784452438354,14.742784452438354,0.005171298980712891,nan,nan,nan,nan,0.7267793667696868,0.0252822147592932,0.008894734582837424,-0.023607556183280858,nan,nan,nan,nan
23.644836902618408,-0.012859241,-0.0075469725,-2.4120874,0.03455357717157497,nan,nan,nan,nan,nan,13.643011808395386,14.843011808395385,0.0052373409271240234,nan,nan,nan,nan,0.7268674941494784,0.027904390479881875,0.008984313027472811,-0.02238730542173414,nan,nan,nan,nan
23.745388984680176,-0.011126509,-0.027816756,-2.4197652,0.03327618674105767,nan,nan,nan,nan,nan,13.743354558944702,14.943354558944701,0.005218029022216797,nan,nan,nan,nan,0.7268076775140201,0.02666385039447528,0.010925241922386175,-0.021526942969640306,nan,nan,nan,nan
23.8431339263916,-0.0058973073,-0.05781367,-2.427325,0.031654524057111465,nan,nan,nan,nan,nan,13.841088056564331,15.04108805656433,0.005427122116088867,nan,nan,nan,nan,0.7266871350732294,0.026997082350625045,0.01335856283044806,-0.020399097541639957,nan,nan,nan,nan
23.938336610794067,0.0010251898,-0.07449855,-2.429395,0.030848884443310964,nan,nan,nan,nan,nan,13.936289310455322,15.136289310455322,0.007771015167236328,nan,nan,nan,nan,0.726655996266466,0.027065024240253494,0.016280887114498453,-0.01980600515037566,nan,nan,nan,nan
24.051207542419434,0.013725528,-0.09781076,-2.4304311,0.02976722014192053,nan,nan,nan,nan,nan,14.049203634262085,15.249203634262084,0.006397724151611328,nan,nan,nan,nan,0.726836139360518,0.026117256866271213,0.02564433407083681,-0.01902437631263066,nan,nan,nan,nan
24.144219398498535,0.0216059,-0.112841435,-2.427396,0.029065899876837345,nan,nan,nan,nan,nan,14.14216160774231,15.342161607742309,0.005304098129272461,nan,nan,nan,nan,0.72722498114354,0.020785505327264427,0.028268623967322826,-0.018429890044029906,nan,nan,nan,nan
24.238433837890625,0.031343587,-0.13239247,-2.4220524,0.028218975726742212,nan,nan,nan,nan,nan,14.236401081085205,15.436401081085204,0.006731748580932617,nan,nan,nan,nan,0.727572633421586,0.01840345056672534,0.027343291940988664,-0.01785894864152453,nan,nan,nan,nan
24.33444094657898,0.039605368,-0.15226482,-2.412231,0.027300539608554386,nan,nan,nan,nan,nan,14.332418203353882,15.532418203353881,0.0061187744140625,nan,nan,nan,nan,0.727946362330255,0.02098481560741159,0.025211961661483987,-0.017361831146618868,nan,nan,nan,nan
24.4396755695343,0.04794114,-0.17199682,-2.4047604,0.026169760199563057,nan,nan,nan,nan,nan,14.437638282775879,15.637638282775878,0.008895158767700195,nan,nan,nan,nan,0.728353487219579,0.027150362345746897,0.023208042310118998,-0.016762409960156533,nan,nan,nan,nan
24.535730123519897,0.052706487,-0.18348765,-2.4037793,0.02540131262806313,nan,nan,nan,nan,nan,14.53370976448059,15.73370976448059,0.0066754817962646484,nan,nan,nan,nan,0.7286413118936146,0.02960744906461169,0.018990492566172957,-0.015996377954584647,nan,nan,nan,nan
24.64638042449951,0.048770927,-0.19344637,-2.40474,0.024268052636564785,nan,nan,nan,nan,nan,14.64433479309082,15.84433479309082,0.005019664764404297,nan,nan,nan,nan,0.7287007405700942,0.02619803504104274,0.007335834054514435,-0.015140313318893346,nan,nan,nan,nan
24.737420082092285,0.046586495,-0.20507872,-2.3986819,0.023155502518624037,nan,nan,nan,nan,nan,14.735377311706543,15.935377311706542,0.00746464729309082,nan,nan,nan,nan,0.7288584551368738,0.023602909551399816,-0.001659365246634152,-0.014511858106999447,nan,nan,nan,nan
24.851195573806763,0.038457472,-0.21757014,-2.392163,0.021915998541227708,nan,nan,nan,nan,nan,14.849151134490967,16.049151134490966,0.005867481231689453,nan,nan,nan,nan,0.7291098532677341,0.02132351754106851,-0.011001166347358355,-0.013708698490105243,nan,nan,nan,nan
24.951002836227417,0.029034067,-0.22457632,-2.390496,0.020984569037032937,nan,nan,nan,nan,nan,14.949300765991211,16.14930076599121,0.006196498870849609,nan,nan,nan,nan,0.729192776837341,0.025241090777240797,-0.014309214835552538,-0.013007652725732132,nan,nan,nan,nan
25.048924922943115,0.011185212,-0.22976181,-2.3933685,0.01968235999045735,nan,nan,nan,nan,nan,15.047034740447998,16.247034740447997,0.0052165985107421875,nan,nan,nan,nan,0.7290776450291354,0.015353087810105978,-0.02455507858612304,-0.012237436040987534,nan,nan,nan,nan
25.138749361038208,-0.00062307203,-0.22870348,-2.3968751,0.018981287955829984,nan,nan,nan,nan,nan,15.136736392974854,16.336736392974853,0.006787776947021484,nan,nan,nan,nan,0.7289671097831963,0.010747421690864003,-0.02663900464627531,-0.011659973248899842,nan,nan,nan,nan
25.252357006072998,-0.015904961,-0.22494233,-2.4038405,0.018047910971202716,nan,nan,nan,nan,nan,15.25038456916809,16.45038456916809,0.0063114166259765625,nan,nan,nan,nan,0.7286389270642599,-0.004562828012421302,-0.027445366938673433,-0.011014511527253024,nan,nan,nan,nan
25.344271421432495,-0.041180003,-0.2190385,-2.409475,0.017184397532721385,nan,nan,nan,nan,nan,15.342240810394287,16.542240810394286,0.0055158138275146484,nan,nan,nan,nan,0.7283683615535911,-0.017094402792586342,-0.030403183904914415,-0.010623688793590273,nan,nan,nan,nan
25.4433274269104,-0.060350627,-0.21288852,-2.4139726,0.016662932141602728,nan,nan,nan,nan,nan,15.441275119781494,16.641275119781493,0.005339145660400391,nan,nan,nan,nan,0.7282714609294461,-0.01429938423898499,-0.032070738567981635,-0.010190505317248522,nan,nan,nan,nan
25.543647289276123,-0.08451671,-0.20001322,-2.4213483,0.01606121661457428,nan,nan,nan,nan,nan,15.541591167449951,16.74159116744995,0.0060923099517822266,nan,nan,nan,nan,0.7280483239304724,-0.021598488219334005,-0.030810781036803514,-0.009958133354967327,nan,nan,nan,nan
25.637796640396118,-0.09962581,-0.19083962,-2.423646,0.015549561739338904,nan,nan,nan,nan,nan,15.635780334472656,16.835780334472656,0.006607532501220703,nan,nan,nan,nan,0.7280008930439051,-0.019538031537478656,-0.02513229182680366,-0.009613556545247507,nan,nan,nan,nan
25.73479151725769,-0.1242239,-0.17451105,-2.4223142,0.01477950262399406,nan,nan,nan,nan,nan,15.732821702957153,16.932821702957153,0.006705045700073242,nan,nan,nan,nan,0.7281052414701329,-0.021482188234188015,-0.019229567340816284,-0.009264766961974856,nan,nan,nan,nan
25.849361896514893,-0.14690538,-0.15615635,-2.4212534,0.014251573248343578,nan,nan,nan,nan,nan,15.847344875335693,17.047344875335693,0.00571751594543457,nan,nan,nan,nan,0.7282968975485988,-0.02085810792001727,-0.014356168993795104,-0.008877494102046276,nan,nan,nan,nan
25.946107864379883,-0.16178615,-0.13947032,-2.4169252,0.013770263473298313,nan,nan,nan,nan,nan,15.944049596786499,17.1440495967865,0.005249977111816406,nan,nan,nan,nan,0.7284001419331891,-0.018199485399698966,-0.007752622890246653,-0.008608666017796373,nan,nan,nan,nan
26.036836624145508,-0.17049539,-0.12670508,-2.4132493,0.01341900405763786,nan,nan,nan,nan,nan,16.03479790687561,17.23479790687561,0.00740504264831543,nan,nan,nan,nan,0.7287285963937192,-0.014236143456424186,0.0005195019438912551,-0.008366420817808012,nan,nan,nan,nan
26.134464979171753,-0.18068708,-0.101897754,-2.3988442,0.012923650261383153,nan,nan,nan,nan,nan,16.132540941238403,17.332540941238403,0.005284309387207031,nan,nan,nan,nan,0.7292551121927953,-0.014528716241996238,0.01058669664541429,-0.008125474854267935,nan,nan,nan,nan
26.244354248046875,-0.19481067,-0.08089399,-2.389491,0.012598108938431224,nan,nan,nan,nan,nan,16.242321491241455,17.442321491241454,0.0051288604736328125,nan,nan,nan,nan,0.7296703523550251,-0.01286936280341551,0.01435771005724071,-0.007898347420710817,nan,nan,nan,nan
26.337690591812134,-0.20588815,-0.06400692,-2.3846576,0.012308884692566729,nan,nan,nan,nan,nan,16.335641622543335,17.535641622543334,0.006706953048706055,nan,nan,nan,nan,0.7298057809172943,-0.010088236776156336,0.014478071638043528,-0.007778143563354247,nan,nan,nan,nan
26.451027393341064,-0.21867152,-0.041682694,-2.3811476,0.011867498111637719,nan,nan,nan,nan,nan,16.449113607406616,17.649113607406616,0.00531315803527832,nan,nan,nan,nan,0.7299439460429996,-0.0099935194709004,0.012344130437494731,-0.007550824823673975,nan,nan,nan,nan
26.547929286956787,-0.23029181,-0.015345082,-2.37718,0.011286024835078918,nan,nan,nan,nan,nan,16.54590630531311,17.74590630531311,0.005174875259399414,nan,nan,nan,nan,0.7300253863504318,-0.014604463484264795,0.010220642097900457,-0.007194003876128366,nan,nan,nan,nan
26.642285108566284,-0.23525383,0.003577993,-2.3723693,0.011031620024115294,nan,nan,nan,nan,nan,16.640239000320435,17.840239000320434,0.005683422088623047,nan,nan,nan,nan,0.7301445798632178,-0.017616377397781963,0.011698681612204713,-0.007075267491421117,nan,nan,nan,nan
26.736664056777954,-0.23966585,0.0295101,-2.3676686,0.010785625738608244,nan,nan,nan,nan,nan,16.73463773727417,17.93463773727417,0.006581544876098633,nan,nan,nan,nan,0.7302708367509743,-0.028438909207125065,0.01149181435492866,-0.006929181945927831,nan,nan,nan,nan
26.848963499069214,-0.24195006,0.0689132,-2.362501,0.01033511409164697,nan,nan,nan,nan,nan,16.847063302993774,18.047063302993774,0.0051577091217041016,nan,nan,nan,nan,0.7302814457902008,-0.03875340058312766,0.013409272505531254,-0.006828911932022867,nan,nan,nan,nan
26.945881128311157,-0.24269317,0.10658095,-2.3577085,0.009922920581097516,nan,nan,nan,nan,nan,16.94383978843689,18.14383978843689,0.005621671676635742,nan,nan,nan,nan,0.730389692366897,-0.05202932004374005,0.015401110131954136,-0.0066518995839880135,nan,nan,nan,nan
27.040109634399414,-0.24438103,0.13544023,-2.3553638,0.009570275212067254,nan,nan,nan,nan,nan,17.038081407546997,18.238081407546996,0.00805521011352539,nan,nan,nan,nan,0.7304517349409391,-0.05705584388712199,0.014811726577407622,-0.006620961324975778,nan,nan,nan,nan
27.152551889419556,-0.24589628,0.16665359,-2.345798,0.009263548811681089,nan,nan,nan,nan,nan,17.15055274963379,18.35055274963379,0.005394458770751953,nan,nan,nan,nan,0.7306566343702263,-0.05378867356556889,0.010243333252212074,-0.006359087317649042,nan,nan,nan,nan
27.250837802886963,-0.25168565,0.18591347,-2.346974,0.008991226734704018,nan,nan,nan,nan,nan,17.2489652633667,18.4489652633667,0.005359649658203125,nan,nan,nan,nan,0.730596785730411,-0.04630678489242835,0.0032967709660314142,-0.0062662909926383134,nan,nan,nan,nan
27.345911741256714,-0.25525472,0.2036674,-2.3501089,0.008753096400986173,nan,nan,nan,nan,nan,17.343918085098267,18.543918085098266,0.005396366119384766,nan,nan,nan,nan,0.7303466693998668,-0.04345359686811843,-0.002384381705201826,-0.006302081955034218,nan,nan,nan,nan
27.445338487625122,-0.26063776,0.22271119,-2.355322,0.008469941428316198,nan,nan,nan,nan,nan,17.443296670913696,18.643296670913696,0.00513458251953125,nan,nan,nan,nan,0.729957349288112,-0.02642845148010315,-0.00679650229643656,-0.006025467422751874,nan,nan,nan,nan
27.539753675460815,-0.26738343,0.23164946,-2.3589857,0.008225554847770664,nan,nan,nan,nan,nan,17.537715435028076,18.737715435028075,0.007630586624145508,nan,nan,nan,nan,0.7298520021075187,-0.025998774725569402,-0.011913331301305907,-0.006076785829064369,nan,nan,nan,nan
27.63519811630249,-0.28493878,0.24292563,-2.3686147,0.007810363513700763,nan,nan,nan,nan,nan,17.633288145065308,18.833288145065307,0.0060274600982666016,nan,nan,nan,nan,0.7294581000802006,-0.009177957487082472,-0.022323111957492925,-0.005605346939935248,nan,nan,nan,nan
27.74970245361328,-0.302089,0.25390115,-2.3748002,0.007613768200605107,nan,nan,nan,nan,nan,17.747796535491943,18.947796535491943,0.005137920379638672,nan,nan,nan,nan,0.7291448834199538,-0.0035389921188955903,-0.029887066180240743,-0.005494085324606272,nan,nan,nan,nan
27.845380306243896,-0.31082126,0.26043427,-2.379335,0.007509044976154344,nan,nan,nan,nan,nan,17.84335422515869,19.04335422515869,0.005654335021972656,nan,nan,nan,nan,0.7289618579883853,-0.004145845904365547,-0.03146794971220843,-0.0055716683350105186,nan,nan,nan,nan
27.950258016586304,-0.3209535,0.26723424,-2.3879662,0.007147575708075881,nan,nan,nan,nan,nan,17.948269844055176,19.148269844055175,0.0051250457763671875,nan,nan,nan,nan,0.7286861621279478,-0.0005222479464232024,-0.024318850940912087,-0.005212061155679828,nan,nan,nan,nan
28.044968605041504,-0.3250202,0.2640846,-2.3950436,0.0068238920084680715,nan,nan,nan,nan,nan,18.042914628982544,19.242914628982543,0.005820035934448242,nan,nan,nan,nan,0.7285631439200535,0.005012062399464903,-0.016233003811332438,-0.00501738114521588,nan,nan,nan,nan
28.140400409698486,-0.32786775,0.25856352,-2.403007,0.006507164042098586,nan,nan,nan,nan,nan,18.138360738754272,19.33836073875427,0.009195327758789062,nan,nan,nan,nan,0.7283500234485772,0.010437363144560216,-0.009022511056105811,-0.004804112133023428,nan,nan,nan,nan
28.238372325897217,-0.33113876,0.24317496,-2.4112813,0.006091885316284906,nan,nan,nan,nan,nan,18.236405849456787,19.436405849456786,0.007096290588378906,nan,nan,nan,nan,0.7280358310040838,0.02716973706853414,0.0011136436080112977,-0.004350369207509068,nan,nan,nan,nan
28.334863424301147,-0.3346146,0.23099402,-2.4128442,0.0057723028202337195,nan,nan,nan,nan,nan,18.33297061920166,19.53297061920166,0.00510096549987793,nan,nan,nan,nan,0.7280222825031261,0.02933030093404102,0.0046861006967496305,-0.00420304498401509,nan,nan,nan,nan
28.448940992355347,-0.3466268,0.20616561,-2.4101174,0.005166428962693992,nan,nan,nan,nan,nan,18.446893215179443,19.646893215179443,0.005184173583984375,nan,nan,nan,nan,0.7283323166997571,0.038889940413978315,0.0017994039403180218,-0.0037665259434141634,nan,nan,nan,nan
28.54640293121338,-0.35576588,0.1896117,-2.4093368,0.0047245096752292146,nan,nan,nan,nan,nan,18.54436421394348,19.74436421394348,0.005578756332397461,nan,nan,nan,nan,0.7285415976130568,0.03520959374560451,-0.0035034803334606716,-0.0035260383825068756,nan,nan,nan,nan
28.645484924316406,-0.36462972,0.15768725,-2.4078906,0.004121672024294864,nan,nan,nan,nan,nan,18.643431901931763,19.843431901931762,0.005324602127075195,nan,nan,nan,nan,0.7287122536745746,0.03833916434518157,-0.006793268400679004,-0.0030462988544237863,nan,nan,nan,nan
28.746103286743164,-0.36845264,0.1354217,-2.4090629,0.0037609205943330763,nan,nan,nan,nan,nan,18.744099855422974,19.944099855422973,0.005370140075683594,nan,nan,nan,nan,0.7287168306067034,0.03496805791818596,-0.005133624223187091,-0.002813799010575771,nan,nan,nan,nan
28.8443284034729,-0.37186077,0.102215186,-2.4133391,0.0032611245300733444,nan,nan,nan,nan,nan,18.842272996902466,20.042272996902465,0.00576472282409668,nan,nan,nan,nan,0.7285468671682468,0.0337864282076838,0.0009833360163488427,-0.002381768534785757,nan,nan,nan,nan
28.944162368774414,-0.37489748,0.069558606,-2.4185371,0.002836049497345182,nan,nan,nan,nan,nan,18.942119121551514,20.142119121551513,0.005564451217651367,nan,nan,nan,nan,0.728409267928802,0.03282205356740032,0.004442246702241471,-0.0020294519039519483,nan,nan,nan,nan
29.037705183029175,-0.3779566,0.045735918,-2.4241462,0.002640384294837676,nan,nan,nan,nan,nan,19.0356707572937,20.2356707572937,0.005640268325805664,nan,nan,nan,nan,0.7283155267229167,0.027165653543430278,0.004333438241954638,-0.001919668403921381,nan,nan,nan,nan
29.14996862411499,-0.38651845,0.012700029,-2.4309435,0.002417247080079988,nan,nan,nan,nan,nan,19.147916555404663,20.347916555404662,0.004940509796142578,nan,nan,nan,nan,0.7280802685996565,0.02411288101384102,0.0025252701731576393,-0.0017292522326380739,nan,nan,nan,nan
29.24607014656067,-0.3919885,-0.023586836,-2.439045,0.002124020829994003,nan,nan,nan,nan,nan,19.244084358215332,20.44408435821533,0.005574226379394531,nan,nan,nan,nan,0.72785088994322,0.02602638884055826,-0.0019772087791388366,-0.0014768680549455833,nan,nan,nan,nan
29.345831632614136,-0.3913064,-0.049727328,-2.4447157,0.0019893995262690823,nan,nan,nan,nan,nan,19.343802452087402,20.5438024520874,0.006329059600830078,nan,nan,nan,nan,0.7276856121721738,0.026358783311225847,-0.001075835638655702,-0.0013271089082305771,nan,nan,nan,nan
29.447550296783447,-0.3832859,-0.08864402,-2.4511578,0.001777004904498892,nan,nan,nan,nan,nan,19.44549560546875,20.64549560546875,0.005395412445068359,nan,nan,nan,nan,0.727590042475856,0.029755709357965322,0.007652065906208651,-0.0011084697645894492,nan,nan,nan,nan
29.54102611541748,-0.37760928,-0.11627594,-2.453616,0.001559008944045143,nan,nan,nan,nan,nan,19.539015293121338,20.739015293121337,0.00693202018737793,nan,nan,nan,nan,0.727601128848702,0.03286668869002784,0.012324267700847508,-0.0009430433190352067,nan,nan,nan,nan
29.65023899078369,-0.36520278,-0.15091352,-2.4569466,0.0013966447500942877,nan,nan,nan,nan,nan,19.648192882537842,20.84819288253784,0.005157947540283203,nan,nan,nan,nan,0.7275940844017683,0.03639108024211059,0.019131336372990474,-0.0006888609867390659,nan,nan,nan,nan
29.742689847946167,-0.35449374,-0.17196187,-2.461761,0.001350912400916877,nan,nan,nan,nan,nan,19.740642547607422,20.94064254760742,0.006775617599487305,nan,nan,nan,nan,0.7275391850534525,0.03949362547164022,0.023013321381977803,-0.0005664756039095686,nan,nan,nan,nan
29.83823323249817,-0.34104016,-0.19716758,-2.4724355,0.0013911562788533494,nan,nan,nan,nan,nan,19.836568117141724,21.036568117141723,0.006724119186401367,nan,nan,nan,nan,0.7272794808095554,0.03248693347477201,0.027622333482057518,-0.0005088611853481254,nan,nan,nan,nan
29.937037706375122,-0.33441404,-0.21333483,-2.4823284,0.0014660090661873793,nan,nan,nan,nan,nan,19.93505573272705,21.13505573272705,0.006455898284912109,nan,nan,nan,nan,0.7270053456394454,0.03141807570623024,0.026324828073205162,-0.0004728427700899529,nan,nan,nan,nan
30.035610914230347,-0.32336044,-0.23342225,-2.4891758,0.0016576921933712102,nan,nan,nan,nan,nan,20.03359866142273,21.23359866142273,0.005093574523925781,nan,nan,nan,nan,0.7268214525079635,0.0204634781694285,0.021434495301048698,-0.0005135820620676586,nan,nan,nan,nan
30.144437313079834,-0.31563193,-0.23917948,-2.494487,0.0017891110115477171,nan,nan,nan,nan,nan,20.14240002632141,21.34240002632141,0.0062427520751953125,nan,nan,nan,nan,0.7267303204749528,0.012878118256366861,0.01832918697447991,-0.0005336285272036993,nan,nan,nan,nan
30.23764204978943,-0.30422053,-0.2427324,-2.5057735,0.0018443961371841268,nan,nan,nan,nan,nan,20.235614776611328,21.435614776611327,0.005003452301025391,nan,nan,nan,nan,0.7265370976974012,-0.0010290673837318712,0.014914060699855255,-0.0005841759018170633,nan,nan,nan,nan
30.34556555747986,-0.29534712,-0.24232988,-2.5157714,0.0017735011330599522,nan,nan,nan,nan,nan,20.343526363372803,21.543526363372802,0.006914854049682617,nan,nan,nan,nan,0.7262633495109247,-0.005835237452991285,0.012772562407683187,-0.0005243481462418031,nan,nan,nan,nan
30.44011926651001,-0.28623384,-0.23689485,-2.5233805,0.0015239675808857225,nan,nan,nan,nan,nan,20.438080549240112,21.63808054924011,0.006265163421630859,nan,nan,nan,nan,0.7261773738679249,-0.0187994713324501,0.007081497748463008,-0.00041559425156102335,nan,nan,nan,nan
30.552454948425293,-0.2836282,-0.23307332,-2.5252151,0.0013424845269769219,nan,nan,nan,nan,nan,20.550446033477783,21.750446033477782,0.005162477493286133,nan,nan,nan,nan,0.7262879054159629,-0.01811467482846916,0.0012187694392495787,-0.0002872847622394873,nan,nan,nan,nan
30.651984214782715,-0.28556424,-0.2272284,-2.52505,0.0009589197553320841,nan,nan,nan,nan,nan,20.650010585784912,21.85001058578491,0.005403995513916016,nan,nan,nan,nan,0.7265291843414265,-0.02154009162367502,-0.009893162586585427,-8.836433036065327e-05,nan,nan,nan,nan
30.749536752700806,-0.29073197,-0.2199277,-2.5268478,0.0007079871570706223,nan,nan,nan,nan,nan,20.747503519058228,21.947503519058227,0.0050656795501708984,nan,nan,nan,nan,0.7266947728156402,-0.01711090641611728,-0.016582777133616076,0.00010390793932863617,nan,nan,nan,nan
30.842815399169922,-0.29602453,-0.21178532,-2.529535,0.0005030303003841167,nan,nan,nan,nan,nan,20.84078574180603,22.04078574180603,0.00573277473449707,nan,nan,nan,nan,0.7267339878754088,-0.016240197785810928,-0.024498900494366527,0.0002528230620081338,nan,nan,nan,nan
30.940711736679077,-0.30192742,-0.20306402,-2.5220294,0.00017492702628123073,nan,nan,nan,nan,nan,20.938679933547974,22.138679933547973,0.005340099334716797,nan,nan,nan,nan,0.7270930918125625,-0.01424032373212839,-0.02823974428127609,0.0004123093468340229,nan,nan,nan,nan
31.051239490509033,-0.31069735,-0.1924685,-2.5199933,-9.24445680807219e-05,nan,nan,nan,nan,nan,21.049182415008545,22.249182415008544,0.005186319351196289,nan,nan,nan,nan,0.7274595012251991,-0.009881853045195453,-0.02944562411273687,0.0005938643142525767,nan,nan,nan,nan
31.140918493270874,-0.3161826,-0.17770185,-2.517148,-0.00030604890955000623,nan,nan,nan,nan,nan,21.13890290260315,22.33890290260315,0.005672931671142578,nan,nan,nan,nan,0.7276564558496507,-0.01058249090135041,-0.025376174910844786,0.0006157861222261511,nan,nan,nan,nan
31.249938011169434,-0.31995684,-0.1595658,-2.5162191,-0.00039911574607672494,nan,nan,nan,nan,nan,21.247891426086426,22.447891426086425,0.0052602291107177734,nan,nan,nan,nan,0.7278495860924686,-0.010365364274417754,-0.018196563409962337,0.0006683665903985082,nan,nan,nan,nan
31.34412407875061,-0.32383978,-0.14443979,-2.517227,-0.00034217362509248415,nan,nan,nan,nan,nan,21.342143774032593,22.542143774032592,0.005965232849121094,nan,nan,nan,nan,0.7279262449631254,-0.008745812648648333,-0.014049370655534693,0.0007037387767264926,nan,nan,nan,nan
31.43776226043701,-0.3352886,-0.11953426,-2.5188148,-0.0002760324204746246,nan,nan,nan,nan,nan,21.43581199645996,22.63581199645996,0.005204439163208008,nan,nan,nan,nan,0.7280007740054896,-0.016252794915980348,-0.013022354377286108,0.0005300713559492962,nan,nan,nan,nan
31.549435138702393,-0.33630654,-0.094188765,-2.5218635,-0.00037533970526484363,nan,nan,nan,nan,nan,21.547378301620483,22.747378301620483,0.0051767826080322266,nan,nan,nan,nan,0.727990955261185,-0.017882728191720376,-0.007769686871074044,0.0005282759649875017,nan,nan,nan,nan
31.645521640777588,-0.33268163,-0.07020639,-2.5204585,-0.0004411524031056203,nan,nan,nan,nan,nan,21.643465518951416,22.843465518951415,0.006131172180175781,nan,nan,nan,nan,0.7280102607711216,-0.017951738808685017,-0.0010374571209017642,0.000581208962573343,nan,nan,nan,nan
31.748668909072876,-0.32936972,-0.043704502,-2.5184352,-0.00040180716158155164,nan,nan,nan,nan,nan,21.74663519859314,22.94663519859314,0.005498170852661133,nan,nan,nan,nan,0.7282959533389443,-0.022867258976100095,0.010992671537998345,0.0004775830639614002,nan,nan,nan,nan
31.852543592453003,-0.32774928,-0.023664514,-2.5186238,-0.0003126638707765502,nan,nan,nan,nan,nan,21.85052466392517,23.05052466392517,0.005091190338134766,nan,nan,nan,nan,0.7284427761720605,-0.022193280980693356,0.013571436352559457,0.0004094896899479628,nan,nan,nan,nan
31.94777011871338,-0.32667255,0.00044209225,-2.5235782,5.1004878078248026e-05,nan,nan,nan,nan,nan,21.94576382637024,23.14576382637024,0.005411863327026367,nan,nan,nan,nan,0.7283679128390406,-0.020803183891708873,0.011918024888327872,0.0001988714945008678,nan,nan,nan,nan
32.04597210884094,-0.333665,0.020574087,-2.5207248,0.0004714474634738559,nan,nan,nan,nan,nan,22.043933391571045,23.243933391571044,0.006293773651123047,nan,nan,nan,nan,0.7284560045291054,-0.016695501721454082,0.0035184341241884225,-3.6958408451792524e-05,nan,nan,nan,nan
32.13846135139465,-0.33662477,0.033417527,-2.515446,0.0006961077212437243,nan,nan,nan,nan,nan,22.13684844970703,23.33684844970703,0.005753755569458008,nan,nan,nan,nan,0.7286279730647336,-0.014707153943769005,-0.0036488617623084583,-0.00027532495984327276,nan,nan,nan,nan
32.23411750793457,-0.3399532,0.057784453,-2.5039024,0.0010004090594538599,nan,nan,nan,nan,nan,22.232110738754272,23.43211073875427,0.005316734313964844,nan,nan,nan,nan,0.7291272380320536,-0.016850153070028132,-0.008407821460140198,-0.0005088143660169175,nan,nan,nan,nan
32.34987926483154,-0.3404117,0.0799685,-2.4945366,0.0009803196271677959,nan,nan,nan,nan,nan,22.348042249679565,23.548042249679565,0.005110025405883789,nan,nan,nan,nan,0.7295857970088703,-0.021384638266441585,-0.009350612361231699,-0.000633155168895313,nan,nan,nan,nan
