time,x,y,z,yaw,platform,trajectory,traj_double,traj_short,traj_spin,traj_time,ref_time,comptime,x_ref,y_ref,yaw_ref,z_ref,throttle_input,p_input,q_input,r_input,cbf_term_pitch_cbf,cbf_term_roll_cbf,cbf_term_thrust_cbf,cbf_term_yaw_cbf
10.073810815811157,0.20979431,-0.058752984,-2.8928254,0.010480462704874016,SIM,CIRCLE_HORIZONTAL,NormSpd,Not Short,NoSpin,0.07008934020996094,1.270089340209961,0.005694389343261719,0.20182911923175845,0.565035402988284,0.0,-5.0,0.7190275386523756,0.18424412652490973,0.21103880798123587,-0.007371466242070561,nan,nan,nan,nan
10.180739402770996,0.20979431,-0.058752984,-2.8928254,0.010480462704874016,nan,nan,nan,nan,nan,0.17713499069213867,1.3771349906921386,0.008035898208618164,0.14238680995413744,0.5828601859374891,0.0,-5.0,0.7190359978277298,0.1819331049765822,0.21793288331036795,-0.007391959410093719,nan,nan,nan,nan
10.280762195587158,0.23631899,-0.06125799,-2.8823247,0.008171070112703484,nan,nan,nan,nan,nan,0.2773475646972656,1.4773475646972656,0.0070269107818603516,0.08534593985401633,0.5938990407050971,0.0,-5.0,0.719298511532836,0.1492891077955408,0.24278794318239183,-0.006285043457394275,nan,nan,nan,nan
10.376546144485474,0.2433026,-0.06565113,-2.8770108,0.0070414613572581984,nan,nan,nan,nan,nan,0.3728206157684326,1.5728206157684326,0.005296468734741211,0.030250499449787787,0.5992369375155694,0.0,-5.0,0.7193756612164968,0.1289404314780142,0.2490338981430393,-0.005528365552045069,nan,nan,nan,nan
10.478967905044556,0.2454698,-0.0661711,-2.8769455,0.006363588631281113,nan,nan,nan,nan,nan,0.4753451347351074,1.6753451347351074,0.0052106380462646484,-0.02918796577165156,0.5992896316924837,0.0,-5.0,0.7190680605963695,0.09896537754540344,0.2506923829657087,-0.004979177583769682,nan,nan,nan,nan
10.5762038230896,0.25003454,-0.06865603,-2.882044,0.0058342381272425085,nan,nan,nan,nan,nan,0.5724794864654541,1.772479486465454,0.00576329231262207,-0.08524665065734156,0.5939133005344343,0.0,-5.0,0.7184600394582683,0.07207956694477542,0.25487933209448943,-0.004506563087855085,nan,nan,nan,nan
10.674949169158936,0.2452068,-0.06553988,-2.8899395,0.005381396774535628,nan,nan,nan,nan,nan,0.6712777614593506,1.8712777614593505,0.005200624465942383,-0.14149235832119003,0.5830779643724396,0.0,-5.0,0.71801259551936,0.04526010600704138,0.2539208970420683,-0.004240582445389094,nan,nan,nan,nan
10.767468929290771,0.23618068,-0.059004493,-2.896362,0.005566732884353763,nan,nan,nan,nan,nan,0.7637791633605957,1.9637791633605957,0.006019115447998047,-0.19299410883500892,0.5681137860983315,0.0,-5.0,0.7180662479780198,0.012536769296609698,0.20751221989397414,-0.0032005101850805674,nan,nan,nan,nan
10.869942426681519,0.22887565,-0.05269734,-2.8987463,0.005945518874974933,nan,nan,nan,nan,nan,0.8662850856781006,2.0662850856781008,0.006827354431152344,-0.24824792242800672,0.5462352689182367,0.0,-5.0,0.7191955352262639,-0.02900617823936699,0.13819235329009813,-0.004669634318957806,nan,nan,nan,nan
10.96952509880066,0.21551985,-0.03880013,-2.9023144,0.006405316776375763,nan,nan,nan,nan,nan,0.965857744216919,2.165857744216919,0.008248090744018555,-0.2995936004122636,0.5198496653764595,0.0,-5.0,0.7207000949525108,-0.07400642184138613,0.008659176354917433,-0.004339077919793563,nan,nan,nan,nan
11.066619396209717,0.20094016,-0.027278634,-2.903714,0.006726591964917624,nan,nan,nan,nan,nan,1.0631811618804932,2.2631811618804933,0.007024288177490234,-0.34710263558226834,0.48940756059938734,0.0,-5.0,0.7214975929541526,-0.10070847233269081,-0.041113606684726044,-0.006250676819110595,nan,nan,nan,nan
11.166976690292358,0.16428661,-0.010722323,-2.9055946,0.007385616682090747,nan,nan,nan,nan,nan,1.163367509841919,2.363367509841919,0.0063228607177734375,-0.39279858191428896,0.45355184273258503,0.0,-5.0,0.7225577336401302,-0.10635812453941539,-0.11406719405532754,-0.005845259898293886,nan,nan,nan,nan
11.27863359451294,0.1286696,-0.0030951225,-2.9041545,0.007984911549345846,nan,nan,nan,nan,nan,1.274967908859253,2.474967908859253,0.005348920822143555,-0.4393485243919412,0.4086231443697527,0.0,-5.0,0.7232448202086403,-0.11113728722684312,-0.1535480533475241,-0.008164774599173384,nan,nan,nan,nan
11.374730110168457,0.07619589,-0.0014689707,-2.9000077,0.00892333706346346,nan,nan,nan,nan,nan,1.3710157871246338,2.571015787124634,0.005174875259399414,-0.4753400511375531,0.3661308997947979,0.0,-5.0,0.7242904737095002,-0.07308840116123694,-0.18001040589829745,-0.007127256336354119,nan,nan,nan,nan
11.470421075820923,0.03607695,-0.006333563,-2.8995981,0.009600818000499358,nan,nan,nan,nan,nan,1.4667096138000488,2.666709613800049,0.006428718566894531,-0.5071273637652094,0.32065844277135275,0.0,-5.0,0.724735888092376,-0.05699519849486475,-0.19052911172678924,-0.009335362811038986,nan,nan,nan,nan
11.570158004760742,-0.0298611,-0.0139147835,-2.8992152,0.010915865836524236,nan,nan,nan,nan,nan,1.5664558410644531,2.7664558410644533,0.007719516754150391,-0.5356416091874593,0.2703480469821617,0.0,-5.0,0.7253432793768309,-0.012145707452549158,-0.18043319704620517,-0.008270196763784874,nan,nan,nan,nan
11.6682608127594,-0.085240416,-0.024783183,-2.898593,0.01214768964270917,nan,nan,nan,nan,nan,1.6645734310150146,2.864573431015015,0.006377220153808594,-0.5588368973460441,0.21840632354546635,0.0,-5.0,0.7257520948132165,0.0017659136263235137,-0.17826178179852079,-0.010474174502019106,nan,nan,nan,nan
11.767691850662231,-0.13510616,-0.037494335,-2.8980823,0.013203371015833885,nan,nan,nan,nan,nan,1.763986587524414,2.9639865875244142,0.0067327022552490234,-0.5772144795956823,0.16377864496046382,0.0,-5.0,0.7262027006481916,0.02576257052144705,-0.16411111435834938,-0.011104133466508763,nan,nan,nan,nan
11.884184837341309,-0.21357541,-0.06889393,-2.898924,-0.12643269309366265,nan,nan,nan,nan,nan,1.880507469177246,3.0805074691772463,0.007344484329223633,-0.5919650403107494,0.0978641458854714,0.0,-5.0,0.7264662114854276,0.08932472212462057,-0.13601212564977572,0.08005826837815082,nan,nan,nan,nan
11.966335773468018,-0.25354642,-0.09050656,-2.8957248,-0.1181293212897413,nan,nan,nan,nan,nan,1.962862491607666,3.162862491607666,0.0071201324462890625,-0.5978728027303897,0.05047882482099269,0.0,-5.0,0.7267130130257231,0.09966897753213218,-0.10554971175778934,0.07663551127122552,nan,nan,nan,nan
12.083086967468262,-0.30240768,-0.12890232,-2.893581,-0.10142364646693308,nan,nan,nan,nan,nan,2.0794413089752197,3.27944130897522,0.006025791168212891,-0.5997570375290703,-0.017073252014580508,0.0,-5.0,0.7270102617721493,0.09410354127605962,-0.06614061585308016,0.0666660013580922,nan,nan,nan,nan
12.17613410949707,-0.32086158,-0.15025644,-2.8962138,-0.09297090677212566,nan,nan,nan,nan,nan,2.172499656677246,3.3724996566772463,0.005496025085449219,-0.5957983826554644,-0.07088220668921631,0.0,-5.0,0.7271146220513076,0.0856751818391825,-0.043725951832168625,0.058513261972008436,nan,nan,nan,nan
12.272782325744629,-0.34154406,-0.18656255,-2.9044147,-0.08133518070963047,nan,nan,nan,nan,nan,2.2690858840942383,3.4690858840942385,0.006455421447753906,-0.5865952323458351,-0.12611912380418647,0.0,-5.0,0.726894866123765,0.0702852488468104,0.0036256132875078376,0.05159715258264327,nan,nan,nan,nan
12.38390302658081,-0.3483333,-0.22059564,-2.9149773,-0.06960685908232159,nan,nan,nan,nan,nan,2.380260944366455,3.5802609443664553,0.005644798278808594,-0.5696836389270543,-0.18830972236937113,0.0,-5.0,0.726532861046999,0.054290068065562594,0.03257421465132139,0.044863731284541,nan,nan,nan,nan
12.475498676300049,-0.3471285,-0.24427527,-2.9202406,-0.0562205846500148,nan,nan,nan,nan,nan,2.471778392791748,3.6717783927917482,0.0055713653564453125,-0.5508188566914992,-0.2379045756455088,0.0,-5.0,0.726366732245655,0.044089900283838336,0.04433673348671897,0.037187852664180544,nan,nan,nan,nan
12.572951316833496,-0.3331665,-0.27329317,-2.9229724,-0.03537287088001237,nan,nan,nan,nan,nan,2.569300889968872,3.7693008899688722,0.00597691535949707,-0.5259792266677228,-0.28869681867665997,0.0,-5.0,0.7262526991413735,0.024706355881723957,0.07450886692945018,0.02553476096035687,nan,nan,nan,nan
12.674291133880615,-0.3146768,-0.29023516,-2.921506,-0.01897429568013603,nan,nan,nan,nan,nan,2.670595169067383,3.870595169067383,0.006503582000732422,-0.4952370977405922,-0.33873325349229455,0.0,-5.0,0.7263581225595813,0.01615807328168399,0.07850654953846116,0.015502510234938361,nan,nan,nan,nan
12.783809900283813,-0.27324724,-0.31192085,-2.918876,0.0034312141747335385,nan,nan,nan,nan,nan,2.78010892868042,3.98010892868042,0.005660295486450195,-0.45667311020120444,-0.38916535100026384,0.0,-5.0,0.7266266021280243,0.0005487790807584931,0.09533242925329835,0.0007034170926472329,nan,nan,nan,nan
12.882415771484375,-0.24189171,-0.3224517,-2.9182415,0.01453910882539228,nan,nan,nan,nan,nan,2.878793954849243,4.078793954849243,0.0056378841400146484,-0.4175293702325713,-0.4308935193214124,0.0,-5.0,0.726642594698821,-0.003539911124015641,0.09952591171427076,-0.007820022243786471,nan,nan,nan,nan
12.978041410446167,-0.19208036,-0.3296674,-2.9133394,0.029435924066638062,nan,nan,nan,nan,nan,2.9743189811706543,4.1743189811706545,0.005453348159790039,-0.37601899412722445,-0.46755717945033237,0.0,-5.0,0.7268209088847571,-0.009776927721218518,0.10334546241130231,-0.017955787801079967,nan,nan,nan,nan
13.070379257202148,-0.15248945,-0.33681977,-2.9086485,0.03368980969513551,nan,nan,nan,nan,nan,3.0667524337768555,4.266752433776856,0.009891510009765625,-0.33279824715263234,-0.49924475629908766,0.0,-5.0,0.72703417111607,-0.003486065150797484,0.09545982111523116,-0.021949300424398778,nan,nan,nan,nan
13.170199632644653,-0.08878378,-0.34297293,-2.899474,0.035475546346155476,nan,nan,nan,nan,nan,3.166529655456543,4.366529655456543,0.007209300994873047,-0.28317447387292805,-0.5289727945242462,0.0,-5.0,0.7274086849118198,0.0066815154107121,0.08954391023910596,-0.023600733333165463,nan,nan,nan,nan
13.282994508743286,-0.028656553,-0.34322008,-2.886914,0.03589568081824662,nan,nan,nan,nan,nan,3.27931547164917,4.47931547164917,0.005427837371826172,-0.22393680707939534,-0.5566437877449866,0.0,-5.0,0.727858282276746,0.014342128239592827,0.08071986181388163,-0.023555788368154806,nan,nan,nan,nan
13.37823748588562,0.0036800548,-0.34206593,-2.8783836,0.0366099583153913,nan,nan,nan,nan,nan,3.374511241912842,4.574511241912842,0.005482912063598633,-0.17183902471259715,-0.5748663754176473,0.0,-5.0,0.7282566615139552,0.01852882252092716,0.06843186811997147,-0.024192226206736174,nan,nan,nan,nan
13.47607135772705,0.069272146,-0.34038037,-2.8739061,0.0385891266651652,nan,nan,nan,nan,nan,3.472417116165161,4.672417116165161,0.005452632904052734,-0.11674579867479744,-0.5885324277317127,0.0,-5.0,0.7283841937787184,0.018956689424587014,0.05733019341451734,-0.024990973723357696,nan,nan,nan,nan
13.56872010231018,0.10236829,-0.3416042,-2.866731,0.03745526496749543,nan,nan,nan,nan,nan,3.5653789043426514,4.7653789043426515,0.006418943405151367,-0.06345982221755209,-0.5966346042295206,0.0,-5.0,0.7285339391884387,0.02610469972697187,0.046687696873898524,-0.025326566688359618,nan,nan,nan,nan
13.68234920501709,0.14615971,-0.34016573,-2.8503113,0.03449613875900007,nan,nan,nan,nan,nan,3.6787586212158203,4.8787586212158205,0.00496983528137207,0.002179944151489674,-0.5999960398565114,0.0,-5.0,0.7290054943365177,0.033604276751899885,0.027996918676793176,-0.023309453158988545,nan,nan,nan,nan
13.77408766746521,0.18106523,-0.332935,-2.8321884,0.032554064074757826,nan,nan,nan,nan,nan,3.7703723907470703,4.9703723907470705,0.006200551986694336,0.05523636161107587,-0.5974520435616322,0.0,-5.0,0.729692033834932,0.024910543349453213,0.007348255693635493,-0.021778449968344212,nan,nan,nan,nan
13.870691537857056,0.20533657,-0.32378128,-2.8215082,0.0315977204775346,nan,nan,nan,nan,nan,3.8669867515563965,5.066986751556397,0.006512641906738281,0.11071162689032119,-0.5896973254740929,0.0,-5.0,0.7298430959442108,0.020277680406006797,-0.008258932886346923,-0.02114891315396726,nan,nan,nan,nan
13.980351686477661,0.22433622,-0.3192114,-2.8088248,0.02830743743839718,nan,nan,nan,nan,nan,3.976759195327759,5.176759195327759,0.005225181579589844,0.17254486558844928,-0.5746549132819313,0.0,-5.0,0.7300330014049832,0.018307851098834527,-0.023767511225229503,-0.01965926112748373,nan,nan,nan,nan
14.075619459152222,0.23965424,-0.31135988,-2.8063803,0.026359790059113434,nan,nan,nan,nan,nan,4.071951389312744,5.271951389312744,0.005964517593383789,0.22461830687732384,-0.5563691366490097,0.0,-5.0,0.7300282980168721,0.02208544113520995,-0.028979567681735433,-0.01825490463670747,nan,nan,nan,nan
14.172082424163818,0.26140183,-0.2983281,-2.8000624,0.023555969671368724,nan,nan,nan,nan,nan,4.168384790420532,5.368384790420532,0.0062236785888671875,0.27543096886798635,-0.5330457591881229,0.0,-5.0,0.7298383604579819,0.010976966813754483,-0.02550533193144437,-0.016626177152683618,nan,nan,nan,nan
14.285077810287476,0.2795339,-0.28327245,-2.7935226,0.020776364777314836,nan,nan,nan,nan,nan,4.2814249992370605,5.481424999237061,0.0058383941650390625,0.33191817507511384,-0.4998302962554451,0.0,-5.0,0.7299169406205618,0.008828863394129579,-0.014426582503712598,-0.01474939257718084,nan,nan,nan,nan
14.378851413726807,0.29048973,-0.2690354,-2.7898602,0.01926548660132536,nan,nan,nan,nan,nan,4.375461101531982,5.575461101531983,0.005295515060424805,0.375919591525715,-0.4676371036467696,0.0,-5.0,0.7298467668281416,0.008039118508085594,-0.008114125120352002,-0.013843799723473833,nan,nan,nan,nan
14.47692608833313,0.30564064,-0.24581644,-2.7829957,0.0187258471687256,nan,nan,nan,nan,nan,4.4732115268707275,5.673211526870728,0.005612850189208984,0.4183639095747975,-0.43008329328781264,0.0,-5.0,0.7298157767603181,-0.009338239389386499,-0.0004712582387191568,-0.012930894527491701,nan,nan,nan,nan
14.577178478240967,0.31492394,-0.22766958,-2.774504,0.01842716274247707,nan,nan,nan,nan,nan,4.57356858253479,5.77356858253479,0.0055675506591796875,0.45805364384037844,-0.38753949394165194,0.0,-5.0,0.729906460792957,-0.006175661903453274,0.007192463015706781,-0.013037535842371698,nan,nan,nan,nan
14.672155380249023,0.3239733,-0.19408129,-2.761816,0.01749246598837284,nan,nan,nan,nan,nan,4.66844916343689,5.86844916343689,0.007076740264892578,0.4916221311497044,-0.3439588349843959,0.0,-5.0,0.7301296259042445,-0.020591420376964695,0.011628663646945297,-0.01219064096417182,nan,nan,nan,nan
14.76938009262085,0.32692024,-0.170577,-2.7548313,0.017325553173362637,nan,nan,nan,nan,nan,4.766072034835815,5.966072034835816,0.01174163818359375,0.5218448534231844,-0.296104625015779,0.0,-5.0,0.7302292775286197,-0.019025350920987685,0.016178674567602695,-0.012231776572122077,nan,nan,nan,nan
14.869776248931885,0.3352271,-0.13144085,-2.749867,0.016304501744142885,nan,nan,nan,nan,nan,4.86610746383667,6.06610746383667,0.006676197052001953,0.5479952776165101,-0.2443382403759264,0.0,-5.0,0.7302236112103193,-0.03268184742706894,0.01699039036206206,-0.011539144137745748,nan,nan,nan,nan
14.983288764953613,0.342739,-0.08886769,-2.755859,0.015567889246942503,nan,nan,nan,nan,nan,4.979806423187256,6.179806423187256,0.005323886871337891,0.571489182012896,-0.1827569830190655,0.0,-5.0,0.7298341093200248,-0.040636818364514604,0.0206745817858812,-0.010817430549701083,nan,nan,nan,nan
15.076608180999756,0.3496815,-0.050211575,-2.7656837,0.014707578931513312,nan,nan,nan,nan,nan,5.072887420654297,6.272887420654297,0.0070612430572509766,0.5855990326004693,-0.13066664845091308,0.0,-5.0,0.7294007596450904,-0.04372792262534125,0.0258451806571504,-0.010393820843040762,nan,nan,nan,nan
15.176081418991089,0.35471877,-0.014140636,-2.7714736,0.013670140626758132,nan,nan,nan,nan,nan,5.17236590385437,6.37236590385437,0.005697488784790039,0.5954392451689056,-0.07383837290111347,0.0,-5.0,0.7289697797900861,-0.04353151186089391,0.0336426460949194,-0.010173891705261114,nan,nan,nan,nan
15.269795656204224,0.35784614,0.01872016,-2.773633,0.012626486774814032,nan,nan,nan,nan,nan,5.266132354736328,6.466132354736328,0.0063648223876953125,0.5996784966566936,-0.01963926290795653,0.0,-5.0,0.728717268024524,-0.043773075979091726,0.037367123354781866,-0.009517391148858271,nan,nan,nan,nan
15.382907152175903,0.3633965,0.08407622,-2.769002,0.011201795878151174,nan,nan,nan,nan,nan,5.37932276725769,6.579322767257691,0.00556635856628418,0.5982370613447825,0.04596105344265924,0.0,-5.0,0.7287471737479033,-0.05181586993422954,0.033109684688052615,-0.008456625240074433,nan,nan,nan,nan
15.482942819595337,0.36221984,0.117749564,-2.7683585,0.010106474764198368,nan,nan,nan,nan,nan,5.4793617725372314,6.679361772537232,0.005154848098754883,0.5910044885105677,0.1035069783172231,0.0,-5.0,0.7288138701496784,-0.054422086127196755,0.03293487594651051,-0.008008067410733748,nan,nan,nan,nan
15.577735185623169,0.35707098,0.15898821,-2.769179,0.009276063430994344,nan,nan,nan,nan,nan,5.574037313461304,6.774037313461304,0.005480051040649414,0.579071762680161,0.15708562527007744,0.0,-5.0,0.728791165613132,-0.05269920795107276,0.023575295093687616,-0.007076160767833158,nan,nan,nan,nan
15.670168399810791,0.34704274,0.20671427,-2.7689755,0.009186095449189675,nan,nan,nan,nan,nan,5.666735649108887,6.866735649108887,0.0069789886474609375,0.5626915219664969,0.2082744610052499,0.0,-5.0,0.728710547765976,-0.044560353609290074,0.010520113975577877,-0.006853912361230124,nan,nan,nan,nan
15.767382144927979,0.33963978,0.23384361,-2.7670214,0.009171738060902844,nan,nan,nan,nan,nan,5.763834714889526,6.9638347148895265,0.0060427188873291016,0.5406947618498458,0.260094549170371,0.0,-5.0,0.7287517729087686,-0.03902153523346028,0.01223282659448166,-0.007368745012051808,nan,nan,nan,nan
15.88032603263855,0.32203168,0.2673319,-2.7587607,0.00978306923126413,nan,nan,nan,nan,nan,5.87660026550293,7.07660026550293,0.0050504207611083984,0.5091904316098472,0.31737218585909116,0.0,-5.0,0.7290256729672312,-0.027476185602546808,0.0034511233203373777,-0.007723530837215527,nan,nan,nan,nan
15.974650382995605,0.29663253,0.29811385,-2.750399,0.010930113185420767,nan,nan,nan,nan,nan,5.970934629440308,7.170934629440308,0.0068666934967041016,0.478174526747109,0.36242119415147117,0.0,-5.0,0.7292971512544026,-0.013532812531391302,-0.010146580277080321,-0.008002525254481373,nan,nan,nan,nan
16.070480585098267,0.278853,0.31480825,-2.745079,0.011946889224261011,nan,nan,nan,nan,nan,6.066830158233643,7.266830158233643,0.006017446517944336,0.44257438871955807,0.4051270300159069,0.0,-5.0,0.7294782079649451,-0.007449453011426182,-0.012824866286062957,-0.00887801297347849,nan,nan,nan,nan
16.164666175842285,0.24388401,0.33933756,-2.7374098,0.014008875676843762,nan,nan,nan,nan,nan,6.160944938659668,7.360944938659668,0.005440950393676758,0.4039383545187196,0.4436595606416131,0.0,-5.0,0.7296913001026686,0.0006892319336267724,-0.026355525358545934,-0.009680311695861992,nan,nan,nan,nan
16.282898902893066,0.21310464,0.35363588,-2.7342641,0.01655888632776128,nan,nan,nan,nan,nan,6.279280424118042,7.479280424118042,0.005614757537841797,0.35065968274733256,0.48686526564907057,0.0,-5.0,0.7297163403782793,0.003431928601082881,-0.03557133982703056,-0.011677146933938768,nan,nan,nan,nan
16.384946823120117,0.16734862,0.36598003,-2.7269633,0.018536133275236965,nan,nan,nan,nan,nan,6.381368637084961,7.581368637084961,0.005942821502685547,0.30098629171565766,0.519044557046172,0.0,-5.0,0.729868651639144,0.003971240148150674,-0.04576814481718841,-0.012910453967767875,nan,nan,nan,nan
16.47964644432068,0.11964189,0.37705484,-2.7193217,0.019382907188855523,nan,nan,nan,nan,nan,6.475924491882324,7.675924491882324,0.00543212890625,0.2523543043912546,0.5443503513870511,0.0,-5.0,0.7300674486779561,0.003289593105286432,-0.054889112854510154,-0.01353449478312667,nan,nan,nan,nan
16.57981777191162,0.07986546,0.3808628,-2.715742,0.020374508171182675,nan,nan,nan,nan,nan,6.576106071472168,7.776106071472168,0.005152225494384766,0.19853945765796277,0.5661996854051422,0.0,-5.0,0.730179407863548,-0.0024611479353338567,-0.052298240112057436,-0.01393613182098094,nan,nan,nan,nan
16.677979469299316,0.023201814,0.37828702,-2.7080827,0.021993834404963743,nan,nan,nan,nan,nan,6.674289226531982,7.874289226531983,0.0055391788482666016,0.143989624636047,0.5824662977350452,0.0,-5.0,0.7301807314834086,0.003873860823496164,-0.057174154021597805,-0.014661918714010874,nan,nan,nan,nan
16.773503065109253,-0.018591618,0.3717014,-2.699416,0.022736525315093518,nan,nan,nan,nan,nan,6.769782781600952,7.969782781600952,0.006778240203857422,0.08968647721684381,0.5932590798331135,0.0,-5.0,0.7304268280323946,0.005835837267352511,-0.05470464302405103,-0.015465354090139072,nan,nan,nan,nan
16.87066960334778,-0.058434155,0.36186668,-2.692504,0.023807907925229483,nan,nan,nan,nan,nan,6.867239236831665,8.067239236831664,0.005623817443847656,0.03348305013729405,0.5990650092882269,0.0,-5.0,0.7305822754488441,0.005489481965372671,-0.0492187421485506,-0.016003182527189165,nan,nan,nan,nan
16.98319387435913,-0.09959488,0.35050693,-2.6845117,0.024698873225733716,nan,nan,nan,nan,nan,6.979495048522949,8.179495048522949,0.005142688751220703,-0.03159176813551306,0.5991677229174415,0.0,-5.0,0.7307528065070976,0.006491340767187422,-0.0418103109882761,-0.016654838851581553,nan,nan,nan,nan
17.079373598098755,-0.14572008,0.33299997,-2.6767952,0.024505181856999212,nan,nan,nan,nan,nan,7.075658798217773,8.275658798217773,0.0057637691497802734,-0.08707149656006759,0.5936485108941065,0.0,-5.0,0.7308763345813595,0.007926539925342155,-0.03306150663089733,-0.016759525054078704,nan,nan,nan,nan
17.181742191314697,-0.16960311,0.3206433,-2.6725986,0.023499671775139917,nan,nan,nan,nan,nan,7.178108215332031,8.37810821533203,0.0052759647369384766,-0.14533908641604099,0.5821310419138894,0.0,-5.0,0.730837870902901,0.001473937524882334,-0.02240175257610941,-0.016243608483997446,nan,nan,nan,nan
17.279173135757446,-0.19839717,0.30151728,-2.6655831,0.02253937533135658,nan,nan,nan,nan,nan,7.275491714477539,8.475491714477538,0.005445241928100586,-0.19941371027722596,0.5658923679936588,0.0,-5.0,0.7309134797431771,0.00239081472724261,-0.007534714117069642,-0.01535598976878998,nan,nan,nan,nan
17.376708984375,-0.22079965,0.2872858,-2.6618845,0.021357584156966522,nan,nan,nan,nan,nan,7.373013496398926,8.573013496398925,0.006201744079589844,-0.25179534844185975,0.5446091281855661,0.0,-5.0,0.730934565758351,-0.007057487983153786,-0.004139576924715738,-0.01491148047961845,nan,nan,nan,nan
17.47084951400757,-0.25240034,0.26906627,-2.6569479,0.019574158964843314,nan,nan,nan,nan,nan,7.46720814704895,8.66720814704895,0.0060689449310302734,-0.3002719352296853,0.5194581454876029,0.0,-5.0,0.7309257215380733,-0.008809763069644226,-0.005676771003536748,-0.013767263741642605,nan,nan,nan,nan
17.566232919692993,-0.2719039,0.25375873,-2.655788,0.018557207367599804,nan,nan,nan,nan,nan,7.562539339065552,8.762539339065551,0.005067586898803711,-0.3467989334459252,0.489622813766647,0.0,-5.0,0.7309302199115376,-0.015620454814573964,-0.011376454220244985,-0.013062451216020897,nan,nan,nan,nan
17.68027901649475,-0.28985786,0.2289763,-2.6583467,0.01843335687685149,nan,nan,nan,nan,nan,7.676557779312134,8.876557779312133,0.005341768264770508,-0.3985494161138124,0.44850681479252824,0.0,-5.0,0.7305860089482742,-0.013274749233233395,-0.006253500761022678,-0.012819992198948407,nan,nan,nan,nan
17.776829481124878,-0.30511895,0.20222394,-2.6609938,0.01819091490079108,nan,nan,nan,nan,nan,7.773118019104004,8.973118019104003,0.008786916732788086,-0.43861712872174635,0.40940812692457756,0.0,-5.0,0.7302404532968164,-0.002255748103008344,-0.0018400233199434594,-0.012542792886071871,nan,nan,nan,nan
17.87957191467285,-0.3072491,0.16799147,-2.6635473,0.01860353329332046,nan,nan,nan,nan,nan,7.875886917114258,9.075886917114257,0.005563974380493164,-0.47705875685801,0.3638886402528801,0.0,-5.0,0.7299315418285522,0.009292339512811911,0.006336450546295204,-0.012544695381786649,nan,nan,nan,nan
17.97494888305664,-0.31222844,0.14206594,-2.6668086,0.018670373539591563,nan,nan,nan,nan,nan,7.971261978149414,9.171261978149413,0.007355213165283203,-0.5085335114275711,0.31842372360605353,0.0,-5.0,0.7296959420874729,0.011378480858883351,0.008675675087898849,-0.01274999913552691,nan,nan,nan,nan
18.075574159622192,-0.31546736,0.123128116,-2.6697118,0.018243144330464655,nan,nan,nan,nan,nan,8.071876049041748,9.271876049041747,0.006862640380859375,-0.5370507151759333,0.26753790260263777,0.0,-5.0,0.7295186326933858,0.008186252494928124,0.003621651779435099,-0.012763662412583813,nan,nan,nan,nan
18.172757625579834,-0.3181326,0.100232266,-2.6738951,0.01700987352910232,nan,nan,nan,nan,nan,8.169059991836548,9.369059991836547,0.006084918975830078,-0.5597788467012682,0.21598065373037006,0.0,-5.0,0.729192383185816,0.006280766290427695,0.0034177399568891854,-0.01193227569401367,nan,nan,nan,nan
18.28421139717102,-0.32430407,0.07720127,-2.6765623,0.016202850777701942,nan,nan,nan,nan,nan,8.28049087524414,9.48049087524414,0.00539851188659668,-0.5797537998677504,0.1545494469058505,0.0,-5.0,0.7290235388197077,0.0021162782469558434,-0.004795406348559503,-0.011351105304425341,nan,nan,nan,nan
18.38241481781006,-0.331671,0.06213971,-2.6775718,0.014352421388489755,nan,nan,nan,nan,nan,8.37869668006897,9.578696680068969,0.005318880081176758,-0.5917928333002889,0.09890016407679263,0.0,-5.0,0.7289802023347098,-0.0036490427752108104,-0.019605062478124432,-0.010885910227844478,nan,nan,nan,nan
18.478429317474365,-0.33749646,0.03571968,-2.6821551,0.011153657587945837,nan,nan,nan,nan,nan,8.474716663360596,9.674716663360595,0.005948305130004883,-0.5984119640595323,0.043624778170358244,0.0,-5.0,0.728848473641837,0.002974268197558427,-0.028766227341384173,-0.008946237663932856,nan,nan,nan,nan
18.57735776901245,-0.340679,0.014700351,-2.685521,0.009004812581193683,nan,nan,nan,nan,nan,8.573690414428711,9.77369041442871,0.006257534027099609,-0.5998426812036437,-0.013738915765949745,0.0,-5.0,0.7287166671280704,0.007164190121441184,-0.0384315796102215,-0.007718376803211541,nan,nan,nan,nan
18.67081594467163,-0.3453288,-0.01492729,-2.6892211,0.007003654552460536,nan,nan,nan,nan,nan,8.6671462059021,9.867146205902099,0.005246639251708984,-0.5961572104272648,-0.06779808592860023,0.0,-5.0,0.7285976143773223,0.02162081496478995,-0.03395379515762218,-0.005875655748745271,nan,nan,nan,nan
18.78295111656189,-0.34957916,-0.041824035,-2.6953142,0.0054806484171938275,nan,nan,nan,nan,nan,8.779281377792358,9.979281377792358,0.006463050842285156,-0.5853238090609204,-0.13189404287690631,0.0,-5.0,0.7284080563333252,0.022550443037536224,-0.03665056719562172,-0.005177684531129257,nan,nan,nan,nan
18.874948024749756,-0.35019267,-0.062291432,-2.6968813,0.004655820972170924,nan,nan,nan,nan,nan,8.871307611465454,10.071307611465453,0.008649349212646484,-0.5712920442961302,-0.18337229922741444,0.0,-5.0,0.7283499795532911,0.024198712279900624,-0.03333232554504045,-0.004567034158851038,nan,nan,nan,nan
18.980891466140747,-0.3515351,-0.08027243,-2.697269,0.004396663930574872,nan,nan,nan,nan,nan,8.977267980575562,10.17726798057556,0.00569605827331543,-0.5495486724229729,-0.2408241197184119,0.0,-5.0,0.7283948737348641,0.026160139994774987,-0.03669776190746586,-0.0046346736939056245,nan,nan,nan,nan
19.082852363586426,-0.35144848,-0.10774662,-2.6994045,0.004340913771132604,nan,nan,nan,nan,nan,9.079250574111938,10.279250574111938,0.005316257476806641,-0.5231783138976669,-0.29374215200953757,0.0,-5.0,0.728461089899199,0.027996790511207178,-0.023992691219404443,-0.004350486394951964,nan,nan,nan,nan
19.176685571670532,-0.3475761,-0.13180217,-2.7037325,0.004201434271216702,nan,nan,nan,nan,nan,9.172981023788452,10.372981023788451,0.009578227996826172,-0.4944545703948631,-0.33987450303844696,0.0,-5.0,0.7284007508325147,0.03000906776507281,-0.024716435927592536,-0.004802232520424488,nan,nan,nan,nan
19.275479078292847,-0.3420936,-0.14764139,-2.707578,0.004121527530194537,nan,nan,nan,nan,nan,9.27181625366211,10.471816253662109,0.010833978652954102,-0.45977797881586663,-0.38549216619277293,0.0,-5.0,0.7282579558639244,0.03245269467826181,-0.01491344298983792,-0.004836886553452524,nan,nan,nan,nan
19.375378608703613,-0.32535002,-0.17747252,-2.7172995,0.004491499645490646,nan,nan,nan,nan,nan,9.371667861938477,10.571667861938476,0.006381511688232422,-0.42048760533719237,-0.42800721227310357,0.0,-5.0,0.7279609958177957,0.03578461978659736,0.0013240408505507835,-0.004600235716834588,nan,nan,nan,nan
19.468620538711548,-0.31134892,-0.19316648,-2.7222745,0.004886517767944017,nan,nan,nan,nan,nan,9.464927196502686,10.664927196502685,0.00794839859008789,-0.380248163438068,-0.4641242659051305,0.0,-5.0,0.7278063030413318,0.042632103882523,0.0036275200657507074,-0.005400711918872272,nan,nan,nan,nan
19.5690176486969,-0.27974033,-0.22099482,-2.7305279,0.005986403533134213,nan,nan,nan,nan,nan,9.56532096862793,10.765320968627929,0.005094289779663086,-0.3334887418111898,-0.4987837798938429,0.0,-5.0,0.7275428737422807,0.04355223853346793,0.026092285187540608,-0.0056328687198506635,nan,nan,nan,nan
19.66619300842285,-0.2587749,-0.238699,-2.7350452,0.007140878335075435,nan,nan,nan,nan,nan,9.662544250488281,10.86254425048828,0.005698204040527344,-0.2852102179004192,-0.5278779514293009,0.0,-5.0,0.7274345474832767,0.04608766870425333,0.029739882934705045,-0.006811452039066962,nan,nan,nan,nan
19.770256757736206,-0.22526139,-0.26102006,-2.7394133,0.00980647622757807,nan,nan,nan,nan,nan,9.766613483428955,10.966613483428954,0.0054433345794677734,-0.23075439464088904,-0.5538523353330893,0.0,-5.0,0.7273835555659359,0.037039618772085676,0.04318922720559761,-0.00786261159577797,nan,nan,nan,nan
19.866411447525024,-0.19798207,-0.27334926,-2.7408314,0.010906731802532392,nan,nan,nan,nan,nan,9.862699031829834,11.062699031829833,0.007838726043701172,-0.17839162009879544,-0.5728668517889013,0.0,-5.0,0.7274360240169814,0.03972743383011975,0.042070635545695116,-0.009408545692829928,nan,nan,nan,nan
19.96877360343933,-0.15015772,-0.2877316,-2.7463925,0.012024166506412215,nan,nan,nan,nan,nan,9.965087413787842,11.165087413787841,0.0051136016845703125,-0.12091271051105147,-0.5876904937438333,0.0,-5.0,0.7274589339445741,0.0300465522082271,0.053011214727969866,-0.009358324953300835,nan,nan,nan,nan
20.08333921432495,-0.09859288,-0.29411376,-2.7556767,0.014419785071926526,nan,nan,nan,nan,nan,10.079646587371826,11.279646587371825,0.005079507827758789,-0.055225401294610905,-0.5974530567767221,0.0,-5.0,0.7271508343903705,0.019992586020884464,0.062084478462772034,-0.01048854683837303,nan,nan,nan,nan
20.18249201774597,-0.058757447,-0.29402632,-2.762499,0.017065731165609676,nan,nan,nan,nan,nan,10.17878532409668,11.378785324096679,0.005246639251708984,0.0021954313545723626,-0.5999959833875285,0.0,-5.0,0.7269000380002889,0.015654042033557716,0.06528284869798336,-0.012695779384790296,nan,nan,nan,nan
20.28138828277588,-0.0017539873,-0.2889667,-2.7791243,0.02068331787397546,nan,nan,nan,nan,nan,10.277668952941895,11.477668952941894,0.005490303039550781,0.05944888793263688,-0.5970475941862363,0.0,-5.0,0.726432107686013,-0.0005614408877867374,0.0669291563370336,-0.01434952146823641,nan,nan,nan,nan
20.381709814071655,0.035577383,-0.28436166,-2.7863836,0.022012201509578465,nan,nan,nan,nan,nan,10.377994775772095,11.577994775772094,0.005455970764160156,0.1169801152642345,-0.5884858984145384,0.0,-5.0,0.7261926580450568,0.0005973309027956727,0.06397206170961064,-0.015868127785696077,nan,nan,nan,nan
20.481739282608032,0.088308044,-0.27253884,-2.7927165,0.02284525136401563,nan,nan,nan,nan,nan,10.47802209854126,11.678022098541259,0.005431652069091797,0.17324626273400662,-0.5744438462101404,0.0,-5.0,0.7261157288966523,-0.009161268070149678,0.05749082579489565,-0.015951486214381184,nan,nan,nan,nan
20.579323530197144,0.12791502,-0.25853157,-2.7949178,0.023245998092569567,nan,nan,nan,nan,nan,10.57561182975769,11.77561182975769,0.006040096282958984,0.2265855211834097,-0.555570878997489,0.0,-5.0,0.7262014061691665,-0.007230588498008757,0.05120123018433727,-0.016459138862559276,nan,nan,nan,nan
20.672518253326416,0.16699156,-0.24200365,-2.7956772,0.023812959287374473,nan,nan,nan,nan,nan,10.66884732246399,11.868847322463989,0.005311012268066406,0.27566926810182274,-0.5329225596878081,0.0,-5.0,0.7263637363849057,-0.01190395901171479,0.05056451663914121,-0.0167192233562679,nan,nan,nan,nan
20.782015085220337,0.21751192,-0.2196319,-2.797391,0.024288927527479166,nan,nan,nan,nan,nan,10.778350114822388,11.978350114822387,0.005513668060302734,0.33043105636135367,-0.5008146533318687,0.0,-5.0,0.7265976260032151,-0.015665009286259603,0.05001609908430054,-0.017012054376294956,nan,nan,nan,nan
20.881975173950195,0.2673528,-0.19612268,-2.799167,0.023932297306764338,nan,nan,nan,nan,nan,10.878255367279053,12.078255367279052,0.006378889083862305,0.3771813345259554,-0.466620017664501,0.0,-5.0,0.7267954882734701,-0.020120708361483934,0.045982385507247585,-0.016531304888061694,nan,nan,nan,nan
20.978148460388184,0.30374625,-0.17175557,-2.8014615,0.023615170666877672,nan,nan,nan,nan,nan,10.974441528320312,12.174441528320312,0.006925344467163086,0.41887497133392376,-0.42958556585388735,0.0,-5.0,0.7269268405122745,-0.015574684076061185,0.04359399942244239,-0.016173732312781998,nan,nan,nan,nan
21.07023525238037,0.3268778,-0.15189257,-2.802696,0.02365640886752328,nan,nan,nan,nan,nan,11.066548109054565,12.266548109054565,0.005255460739135742,0.45541315808092436,-0.39063903471972555,0.0,-5.0,0.7269653253474727,-0.013566035608343803,0.03852993567837048,-0.016464391759283444,nan,nan,nan,nan
21.16754460334778,0.35469323,-0.11399856,-2.7952852,0.023886968532645023,nan,nan,nan,nan,nan,11.163820266723633,12.363820266723632,0.005392551422119141,0.4900781728864596,-0.3461551450726528,0.0,-5.0,0.7272581298713003,-0.02256964638645641,0.019628030983335577,-0.016100521610536253,nan,nan,nan,nan
21.276720762252808,0.37902734,-0.068992324,-2.7837884,0.024046532478108777,nan,nan,nan,nan,nan,11.273007154464722,12.473007154464721,0.007531404495239258,0.523818136064607,-0.29259965879987077,0.0,-5.0,0.727723846754203,-0.029650709268817587,0.009110927862973836,-0.01622159950787344,nan,nan,nan,nan
21.3693528175354,0.38981667,-0.03998111,-2.7766626,0.02393889382653873,nan,nan,nan,nan,nan,11.365631103515625,12.565631103515624,0.005158662796020508,0.5478827088999558,-0.24459055028444218,0.0,-5.0,0.7281505525912348,-0.03592169619901248,0.0044531618021178745,-0.01640667955051324,nan,nan,nan,nan
21.47811198234558,0.40138984,0.0008068365,-2.7670195,0.023582759388220388,nan,nan,nan,nan,nan,11.474463701248169,12.674463701248168,0.006693124771118164,0.5705377146188038,-0.18570599397314125,0.0,-5.0,0.7285552874216725,-0.03716486059589091,-0.0006873878382856563,-0.016232249497953842,nan,nan,nan,nan
21.5725200176239,0.40957257,0.044264715,-2.7549288,0.022855093197526134,nan,nan,nan,nan,nan,11.56891942024231,12.768919420242309,0.005055427551269531,0.5850935354578799,-0.13291183079545094,0.0,-5.0,0.7289286235922605,-0.03932141809211311,-0.00833865931798645,-0.015726424354614296,nan,nan,nan,nan
21.67201805114746,0.41179755,0.07574788,-2.7414117,0.021613577324877956,nan,nan,nan,nan,nan,11.66841459274292,12.86841459274292,0.00527501106262207,0.5951528760692821,-0.07611211537240108,0.0,-5.0,0.72941852476709,-0.035317653080144985,-0.0057241587957837375,-0.015304293718982186,nan,nan,nan,nan
21.783146858215332,0.40512598,0.12242016,-2.721045,0.019678684571084987,nan,nan,nan,nan,nan,11.779468536376953,12.979468536376952,0.0055277347564697266,0.5998818374532506,-0.011907186641342273,0.0,-5.0,0.7301123930921745,-0.032601129214502075,-0.013481237442346462,-0.01387303798711737,nan,nan,nan,nan
21.87785005569458,0.39994752,0.1481095,-2.7135758,0.01862815268263586,nan,nan,nan,nan,nan,11.874155759811401,13.0741557598114,0.006629467010498047,0.598459158078657,0.04297250413677248,0.0,-5.0,0.7303892788618154,-0.026037861836185564,-0.012226430988347381,-0.013278266676994731,nan,nan,nan,nan
21.970733404159546,0.39255777,0.17693001,-2.708018,0.01743834399445636,nan,nan,nan,nan,nan,11.967059850692749,13.167059850692748,0.004942417144775391,0.5921935344020199,0.09647184984462336,0.0,-5.0,0.730389448515695,-0.019068430763878607,-0.014296812143454329,-0.01234209461957279,nan,nan,nan,nan
22.081462383270264,0.38212937,0.20677665,-2.7042432,0.01608445571257347,nan,nan,nan,nan,nan,12.077765464782715,13.277765464782714,0.005927085876464844,0.5785018992645937,0.1591714564463676,0.0,-5.0,0.7303192458363076,-0.014066770115305443,-0.005219097359833319,-0.011700832572235847,nan,nan,nan,nan
22.17276954650879,0.3648405,0.2338024,-2.7027671,0.016043518703650016,nan,nan,nan,nan,nan,12.169186353683472,13.369186353683471,0.005186319351196289,0.562196549948213,0.2096068682708809,0.0,-5.0,0.7301337817035631,-0.01068708379584456,-0.011464020725662936,-0.011164636645396022,nan,nan,nan,nan
22.266467571258545,0.34799272,0.25452054,-2.6971858,0.015790705464248083,nan,nan,nan,nan,nan,12.262817621231079,13.462817621231078,0.005269527435302734,0.5409502169608936,0.25956283010084874,0.0,-5.0,0.7300969522230962,-0.009754901406041634,-0.00686333902339577,-0.01130337013988324,nan,nan,nan,nan
22.384358406066895,0.31385055,0.28029755,-2.69489,0.015820850056548756,nan,nan,nan,nan,nan,12.380654096603394,13.580654096603393,0.0056340694427490234,0.5079428671941763,0.3193650633155723,0.0,-5.0,0.7300778184464022,-0.01106852297402403,-0.01452570106970689,-0.011012910747857138,nan,nan,nan,nan
22.471195459365845,0.28757495,0.29366145,-2.695723,0.016386614504589607,nan,nan,nan,nan,nan,12.467480182647705,13.667480182647704,0.00550532341003418,0.47938206264710326,0.3608224466579217,0.0,-5.0,0.7297782429482124,-0.00921554267220596,-0.021100611397336655,-0.011373932607899848,nan,nan,nan,nan
22.566920280456543,0.24877241,0.30890515,-2.6915975,0.01721296270437398,nan,nan,nan,nan,nan,12.563252925872803,13.763252925872802,0.005977153778076172,0.44397263270258075,0.40359422866430994,0.0,-5.0,0.7295549197119646,-0.004159742050190609,-0.02825129219516132,-0.011787549926109387,nan,nan,nan,nan
22.680577278137207,0.21866333,0.32148576,-2.6820977,0.017394558658088637,nan,nan,nan,nan,nan,12.676891088485718,13.876891088485717,0.00678563117980957,0.39705195993931713,0.449833014693616,0.0,-5.0,0.7297268277042047,-0.00652258213065188,-0.025019232350127533,-0.012162567547971565,nan,nan,nan,nan
22.782111167907715,0.18653792,0.33129665,-2.6795244,0.01758796040033881,nan,nan,nan,nan,nan,12.778443813323975,13.978443813323974,0.005831003189086914,0.3510532982741457,0.4865815263353549,0.0,-5.0,0.7297352255630195,-0.00662525544263637,-0.025939698229251736,-0.0121133126406335,nan,nan,nan,nan
22.87655735015869,0.16006014,0.3394044,-2.6813805,0.01718059303002912,nan,nan,nan,nan,nan,12.87289023399353,14.07289023399353,0.005597352981567383,0.3052300156513607,0.5165603909955447,0.0,-5.0,0.7294582948827584,-0.006713172822409965,-0.018764983112051187,-0.012038029884979543,nan,nan,nan,nan
22.97133493423462,0.14022376,0.34583357,-2.6834435,0.016272002840160348,nan,nan,nan,nan,nan,12.967634439468384,14.167634439468383,0.005074739456176758,0.25670832215245026,0.542310646528052,0.0,-5.0,0.729247887910958,-0.013998007712503247,-0.0037579139227814956,-0.011773352973097404,nan,nan,nan,nan
23.069133758544922,0.10154817,0.35753468,-2.6833282,0.01428570475104328,nan,nan,nan,nan,nan,13.065421342849731,14.26542134284973,0.0054204463958740234,0.20437666012922745,0.5641189420631275,0.0,-5.0,0.7290285536656834,-0.02005834584768168,-0.006833939371782786,-0.010462895703400735,nan,nan,nan,nan
23.167215585708618,0.06887369,0.36358288,-2.6757793,0.01278959067212163,nan,nan,nan,nan,nan,13.163497924804688,14.363497924804687,0.005568981170654297,0.15005758798465443,0.5809326297327666,0.0,-5.0,0.7291246434409151,-0.029287425288290512,-0.006642618289550501,-0.009910034991378628,nan,nan,nan,nan
23.26556086540222,0.04544161,0.3648592,-2.67161,0.011964339417140438,nan,nan,nan,nan,nan,13.26187777519226,14.46187777519226,0.009601831436157227,0.09421710085641759,0.5925564428020436,0.0,-5.0,0.7293086299615401,-0.03263474596130157,-0.01185653754209162,-0.009123192092160531,nan,nan,nan,nan
23.367879152297974,0.0033761384,0.36231074,-2.6692107,0.011030693410578305,nan,nan,nan,nan,nan,13.364415884017944,14.564415884017944,0.00557708740234375,0.03511787770894775,0.5989713972012515,0.0,-5.0,0.7293554652422385,-0.025511994882264247,-0.017220883302683856,-0.008354748750813719,nan,nan,nan,nan
23.483268976211548,-0.035639178,0.3598002,-2.6735332,0.009603726219945206,nan,nan,nan,nan,nan,13.47957181930542,14.67957181930542,0.0054721832275390625,-0.03163623229003421,0.5991653768422296,0.0,-5.0,0.7291069243948496,-0.018407188474152746,-0.022903468967732356,-0.007891890686910017,nan,nan,nan,nan
23.582170963287354,-0.06595616,0.35884193,-2.6789408,0.007500788878129806,nan,nan,nan,nan,nan,13.578469514846802,14.778469514846801,0.005519866943359375,-0.0886840936844498,0.5934097501114788,0.0,-5.0,0.7286677823733045,-0.020284361009915257,-0.02558007635460762,-0.0065623798401891415,nan,nan,nan,nan
23.683339834213257,-0.100538075,0.3537083,-2.683036,0.005661726763033729,nan,nan,nan,nan,nan,13.679632186889648,14.879632186889648,0.005923032760620117,-0.1461964876455227,0.5819163058379723,0.0,-5.0,0.7284495312275898,-0.026973092404200535,-0.026423930896175667,-0.005843520545502138,nan,nan,nan,nan
23.763532876968384,-0.123337835,0.34652016,-2.683693,0.0049160785290757614,nan,nan,nan,nan,nan,13.759839296340942,14.959839296340942,0.008930444717407227,-0.1908290824097254,0.5688446723901546,0.0,-5.0,0.7283001892427127,-0.02201305649788545,-0.028620716610826737,-0.004836914451822961,nan,nan,nan,nan
23.88076639175415,-0.15791371,0.33545682,-2.6848035,0.0044244146294565405,nan,nan,nan,nan,nan,13.87710452079773,15.077104520797729,0.006363868713378906,-0.2539470654886544,0.5436091315731377,0.0,-5.0,0.7282125728010265,-0.013196895669634072,-0.029534237019499438,-0.004358390449192501,nan,nan,nan,nan
23.97587561607361,-0.18661854,0.32530418,-2.6854231,0.00410975293975745,nan,nan,nan,nan,nan,13.972282886505127,15.172282886505126,0.0058917999267578125,-0.30281649642823166,0.5179789276514352,0.0,-5.0,0.7281640130691746,-0.013327872475575394,-0.03563353013672083,-0.004373262246522809,nan,nan,nan,nan
24.076910972595215,-0.22864902,0.30595875,-2.6850514,0.003724875838072966,nan,nan,nan,nan,nan,14.07359004020691,15.273590040206908,0.008285999298095703,-0.3520092443782059,0.4858904113812954,0.0,-5.0,0.7281941514855667,0.0001757766452619378,-0.042475265146934366,-0.003735303793993317,nan,nan,nan,nan
24.18065881729126,-0.25358835,0.28924286,-2.6888587,0.003978297713191036,nan,nan,nan,nan,nan,14.176943063735962,15.376943063735961,0.0067746639251708984,-0.3987164271340929,0.4483583508014806,0.0,-5.0,0.7281234329914419,-0.0006035040888970184,-0.04616036913891318,-0.0041733237194148875,nan,nan,nan,nan
24.27282214164734,-0.2836304,0.26594856,-2.6929636,0.003954362032873323,nan,nan,nan,nan,nan,14.26913857460022,15.469138574600219,0.005177021026611328,-0.4370390148818224,0.41109232475336516,0.0,-5.0,0.727907665320058,0.01452888315946354,-0.04070232944233631,-0.003855619776584928,nan,nan,nan,nan
24.3703293800354,-0.30228657,0.24766544,-2.6930265,0.003731461017187944,nan,nan,nan,nan,nan,14.366638422012329,15.566638422012328,0.0050165653228759766,-0.4737865712648583,0.36813894780244233,0.0,-5.0,0.7278451604160383,0.009966701716651434,-0.040470396930514525,-0.0041345275720545156,nan,nan,nan,nan
24.471440076828003,-0.32723054,0.2164008,-2.690813,0.003333630459744273,nan,nan,nan,nan,nan,14.467750787734985,15.667750787734985,0.005136966705322266,-0.5074498317708267,0.320147884946566,0.0,-5.0,0.7280632184438688,0.0205192482366347,-0.028708775025659557,-0.003394573502774239,nan,nan,nan,nan
24.56774115562439,-0.34040192,0.19666266,-2.693596,0.003374233065726715,nan,nan,nan,nan,nan,14.564027547836304,15.764027547836303,0.005894899368286133,-0.5350055475633011,0.27160460982187373,0.0,-5.0,0.7280045811101123,0.018469601216960736,-0.027555891387300663,-0.0037406733479418506,nan,nan,nan,nan
24.681862115859985,-0.35533312,0.16225657,-2.6975014,0.003717383581135037,nan,nan,nan,nan,nan,14.678168535232544,15.878168535232543,0.0063893795013427734,-0.5616587731052057,0.21104365092073948,0.0,-5.0,0.7278396330279049,0.020342199404010077,-0.02072960920909066,-0.0038654136478195487,nan,nan,nan,nan
24.77556085586548,-0.3615406,0.13596359,-2.7020376,0.003951379808000357,nan,nan,nan,nan,nan,14.772024393081665,15.972024393081664,0.0055694580078125,-0.5784695544157674,0.15928896576355664,0.0,-5.0,0.727709563177293,0.021663214453720447,-0.01520192474222277,-0.004042089060470055,nan,nan,nan,nan
24.870418548583984,-0.3674529,0.10166491,-2.709512,0.004052404992707892,nan,nan,nan,nan,nan,14.866697072982788,16.066697072982787,0.005270242691040039,-0.5906058708194059,0.10575776734430083,0.0,-5.0,0.7274593590731057,0.02668329433246142,-0.0029576684301106716,-0.0038615691826489494,nan,nan,nan,nan
24.983879804611206,-0.37492502,0.06236425,-2.7178226,0.0037268860738136744,nan,nan,nan,nan,nan,14.980198860168457,16.180198860168456,0.008935928344726562,-0.5986347426052553,0.04045299674856948,0.0,-5.0,0.7271906270813355,0.02703307764113148,-0.0005731497879685525,-0.0037973255725768556,nan,nan,nan,nan
25.06569242477417,-0.3797664,0.032584865,-2.7218442,0.0029903461081966904,nan,nan,nan,nan,nan,15.061969757080078,16.261969757080077,0.00626826286315918,-0.5999598375584573,-0.006942140651815186,0.0,-5.0,0.727090986813648,0.031722742147846136,-0.006205390052164961,-0.0034884628251560614,nan,nan,nan,nan
25.180910348892212,-0.38383707,-0.0046416367,-2.728796,0.002532642459307641,nan,nan,nan,nan,nan,15.177235841751099,16.377235841751098,0.006467580795288086,-0.595467626617145,-0.07360914108277791,0.0,-5.0,0.7269316816221957,0.040800946413632064,-0.012415952042242613,-0.00312347169858446,nan,nan,nan,nan
25.273528337478638,-0.38473433,-0.041865133,-2.737321,0.002490187986494347,nan,nan,nan,nan,nan,15.269822359085083,16.469822359085082,0.0058863162994384766,-0.5865052983600053,-0.12653669426550193,0.0,-5.0,0.7267700039423426,0.04714615118565165,-0.014714859235543457,-0.003112265691281614,nan,nan,nan,nan
25.371051788330078,-0.3789975,-0.091488056,-2.748838,0.002894571506513415,nan,nan,nan,nan,nan,15.36735200881958,16.56735200881958,0.005152225494384766,-0.5719890195107887,-0.18118653801838164,0.0,-5.0,0.726499896344289,0.04963500755019323,-0.01303341545304725,-0.003268124614399493,nan,nan,nan,nan
25.47016429901123,-0.36996186,-0.12436004,-2.7531493,0.0032898529384902506,nan,nan,nan,nan,nan,15.466444730758667,16.666444730758666,0.006221294403076172,-0.5520381073537786,-0.2350615409403632,0.0,-5.0,0.7264945497696604,0.05096526863987929,-0.012526734361956563,-0.004040979882896094,nan,nan,nan,nan
25.565125226974487,-0.35418543,-0.17655358,-2.7630305,0.0033960445511356015,nan,nan,nan,nan,nan,15.561453104019165,16.761453104019164,0.007943868637084961,-0.5281541295238223,-0.2846984641105979,0.0,-5.0,0.7263750792981672,0.05561150835085643,0.0056969952754983635,-0.003851848965630367,nan,nan,nan,nan
25.679944038391113,-0.33253396,-0.23047824,-2.7689612,0.0033624229407086016,nan,nan,nan,nan,nan,15.676255464553833,16.876255464553832,0.008339405059814453,-0.493376318367846,-0.3414378544827592,0.0,-5.0,0.7263537563225538,0.05915904046176386,0.013596121650006576,-0.0039932389456739815,nan,nan,nan,nan
25.778740167617798,-0.3196258,-0.25641185,-2.7740564,0.0031481029318179542,nan,nan,nan,nan,nan,15.775153160095215,16.975153160095214,0.007341861724853516,-0.4585321454763487,-0.3869732181493399,0.0,-5.0,0.7264117984934888,0.061133886981072416,0.01128517302271535,-0.004613144093488476,nan,nan,nan,nan
25.875608205795288,-0.29765964,-0.2930045,-2.7806284,0.0026131695499288527,nan,nan,nan,nan,nan,15.872040510177612,17.07204051017761,0.0049304962158203125,-0.42033340209595343,-0.42815865176642354,0.0,-5.0,0.7262959201195853,0.045842993600477396,0.018673265301471745,-0.0038554497734484424,nan,nan,nan,nan
25.9693284034729,-0.28389192,-0.3121521,-2.7819452,0.0023664378523984286,nan,nan,nan,nan,nan,15.965613842010498,17.165613842010497,0.005388021469116211,-0.37994002107769115,-0.46437655020843116,0.0,-5.0,0.7264309790775724,0.0385832272096637,0.012748792150202436,-0.004136117209083628,nan,nan,nan,nan
26.083459615707397,-0.25712997,-0.34186345,-2.7797422,0.0018498371321876393,nan,nan,nan,nan,nan,16.079740524291992,17.27974052429199,0.007538795471191406,-0.32650423637193565,-0.503383535319918,0.0,-5.0,0.7267803138099203,0.028078307180882573,0.012744261733269688,-0.0038838607252953575,nan,nan,nan,nan
26.181973218917847,-0.23457892,-0.36138368,-2.776734,0.000936404923224967,nan,nan,nan,nan,nan,16.178309440612793,17.378309440612792,0.008421182632446289,-0.27713290818752007,-0.5321628991197409,0.0,-5.0,0.7271293656117002,0.01973740956741425,0.017472694071574896,-0.0032151830905651022,nan,nan,nan,nan
26.279862880706787,-0.19584213,-0.38811117,-2.7712543,-0.0006902630354946246,nan,nan,nan,nan,nan,16.276194095611572,17.47619409561157,0.007235527038574219,-0.22561532371409398,-0.5559655796048749,0.0,-5.0,0.7274902930432571,0.01665020184185091,0.024670197218631427,-0.002200740052038509,nan,nan,nan,nan
26.377509593963623,-0.16596185,-0.404873,-2.767,-0.0017467743912083118,nan,nan,nan,nan,nan,16.373929500579834,17.573929500579833,0.006611347198486328,-0.1721622659904453,-0.5747696531385726,0.0,-5.0,0.727768168333545,0.023413113509397107,0.02977058475714081,-0.0019216846423136963,nan,nan,nan,nan
26.478033542633057,-0.11897586,-0.4246757,-2.7600276,-0.0031199390551579533,nan,nan,nan,nan,nan,16.474711894989014,17.674711894989013,0.0063169002532958984,-0.11544000991398473,-0.5887899490574369,0.0,-5.0,0.7281788302076895,0.018620182155624606,0.046105309339681814,-0.0005983926297865773,nan,nan,nan,nan
26.58047127723694,-0.08662427,-0.43315768,-2.7553382,-0.0039067053350906045,nan,nan,nan,nan,nan,16.57683253288269,17.77683253288269,0.007137298583984375,-0.0568503799590677,-0.5973006230521692,0.0,-5.0,0.7284483077483175,0.022308247332193786,0.04697224929653494,-0.0005506848114786159,nan,nan,nan,nan
26.677778720855713,-0.037997294,-0.4395742,-2.7458794,-0.00450198261946224,nan,nan,nan,nan,nan,16.674338579177856,17.874338579177856,0.0073697566986083984,-0.0003836150130861622,-0.5999998773662556,0.0,-5.0,0.7288257255222547,0.010111274289911964,0.051399482784867945,0.0005787512764818952,nan,nan,nan,nan
26.77351188659668,-0.00843538,-0.43926746,-2.7411218,-0.004234779868237698,nan,nan,nan,nan,nan,16.7697856426239,17.9697856426239,0.0055735111236572266,0.05489749199162463,-0.5974832762287405,0.0,-5.0,0.7290493986115887,0.010138473429757084,0.04944071746029189,0.00023122407154386923,nan,nan,nan,nan
26.870515823364258,0.034635376,-0.43375853,-2.734623,-0.003140651504929662,nan,nan,nan,nan,nan,16.866828441619873,18.066828441619872,0.005153179168701172,0.11062138460572125,-0.5897142606957314,0.0,-5.0,0.7292078650454795,-0.004818872885127538,0.047381438350442444,0.00018131835012415913,nan,nan,nan,nan
26.981910228729248,0.08522628,-0.4208525,-2.7244205,-0.0010908195283440593,nan,nan,nan,nan,nan,16.978211164474487,18.178211164474487,0.007232666015625,0.1733512448699114,-0.5744121742286212,0.0,-5.0,0.7294357443788698,-0.012600808142468256,0.04484698153193193,-0.000781474127208901,nan,nan,nan,nan
27.075850248336792,0.117016785,-0.41231963,-2.7198145,-5.501732050740976e-05,nan,nan,nan,nan,nan,17.072185754776,18.272185754776,0.005186319351196289,0.22474434539604135,-0.5563182355563269,0.0,-5.0,0.7295423206586603,-0.012401913912543633,0.045904383494353725,-0.0018991550270827714,nan,nan,nan,nan
27.17026710510254,0.1599399,-0.3891829,-2.7113543,0.0015129063830274271,nan,nan,nan,nan,nan,17.166549682617188,18.366549682617187,0.005466938018798828,0.27448496840607334,-0.5335335060885276,0.0,-5.0,0.7296425158628428,-0.023785368438066525,0.043201458444388455,-0.002293802252506865,nan,nan,nan,nan
27.270976543426514,0.18626331,-0.36829478,-2.70667,0.002731752226315276,nan,nan,nan,nan,nan,17.26725196838379,18.46725196838379,0.005486726760864258,0.32503942779902667,-0.5043306161399299,0.0,-5.0,0.7297427740223864,-0.02184996336695612,0.040061305247214456,-0.0032733596210659612,nan,nan,nan,nan
27.369383573532104,0.22108173,-0.33429667,-2.7044475,0.0048095680965646245,nan,nan,nan,nan,nan,17.36566734313965,18.565667343139648,0.005395174026489258,0.37147565543536804,-0.4711749541506463,0.0,-5.0,0.7295777134358952,-0.033574144975245065,0.025012081970384067,-0.004046670425987669,nan,nan,nan,nan
27.483281135559082,0.2566325,-0.3016581,-2.7038858,0.0056487320547763155,nan,nan,nan,nan,nan,17.47959542274475,18.67959542274475,0.0068759918212890625,0.42100995116907564,-0.4274934163430035,0.0,-5.0,0.7293878056704945,-0.03211188695819501,0.021738738048407598,-0.004825720309244389,nan,nan,nan,nan
27.577885150909424,0.284158,-0.26909485,-2.708703,0.006034766801005025,nan,nan,nan,nan,nan,17.574296474456787,18.774296474456786,0.005691051483154297,0.45832620798100804,-0.3872171058692394,0.0,-5.0,0.729073509039045,-0.028357701297624348,0.022566687306762076,-0.005067966768303928,nan,nan,nan,nan
27.67276883125305,0.30409345,-0.24819806,-2.7134054,0.0059121408829727745,nan,nan,nan,nan,nan,17.66905903816223,18.86905903816223,0.005248069763183594,0.49182482033640873,-0.3436689484097439,0.0,-5.0,0.7287776704104038,-0.020742478607132655,0.026514121311271396,-0.005358153442263622,nan,nan,nan,nan
27.77148127555847,0.3318436,-0.21217783,-2.7185285,0.005204092963446058,nan,nan,nan,nan,nan,17.76776957511902,18.967769575119018,0.005301237106323242,0.5223300337411074,-0.29524792268873545,0.0,-5.0,0.728401169384958,-0.01538393613466386,0.024157414309600257,-0.004831858743197756,nan,nan,nan,nan
27.882753610610962,0.35279188,-0.17555563,-2.7206252,0.004276936256908854,nan,nan,nan,nan,nan,17.87907385826111,19.079073858261108,0.007640838623046875,0.5510146610800093,-0.23745071757078867,0.0,-5.0,0.7282371192796815,-0.012919499791495787,0.019428991477420783,-0.0041110190081998605,nan,nan,nan,nan
27.982541799545288,0.36586234,-0.15103656,-2.7219272,0.003674390779379361,nan,nan,nan,nan,nan,17.978830099105835,19.178830099105834,0.0071353912353515625,0.5713164492199032,-0.183296248872588,0.0,-5.0,0.7281620362466155,-0.007050550659862573,0.025663135305147824,-0.004047990582934232,nan,nan,nan,nan
28.077850818634033,0.37337634,-0.108261056,-2.7191105,0.003549734349115123,nan,nan,nan,nan,nan,18.074270963668823,19.274270963668823,0.0049397945404052734,0.5857732615551101,-0.12988335554291996,0.0,-5.0,0.7281792297466306,-0.018281273459926573,0.011199929328266115,-0.0033507726459986336,nan,nan,nan,nan
28.173009634017944,0.37735033,-0.07508179,-2.719464,0.0036441440349889173,nan,nan,nan,nan,nan,18.169294357299805,19.369294357299804,0.005166292190551758,0.5952173880423073,-0.07560595857532285,0.0,-5.0,0.7282498541543082,-0.018219540242725468,0.013215549133100227,-0.0037462323517418674,nan,nan,nan,nan
28.270225763320923,0.3809783,-0.02238107,-2.7170656,0.0038632610059350734,nan,nan,nan,nan,nan,18.266544103622437,19.466544103622436,0.005780935287475586,0.5996862658695972,-0.019400580593857644,0.0,-5.0,0.7281245420818652,-0.03478708012969022,0.0019128687859336464,-0.0034713936948955275,nan,nan,nan,nan
28.37218403816223,0.3805933,0.013697293,-2.7105033,0.00421056326138742,nan,nan,nan,nan,nan,18.36846375465393,19.56846375465393,0.005276679992675781,0.5986865389828586,0.039679063002118146,0.0,-5.0,0.7284325854692162,-0.04113804792986622,0.005473264339396285,-0.00406279142905416,nan,nan,nan,nan
28.46981453895569,0.38161722,0.05900387,-2.7049885,0.0039799421216806805,nan,nan,nan,nan,nan,18.466157913208008,19.666157913208007,0.006214141845703125,0.5922774185305079,0.09595550791297788,0.0,-5.0,0.7286902292820476,-0.04777761047486013,-0.0005611122951113852,-0.00384998858455289,nan,nan,nan,nan
28.571349143981934,0.37636146,0.09412483,-2.703975,0.003476499081988869,nan,nan,nan,nan,nan,18.567628622055054,19.767628622055053,0.005185604095458984,0.5800337782151004,0.1534953293410442,0.0,-5.0,0.728732091685669,-0.046493921156600136,0.005680511419244981,-0.00392377691871264,nan,nan,nan,nan
28.666211128234863,0.3656641,0.13720825,-2.7034218,0.002582259997800527,nan,nan,nan,nan,nan,18.66252326965332,19.86252326965332,0.007596492767333984,0.5635349215917406,0.20598153350868809,0.0,-5.0,0.7285933957696367,-0.04393840339212266,-0.002211011330103628,-0.003163866693171559,nan,nan,nan,nan
28.782065391540527,0.35475868,0.16974063,-2.7036104,0.00180919083739437,nan,nan,nan,nan,nan,18.778428554534912,19.97842855453491,0.007163286209106445,0.5369719171840232,0.26769602192732433,0.0,-5.0,0.7284625996793129,-0.040322488220365514,-0.0010834861135020821,-0.0027599797640399867,nan,nan,nan,nan
28.877736568450928,0.33679038,0.21293843,-2.7051165,0.0009648618848684893,nan,nan,nan,nan,nan,18.874069452285767,20.074069452285766,0.005004167556762695,0.509965324895788,0.3161255563916548,0.0,-5.0,0.7282461199652663,-0.036535728503174575,-0.005412467455200084,-0.002171995011877058,nan,nan,nan,nan
28.970649242401123,0.32385418,0.238584,-2.7044258,0.0003555447005189772,nan,nan,nan,nan,nan,18.966925859451294,20.166925859451293,0.005755424499511719,0.47957533444042144,0.3605655260786282,0.0,-5.0,0.7281858562039881,-0.03670749357171055,-0.0029893398645647823,-0.002156762196875737,nan,nan,nan,nan
29.082782983779907,0.29752332,0.27389264,-2.7034943,-2.95677139790472e-05,nan,nan,nan,nan,nan,19.079091787338257,20.279091787338256,0.006335735321044922,0.437741593680306,0.4103441204187357,0.0,-5.0,0.7281637766695709,-0.034755764632068635,-0.005466367337866847,-0.0018504595793011488,nan,nan,nan,nan
29.174511432647705,0.26821056,0.30356276,-2.69982,-7.747845868942213e-05,nan,nan,nan,nan,nan,19.17081928253174,20.370819282531738,0.005181789398193359,0.39968529918616413,0.4474948732828863,0.0,-5.0,0.728187169926628,-0.027330221106506424,-0.019865014274944123,-0.0015207552151041556,nan,nan,nan,nan
29.27022695541382,0.24065097,0.32622856,-2.6955748,-0.0001242097902706702,nan,nan,nan,nan,nan,19.266505479812622,20.46650547981262,0.0060024261474609375,0.35664500609596034,0.4824980203346044,0.0,-5.0,0.7283455823922763,-0.028689347214305466,-0.019556784884442235,-0.001824489822377417,nan,nan,nan,nan
29.38410711288452,0.20609438,0.3498178,-2.6921902,-9.578381979834585e-05,nan,nan,nan,nan,nan,19.380456686019897,20.580456686019897,0.006242513656616211,0.30144372905756306,0.5187790263800865,0.0,-5.0,0.7284909393493091,-0.026115066364741684,-0.02696276366330071,-0.0018266371900613671,nan,nan,nan,nan
29.478975296020508,0.15965335,0.3754965,-2.6877654,0.0003289260761446637,nan,nan,nan,nan,nan,19.47535800933838,20.675358009338378,0.00531005859375,0.25265234565894573,0.5442120838726687,0.0,-5.0,0.7286514020142631,-0.02037953051464204,-0.04307811302792056,-0.001667586429378893,nan,nan,nan,nan
29.575315952301025,0.118707694,0.39655286,-2.683784,0.00042296752134098406,nan,nan,nan,nan,nan,19.571590423583984,20.771590423583984,0.005252361297607422,0.20100903329134637,0.5653276647531752,0.0,-5.0,0.7288002078989154,-0.02254676516597418,-0.049025156169165585,-0.0019777671361506086,nan,nan,nan,nan
29.67313241958618,0.08027802,0.41489694,-2.6813347,2.4480747531047814e-05,nan,nan,nan,nan,nan,19.669440746307373,20.869440746307372,0.005524635314941406,0.14671790936650272,0.5817850591680082,0.0,-5.0,0.728931957646501,-0.029208439186378297,-0.04659798249120307,-0.00223542473750147,nan,nan,nan,nan
29.76967430114746,0.033834327,0.43338984,-2.6793635,-0.0008321826080859504,nan,nan,nan,nan,nan,19.765958786010742,20.96595878601074,0.006731271743774414,0.09187880727087532,0.5929235066806522,0.0,-5.0,0.7289905507289487,-0.029721680137776766,-0.05156791631408679,-0.0015173729284425667,nan,nan,nan,nan
29.86457586288452,-0.0028540934,0.4438566,-2.677696,-0.001569526139422489,nan,nan,nan,nan,nan,19.86095380783081,21.06095380783081,0.007798433303833008,0.03712219187879332,0.5988505179676428,0.0,-5.0,0.7290605294924842,-0.03416717062748596,-0.05012725811723411,-0.001271405590696213,nan,nan,nan,nan
