time,x,y,z,yaw,platform,trajectory,traj_double,traj_short,traj_spin,traj_time,ref_time,comptime,x_ref,y_ref,yaw_ref,z_ref,throttle_input,p_input,q_input,r_input,cbf_term_pitch_cbf,cbf_term_roll_cbf,cbf_term_thrust_cbf,cbf_term_yaw_cbf
10.060091018676758,-0.0040615015,0.051001783,-3.3365855,-0.0002584952461610543,SIM,TRIANGLE,DblSpd,Not Short,NoSpin,0.053008079528808594,1.2530080795288085,0.006230831146240234,0.03759024238586426,0.1946994114541856,0.0,-5.0,0.8785971096381047,0.2515957839798134,-0.1549008180274453,0.003782744436304695,nan,nan,nan,nan
10.168355941772461,-0.0056064315,0.042310532,-3.3394976,1.671211892548003e-05,nan,nan,nan,nan,nan,0.16117072105407715,1.361170721054077,0.005426168441772461,0.04083512163162231,0.18907911573610686,0.0,-5.0,0.8785971096381049,0.2534340853354682,-0.15613607792809306,0.0005879360985814106,nan,nan,nan,nan
10.273274421691895,-0.003646851,0.040775612,-3.346178,-0.0002440174138936494,nan,nan,nan,nan,nan,0.2661285400390625,1.4661285400390625,0.005257844924926758,0.04398385620117187,0.1836253474820985,0.0,-5.0,0.8785971096381059,0.22283685365296566,-0.14231970254842655,-0.00015666997731821256,nan,nan,nan,nan
10.376085758209229,-0.010612071,0.03621026,-3.3690383,-0.0007729656068625156,nan,nan,nan,nan,nan,0.3690221309661865,1.5690221309661865,0.007184267044067383,0.0470706639289856,0.1782788396643289,0.0,-5.0,0.8785971096381059,0.18107470150834998,-0.13163440018210762,-0.0007837709429763825,nan,nan,nan,nan
10.465624809265137,-0.016065186,0.032917183,-3.3844795,-0.0008738704830092664,nan,nan,nan,nan,nan,0.4584543704986572,1.6584543704986572,0.006952762603759766,0.04975363111495972,0.1736318041831816,0.0,-5.0,0.8785971096381059,0.1671187894790991,-0.13792215602283517,0.0006850002887876784,nan,nan,nan,nan
10.564780950546265,-0.020119645,0.03063242,-3.3969061,-0.0007117130532888973,nan,nan,nan,nan,nan,0.5576155185699463,1.7576155185699462,0.008034706115722656,0.05272846555709839,0.1684792397852916,0.0,-5.0,0.8785971096381059,0.16050294925741915,-0.14063994073821648,0.0010919975821690234,nan,nan,nan,nan
10.665883541107178,-0.020785436,0.035986673,-3.4187396,-0.0007583879142281417,nan,nan,nan,nan,nan,0.6587426662445068,1.8587426662445068,0.008149385452270508,0.055762279987335205,0.16322451905138582,0.0,-5.0,0.8785971096381058,0.15363187364028272,-0.14023680368010039,0.0010288419859992937,nan,nan,nan,nan
10.76901626586914,-0.015800092,0.03730738,-3.4435549,-0.0003861726230375966,nan,nan,nan,nan,nan,0.7618677616119385,1.9618677616119384,0.006709098815917969,0.05885603284835815,0.1578659819100325,0.0,-5.0,0.8785971096381059,0.1327750814254737,-0.116531362606893,0.0007003500979791272,nan,nan,nan,nan
10.866687297821045,-0.004622032,0.041937947,-3.5192544,0.00016160653167949287,nan,nan,nan,nan,nan,0.8595402240753174,2.0595402240753176,0.006425142288208008,0.061786206722259526,0.1527907718854244,0.0,-5.0,0.8785971096381059,0.0300003457887308,-0.010630890950318043,0.0011737033721872991,nan,nan,nan,nan
10.968327760696411,0.005059928,0.046972893,-3.599858,0.0005106051012986265,nan,nan,nan,nan,nan,0.9611594676971436,2.1611594676971437,0.006226301193237305,0.0648347840309143,0.14751048109603274,0.0,-5.0,0.8785971096381059,-0.04686015052861104,0.05133932616656034,3.9178745573343064e-05,nan,nan,nan,nan
11.077349662780762,0.029128114,0.060180575,-3.7954774,0.0009400119313229555,nan,nan,nan,nan,nan,1.0704679489135742,2.2704679489135744,0.0072705745697021484,0.06811403846740724,0.14183064580108135,0.0,-5.0,0.8785971096380975,-0.11126042301075399,0.09848196703748018,-0.0005017233893896126,nan,nan,nan,nan
11.177415609359741,0.050196003,0.07124392,-3.94188,0.0010466071727173098,nan,nan,nan,nan,nan,1.1702690124511719,2.370269012451172,0.006096363067626953,0.07110807037353516,0.13664483042018546,0.0,-5.0,0.874544752095111,-0.11799887473170553,0.11178593120107544,-0.0005326528576732189,nan,nan,nan,nan
11.25971794128418,0.071771264,0.08915337,-4.1167555,0.0015162053450383417,nan,nan,nan,nan,nan,1.2528486251831055,2.4528486251831056,0.0066602230072021484,0.07358545875549317,0.13235386787255335,0.0,-5.0,0.802655192634882,-0.1093097031413686,0.1113695031476945,-0.0008028912549253375,nan,nan,nan,nan
11.36489987373352,0.1028315,0.117945954,-4.413913,0.0016709396326697427,nan,nan,nan,nan,nan,1.3577568531036377,2.557756853103638,0.006908893585205078,0.07673270559310914,0.126902676445842,0.0,-5.0,0.684730906860315,-0.09451766341663509,0.09660604952739536,-0.002245650687684745,nan,nan,nan,nan
11.461649179458618,0.13055871,0.13654761,-4.6554747,0.0009630943261363413,nan,nan,nan,nan,nan,1.4545660018920898,2.65456600189209,0.0061359405517578125,0.0796369800567627,0.12187232551566919,0.0,-5.0,0.6203366413628844,-0.08176814479823595,0.07928169116255493,-0.002075802590096485,nan,nan,nan,nan
11.565712213516235,0.15875855,0.14855841,-4.860128,-0.0003194987605923093,nan,nan,nan,nan,nan,1.5585517883300781,2.7585517883300783,0.0075092315673828125,0.08275655364990235,0.1164690655544011,0.0,-5.0,0.5808063863683196,-0.05878905431070737,0.07717395582780737,-0.00031238701367982454,nan,nan,nan,nan
11.666204690933228,0.19106866,0.16639668,-5.092168,-0.0011017763551552893,nan,nan,nan,nan,nan,1.6590702533721924,2.8590702533721926,0.006490468978881836,0.08577210760116578,0.11124597289784777,0.0,-5.0,0.5516127772712979,-0.02489252191619457,0.06491346148160815,-0.00018823597334836299,nan,nan,nan,nan
11.76552128791809,0.20707946,0.1792838,-5.230605,-0.0008342564805513195,nan,nan,nan,nan,nan,1.7584443092346191,2.9584443092346193,0.0063474178314208984,0.08875332927703859,0.10608234548661044,0.0,-5.0,0.5518364646938004,-0.012819877616269716,0.04653105921622202,0.0009043492826816254,nan,nan,nan,nan
11.861889123916626,0.22581819,0.19523618,-5.3900895,0.0007339216856105668,nan,nan,nan,nan,nan,1.854762077331543,3.054762077331543,0.0058286190032958984,0.0916428623199463,0.10107752744614519,0.0,-5.0,0.5707089460616247,0.006686361204612029,0.0037380557635679694,-0.0023556423464572668,nan,nan,nan,nan
11.96221137046814,0.23700878,0.20265917,-5.4659915,0.0019900590932216446,nan,nan,nan,nan,nan,1.955108404159546,3.155108404159546,0.006714582443237305,0.09465325212478638,0.09586337935357479,0.0,-5.0,0.5894550396287342,0.013404021197371453,-0.021677566257251247,-0.003542409642008025,nan,nan,nan,nan
12.05909514427185,0.2538332,0.2066516,-5.534347,0.0026403867055800924,nan,nan,nan,nan,nan,2.0519862174987793,3.2519862174987795,0.005258083343505859,0.09755958652496338,0.09082946050868301,0.0,-5.0,0.6196171576562095,0.03499832116250169,-0.04138912685660065,-0.005090212371219368,nan,nan,nan,nan
12.177678108215332,0.27011123,0.20306121,-5.575352,0.0021991849781249836,nan,nan,nan,nan,nan,2.170693874359131,3.370693874359131,0.0063245296478271484,0.10112081623077394,0.08466122972079557,0.0,-5.0,0.6498775010557947,0.058173562669102515,-0.049193958377643246,-0.0037604704581544962,nan,nan,nan,nan
12.265446186065674,0.2803806,0.19988295,-5.5845947,0.002378281512638483,nan,nan,nan,nan,nan,2.258335590362549,3.458335590362549,0.006292581558227539,0.10375006771087647,0.08010723257138232,0.0,-5.0,0.6685206890220861,0.06855911683058427,-0.04967965388532045,-0.0038716253769396428,nan,nan,nan,nan
12.361303091049194,0.2847639,0.19023974,-5.579841,0.0026742958633000566,nan,nan,nan,nan,nan,2.3541805744171143,3.5541805744171144,0.0053157806396484375,0.10662541723251344,0.07512698111038822,0.0,-5.0,0.6891787022266457,0.07414967345753344,-0.05064692295147308,-0.004624691229254784,nan,nan,nan,nan
12.476724624633789,0.27965322,0.17074376,-5.5581255,0.0028445221200190905,nan,nan,nan,nan,nan,2.470001697540283,3.6700016975402834,0.006109714508056641,0.11010005092620852,0.06910873901521762,0.0,-5.0,0.7102794259357823,0.08056568563347018,-0.06305257392749417,-0.004999753897526514,nan,nan,nan,nan
12.565341472625732,0.2725607,0.15473741,-5.53803,0.0031126806680573053,nan,nan,nan,nan,nan,2.5582308769226074,3.7582308769226076,0.006787300109863281,0.11274692630767824,0.0645242163732088,0.0,-5.0,0.7208662450903712,0.08159563764504661,-0.07653794815473437,-0.00526347362570887,nan,nan,nan,nan
12.662440061569214,0.27184603,0.13812533,-5.521745,0.0036468567627183394,nan,nan,nan,nan,nan,2.6552975177764893,3.8552975177764894,0.005764961242675781,0.11565892553329468,0.05948048576283989,0.0,-5.0,0.7286172436262448,0.07557550657464551,-0.07493522260417385,-0.0051344377897281045,nan,nan,nan,nan
12.77645230293274,0.26617086,0.114251666,-5.5013714,0.004097305054993955,nan,nan,nan,nan,nan,2.769685745239258,3.969685745239258,0.005683183670043945,0.11909057235717774,0.05353669911024207,0.0,-5.0,0.7355053150870206,0.059137253462374445,-0.05453517544217064,-0.005706721540291234,nan,nan,nan,nan
12.872661828994751,0.2590208,0.09092703,-5.4859414,0.004596278531555133,nan,nan,nan,nan,nan,2.8654868602752686,4.065486860275269,0.005650997161865234,0.12196460580825808,0.04855872715031842,0.0,-5.0,0.7376563588154765,0.037440083511439494,-0.036546932236342686,-0.006251390874594409,nan,nan,nan,nan
12.963457822799683,0.25654638,0.0789908,-5.4799576,0.0051465515264994795,nan,nan,nan,nan,nan,2.956296443939209,4.156296443939209,0.005653858184814453,0.12468889331817627,0.043840122768714795,0.0,-5.0,0.7372892224445875,0.019675137449956956,-0.024948980224474296,-0.006660559889810176,nan,nan,nan,nan
13.071759462356567,0.25910395,0.06396111,-5.4795823,0.007678489698721039,nan,nan,nan,nan,nan,3.0645859241485596,4.26458592414856,0.00569462776184082,0.1279375777244568,0.03821323631928019,0.0,-5.0,0.733754842358324,-0.005713238385095686,0.0032602709979834585,-0.009404669327863189,nan,nan,nan,nan
13.15582823753357,0.25751582,0.056390323,-5.481735,0.008977724384387762,nan,nan,nan,nan,nan,3.1487038135528564,4.348703813552857,0.016170740127563477,0.1304611144065857,0.03384234257106915,0.0,-5.0,0.7314258917196683,-0.021889042593418492,0.016204892614175556,-0.01185212580014943,nan,nan,nan,nan
13.268952369689941,0.2542315,0.04837619,-5.4776945,0.008407939810028357,nan,nan,nan,nan,nan,3.261857748031616,4.461857748031616,0.00550389289855957,0.1338557324409485,0.02796269166326317,0.0,-5.0,0.7303810346916421,-0.037456473617236,0.01632204706020165,-0.01264410028393499,nan,nan,nan,nan
13.365882158279419,0.24974853,0.04517452,-5.475968,0.006503394020468021,nan,nan,nan,nan,nan,3.3587536811828613,4.5587536811828615,0.007510662078857422,0.13676261043548585,0.02292783128532057,0.0,-5.0,0.7311026788033435,-0.047667436795408684,0.008854060960300293,-0.010572504106665263,nan,nan,nan,nan
13.463476657867432,0.24118376,0.041214973,-5.4735904,0.0024992129080074186,nan,nan,nan,nan,nan,3.45632004737854,4.65632004737854,0.007372379302978516,0.1396896014213562,0.017858134184496978,0.0,-5.0,0.7303020355100915,-0.047225752147736146,-0.007878397310367448,-0.0050943053616698784,nan,nan,nan,nan
13.576044797897339,0.23599568,0.038239088,-5.4701085,9.826615834039511e-05,nan,nan,nan,nan,nan,3.568915843963623,4.768915843963623,0.005456209182739258,0.1430674753189087,0.012007484972375344,0.0,-5.0,0.7295710611841997,-0.04089027430167321,-0.0157792161510987,-0.0016378408428461993,nan,nan,nan,nan
13.67130708694458,0.23200372,0.03497493,-5.4714985,-0.0009310266926364505,nan,nan,nan,nan,nan,3.6641345024108887,4.864134502410889,0.0059185028076171875,0.14592403507232665,0.007059778344599014,0.0,-5.0,0.729134447371522,-0.028914117547659976,-0.01663101302545384,0.0005691167396945879,nan,nan,nan,nan
13.766327619552612,0.23175053,0.03220885,-5.4727955,-0.0011687119898469009,nan,nan,nan,nan,nan,3.759186267852783,4.959186267852783,0.006624937057495117,0.1487755880355835,0.0021207437317645747,0.0,-5.0,0.728438221687041,-0.010228827642369103,-0.005545446993630052,0.0015231002928166053,nan,nan,nan,nan
13.864539861679077,0.23218311,0.030263742,-5.4718046,-0.0010398267643820461,nan,nan,nan,nan,nan,3.8573875427246094,5.0573875427246096,0.0076062679290771484,0.15172162628173827,-0.002981944191616603,0.0,-5.0,0.7281010662888953,-0.005477019821623504,0.0035744486462197553,0.001263667413899587,nan,nan,nan,nan
13.975707054138184,0.23073502,0.02655913,-5.4695272,-0.0008779292998719514,nan,nan,nan,nan,nan,3.9686496257781982,5.168649625778198,0.005735158920288086,0.15505948877334597,-0.00876329161575955,0.0,-5.0,0.7284742449849144,0.0037407243516772892,0.00868479129645535,0.0009903947635407147,nan,nan,nan,nan
14.06220817565918,0.23016253,0.022243079,-5.4717684,-0.0008553621301932608,nan,nan,nan,nan,nan,4.055150747299194,5.2551507472991945,0.005856037139892578,0.15765452241897582,-0.013258021737341162,0.0,-5.0,0.7274928879824657,0.007813756819879817,0.007266309760724783,0.0008772155452452261,nan,nan,nan,nan
14.17734670639038,0.23126476,0.016398398,-5.461627,-0.000987000653082019,nan,nan,nan,nan,nan,4.170210838317871,5.370210838317871,0.00527644157409668,0.16110632514953613,-0.019236719444376615,0.0,-5.0,0.7295231170315575,0.012156317436260857,0.007344804693013948,0.0009907925942463799,nan,nan,nan,nan
14.270852088928223,0.23388197,0.010839465,-5.4553065,-0.0009840303268553383,nan,nan,nan,nan,nan,4.263731241226196,5.4637312412261965,0.005536794662475586,0.16391193723678588,-0.024096182125822534,0.0,-5.0,0.7313795382320395,0.010721343942915218,0.00721139968659544,0.00106378141103078,nan,nan,nan,nan
14.374732255935669,0.23596412,0.0035042956,-5.452011,-0.0009864549175391136,nan,nan,nan,nan,nan,4.367559909820557,5.567559909820557,0.005378007888793945,0.16702679729461672,-0.029491278004452476,0.0,-5.0,0.7322507623194024,0.012716333018002535,0.009220676204844831,0.0009127199041469419,nan,nan,nan,nan
14.476303577423096,0.23669226,-6.2962354e-05,-5.4504256,-0.0010476249954620301,nan,nan,nan,nan,nan,4.469129323959351,5.669129323959351,0.005066633224487305,0.17007387971878052,-0.03476897957795433,0.0,-5.0,0.7309339662125429,0.008478879873505369,0.00502169776338928,0.0010402134985346156,nan,nan,nan,nan
14.57455563545227,0.23899372,0.00032055483,-5.45347,-0.0014394853366481858,nan,nan,nan,nan,nan,4.567417621612549,5.767417621612549,0.005986928939819336,0.17302252864837647,-0.039876189337698105,0.0,-5.0,0.729024749106268,-0.004184032869581158,0.0025999139837369874,0.0013088708506927493,nan,nan,nan,nan
14.672176837921143,0.24330647,0.0026901378,-5.453845,-0.001812691334408578,nan,nan,nan,nan,nan,4.665014743804932,5.865014743804932,0.005385637283325195,0.17595044231414794,-0.04494748456698952,0.0,-5.0,0.7283001309874945,-0.01822165350326742,0.0022159239247432636,0.0018356363505397937,nan,nan,nan,nan
14.769870519638062,0.24904428,0.0026139317,-5.450571,-0.0019646810821372113,nan,nan,nan,nan,nan,4.762709379196167,5.962709379196167,0.006485939025878906,0.17888128137588502,-0.05002384673072562,0.0,-5.0,0.7290306273556172,-0.028594659568715375,0.004807574634736551,0.0022798821464251797,nan,nan,nan,nan
14.872126817703247,0.25873935,0.0010858155,-5.444982,-0.0018655410423164855,nan,nan,nan,nan,nan,4.8649818897247314,6.064981889724732,0.005715608596801758,0.18194945669174195,-0.05533808226431854,0.0,-5.0,0.730962124004138,-0.021805395692705593,0.012790712954465887,0.0020041651923248353,nan,nan,nan,nan
14.964131832122803,0.26402083,-0.00022476848,-5.4425716,-0.0017365217306770046,nan,nan,nan,nan,nan,4.957045793533325,6.157045793533325,0.006243467330932617,0.18471137380599975,-0.06012186303250708,0.0,-5.0,0.7305550127931243,-0.01689439594885018,0.014914624160206167,0.0020663429634629115,nan,nan,nan,nan
15.06123161315918,0.2647974,0.00096418994,-5.4450526,-0.0017917360858254114,nan,nan,nan,nan,nan,5.054169654846191,6.254169654846192,0.004960775375366211,0.18762508964538577,-0.06516856690514183,0.0,-5.0,0.7291146173694216,-0.00991269190487759,0.005093509911001146,0.0019298487809995778,nan,nan,nan,nan
15.174456119537354,0.26329252,-0.0027397661,-5.4374466,-0.0019825178265921554,nan,nan,nan,nan,nan,5.167283058166504,6.367283058166504,0.010337352752685547,0.1910184917449951,-0.07104611175217614,0.0,-5.0,0.7294158809461717,-0.001745989827521384,-0.011484806800066747,0.0022171595207777887,nan,nan,nan,nan
15.26066279411316,0.2611924,-0.005685265,-5.4342403,-0.0021865634097365996,nan,nan,nan,nan,nan,5.25356388092041,6.45356388092041,0.005022287368774414,0.19360691642761232,-0.07552939481403449,0.0,-5.0,0.7310145479378792,0.006596606940792998,-0.020574733183656598,0.002463364549007108,nan,nan,nan,nan
15.358727931976318,0.26032546,-0.009364543,-5.4302044,-0.0024057757241058974,nan,nan,nan,nan,nan,5.351555585861206,6.551555585861206,0.005644559860229492,0.1965466675758362,-0.08062119316436715,0.0,-5.0,0.7317357240581259,0.013627401756581805,-0.027474193351363738,0.002904040735177853,nan,nan,nan,nan
15.463172912597656,0.26695266,-0.013476418,-5.4309826,-0.0021285332811900957,nan,nan,nan,nan,nan,5.45611572265625,6.65611572265625,0.004999399185180664,0.1996834716796875,-0.08605429724562821,0.0,-5.0,0.7300940744256575,0.012991849528051465,-0.013302301797331032,0.002889086141881607,nan,nan,nan,nan
15.576516389846802,0.27964061,-0.017459253,-5.434456,-0.0012052984136607641,nan,nan,nan,nan,nan,5.569337368011475,6.769337368011475,0.005415678024291992,0.20308012104034426,-0.09193746651378205,0.0,-5.0,0.7281220896399501,0.007057215243301664,0.014043466698553966,0.0015863761020272974,nan,nan,nan,nan
15.673439741134644,0.28863844,-0.017812561,-5.440218,-0.0004641782598215193,nan,nan,nan,nan,nan,5.6662797927856445,6.866279792785645,0.005990266799926758,0.20598839378356937,-0.09697474266731565,0.0,-5.0,0.7268459532258658,-0.0019218427131024302,0.028029174623233837,0.0006444870131656655,nan,nan,nan,nan
15.772301197052002,0.30209887,-0.017016364,-5.4423537,0.0003087292756966849,nan,nan,nan,nan,nan,5.7652177810668945,6.965217781066895,0.00606083869934082,0.20895653343200685,-0.10211571134236898,0.0,-5.0,0.7262524450221611,-0.013220450114732319,0.03646036283873563,-0.0009346038764329656,nan,nan,nan,nan
15.872621297836304,0.31272867,-0.016105354,-5.441795,0.0007895110217604594,nan,nan,nan,nan,nan,5.865450859069824,7.065450859069824,0.005778074264526367,0.21196352577209474,-0.10732397485337167,0.0,-5.0,0.7267158716666786,-0.022433345657682603,0.03889395157760502,-0.0012510622279878428,nan,nan,nan,nan
15.971627473831177,0.3246425,-0.01457701,-5.446334,0.0010445083086367372,nan,nan,nan,nan,nan,5.964507341384888,7.164507341384888,0.0059049129486083984,0.21493522024154663,-0.11247110065903378,0.0,-5.0,0.7265367104453794,-0.02513004756894899,0.032073248667391877,-0.002589394641984393,nan,nan,nan,nan
16.055275201797485,0.32627222,-0.016428577,-5.4523754,0.0008802416437941572,nan,nan,nan,nan,nan,6.048144102096558,7.248144102096558,0.01015019416809082,0.21744432306289677,-0.1168169942270266,0.0,-5.0,0.725282132020489,-0.020410205801932653,0.014349895633918187,-0.0021302879049047113,nan,nan,nan,nan
16.175809383392334,0.33379287,-0.021374958,-5.4590607,0.0007692810197955785,nan,nan,nan,nan,nan,6.168656587600708,7.368656587600708,0.005352497100830078,0.22105969762802125,-0.12307900666221444,0.0,-5.0,0.7240123316383131,-0.0031135620391088076,-0.009540138011152199,-0.0018135649377250369,nan,nan,nan,nan
16.26937174797058,0.34222528,-0.028371617,-5.4616385,0.0009631329461526755,nan,nan,nan,nan,nan,6.262278079986572,7.462278079986572,0.009174823760986328,0.2238683423995972,-0.12794372210699667,0.0,-5.0,0.7244990802289443,0.0060278658166186515,-0.014161886579851448,-0.0019111941086581822,nan,nan,nan,nan
16.37059187889099,0.35672942,-0.04267054,-5.465363,0.0015062513200823635,nan,nan,nan,nan,nan,6.363449811935425,7.563449811935425,0.00620579719543457,0.22690349435806276,-0.13320075950775123,0.0,-5.0,0.7249239551682628,0.031155612909210477,0.0003666700955249612,-0.002203205270105621,nan,nan,nan,nan
16.47029423713684,0.3652345,-0.052757546,-5.4668202,0.0018464852130624012,nan,nan,nan,nan,nan,6.463129758834839,7.663129758834839,0.009551525115966797,0.22989389276504515,-0.13838028148351778,0.0,-5.0,0.7238180363682388,0.038229257494489854,0.007567982897141617,-0.0030483630499678984,nan,nan,nan,nan
16.569401741027832,0.3776897,-0.067258604,-5.4710007,0.0023421031393240765,nan,nan,nan,nan,nan,6.562231779098511,7.762231779098511,0.0074040889739990234,0.23286695337295535,-0.14352977351039983,0.0,-5.0,0.723774401940816,0.039877778221727514,0.013035603485994706,-0.004148978063487606,nan,nan,nan,nan
16.66863489151001,0.38831544,-0.08063601,-5.4778485,0.0029630304843129745,nan,nan,nan,nan,nan,6.661916255950928,7.861916255950928,0.006929874420166016,0.23585748767852782,-0.1487095308694291,0.0,-5.0,0.7237070377387365,0.03520731793767436,0.01328316226331315,-0.004156847335488058,nan,nan,nan,nan
16.76102375984192,0.39745358,-0.094331846,-5.4802346,0.003567074665019005,nan,nan,nan,nan,nan,6.753849744796753,7.953849744796753,0.005348920822143555,0.2386154923439026,-0.1534865350773702,0.0,-5.0,0.7233221746768198,0.03358430104786823,0.016296119157269792,-0.00569334984569872,nan,nan,nan,nan
16.87564182281494,0.40305936,-0.108035,-5.4772453,0.003329275223946769,nan,nan,nan,nan,nan,6.868472337722778,8.068472337722778,0.005900144577026367,0.24205417013168334,-0.159442499716665,0.0,-5.0,0.724613588641049,0.01474868450781852,0.0018606909322071295,-0.005272244651720901,nan,nan,nan,nan
16.974666833877563,0.40273944,-0.12410162,-5.474268,0.002671825898493493,nan,nan,nan,nan,nan,6.96749210357666,8.16749210357666,0.0067403316497802734,0.2450247631072998,-0.1645877176790399,0.0,-5.0,0.7268332406470168,0.0023286749062229237,-0.01879643810744183,-0.004793922031066665,nan,nan,nan,nan
17.061665534973145,0.39725375,-0.1339902,-5.4789124,0.0018061901404757732,nan,nan,nan,nan,nan,7.054555177688599,8.254555177688598,0.005830049514770508,0.24763665533065793,-0.16911164771379025,0.0,-5.0,0.725956412142257,-0.0038555405885358765,-0.0354852496329199,-0.003419856644080939,nan,nan,nan,nan
17.17090082168579,0.39373046,-0.14160503,-5.4824944,0.0007739965891264155,nan,nan,nan,nan,nan,7.163973569869995,8.363973569869994,0.006115436553955078,0.25091920709609983,-0.17479719415001052,0.0,-5.0,0.7255784548662995,-0.009604230460131919,-0.04871112531008648,-0.002575244464527095,nan,nan,nan,nan
17.27600646018982,0.38765797,-0.1492946,-5.482649,-0.0009128546857821713,nan,nan,nan,nan,nan,7.268830299377441,8.46883029937744,0.005137205123901367,0.2540649089813232,-0.18024570964068265,0.0,-5.0,0.7254404431777798,-0.020388387669900056,-0.0440655781161964,-0.00012811460500030092,nan,nan,nan,nan
17.376604080200195,0.38130683,-0.15465602,-5.479092,-0.001830188774343345,nan,nan,nan,nan,nan,7.369439125061035,8.569439125061034,0.005373239517211914,0.25708317375183104,-0.1854734975738974,0.0,-5.0,0.7261730073472543,-0.02676142970456012,-0.03918366878957892,0.0010202066567368301,nan,nan,nan,nan
17.476669549942017,0.3777327,-0.15832175,-5.473847,-0.002253586301791017,nan,nan,nan,nan,nan,7.46952748298645,8.66952748298645,0.005833148956298828,0.2600858244895935,-0.19067424120908613,0.0,-5.0,0.7277779846470824,-0.02580343228531888,-0.026556410769360748,0.0020386441620665816,nan,nan,nan,nan
17.57148051261902,0.3734374,-0.16397737,-5.4703913,-0.0025430653243586655,nan,nan,nan,nan,nan,7.564306735992432,8.764306735992431,0.00591588020324707,0.26292920207977294,-0.19559911566037966,0.0,-5.0,0.7292166826834732,-0.01672760466707359,-0.009786284895783478,0.0029777845561547063,nan,nan,nan,nan
17.66716694831848,0.37121955,-0.16703877,-5.4671574,-0.002617211873221611,nan,nan,nan,nan,nan,7.660031080245972,8.860031080245971,0.006040811538696289,0.2658009324073791,-0.20057309849343005,0.0,-5.0,0.7301366038930716,-0.012556018510797958,-0.0015568293071482528,0.002685988630924312,nan,nan,nan,nan
17.76188325881958,0.37260878,-0.17095363,-5.458752,-0.0028025353113996657,nan,nan,nan,nan,nan,7.754730701446533,8.954730701446532,0.004978179931640625,0.26864192104339596,-0.20549383515473701,0.0,-5.0,0.7313403404878699,-0.004872746248411605,0.011037886964180002,0.0028406672133667594,nan,nan,nan,nan
17.877150297164917,0.3808141,-0.17515087,-5.4477882,-0.0033911235983653193,nan,nan,nan,nan,nan,7.869974851608276,9.069974851608276,0.0052263736724853516,0.27209924554824827,-0.2114820968553941,0.0,-5.0,0.7328182639364599,-0.0023017980839870234,0.03369318752073115,0.0036273341939221377,nan,nan,nan,nan
17.975141048431396,0.39244726,-0.17829576,-5.4454427,-0.003930944300084853,nan,nan,nan,nan,nan,7.967984914779663,9.167984914779662,0.005904197692871094,0.2750395474433899,-0.21657484912737043,0.0,-5.0,0.7323381617669734,6.445412119927592e-05,0.05043615240391367,0.0038172199237848283,nan,nan,nan,nan
18.077638149261475,0.39892888,-0.17990702,-5.443281,-0.004162720291671285,nan,nan,nan,nan,nan,8.07047986984253,9.270479869842529,0.005190610885620117,0.2781143960952759,-0.22190064321802164,0.0,-5.0,0.7317844142802767,-0.001077392535128585,0.05262166582026574,0.005015050317519721,nan,nan,nan,nan
18.176225900650024,0.40551,-0.18604158,-5.439276,-0.004302680699482242,nan,nan,nan,nan,nan,8.169064998626709,9.369064998626708,0.005427837371826172,0.28107194995880125,-0.2270232767757692,0.0,-5.0,0.7321273831082314,0.0005387049379600364,0.04519922116075195,0.005274039019944152,nan,nan,nan,nan
18.258460521697998,0.4107308,-0.19647814,-5.4339237,-0.004376535642216862,nan,nan,nan,nan,nan,8.251569509506226,9.451569509506225,0.008614063262939453,0.28354708528518674,-0.23131033691667752,0.0,-5.0,0.7321081681589718,0.013077917963109982,0.033927529802281496,0.0050918243172873995,nan,nan,nan,nan
18.36861515045166,0.41227058,-0.20433263,-5.4290004,-0.004375358735912072,nan,nan,nan,nan,nan,8.361454963684082,9.561454963684081,0.006602048873901367,0.28684364891052244,-0.23702015260614237,0.0,-5.0,0.7319390088564187,0.02636431391645828,0.017413601398746058,0.005583589847453786,nan,nan,nan,nan
18.4715096950531,0.4167824,-0.22325666,-5.429121,-0.004513412629717732,nan,nan,nan,nan,nan,8.464389085769653,9.664389085769653,0.0072307586669921875,0.2899316725730896,-0.24236876648468358,0.0,-5.0,0.7306143089167072,0.04228573018071039,0.0024304306241996485,0.0051445653062746205,nan,nan,nan,nan
18.57038426399231,0.41509,-0.23307398,-5.432463,-0.004463496094358561,nan,nan,nan,nan,nan,8.56322169303894,9.76322169303894,0.00902557373046875,0.2928966507911682,-0.24750425940173076,0.0,-5.0,0.7296074869915432,0.046882397525198974,-0.00261964962221043,0.005937979002928302,nan,nan,nan,nan
18.67128825187683,0.41245198,-0.24775869,-5.4305577,-0.0037538926856223883,nan,nan,nan,nan,nan,8.66416049003601,9.86416049003601,0.005675077438354492,0.2959248147010803,-0.25274919314734495,0.0,-5.0,0.7284591286894774,0.03761138102987919,-0.01582008050218689,0.004724209742375817,nan,nan,nan,nan
18.76618766784668,0.4098148,-0.25553983,-5.4255657,-0.003141855968746175,nan,nan,nan,nan,nan,8.759320259094238,9.959320259094238,0.006535530090332031,0.29877960777282714,-0.25769383979270605,0.0,-5.0,0.7292477763411231,0.028846029075898498,-0.016665275133040454,0.0046270929012137375,nan,nan,nan,nan
18.876835107803345,0.40256184,-0.2626494,-5.416067,-0.002695785662937079,nan,nan,nan,nan,nan,8.869669198989868,10.069669198989867,0.005497455596923828,0.29581984806060796,-0.2598076211353316,0.0,-5.0,0.7313341590694944,0.005609526058864404,-0.023362435591886662,0.003707766542489109,nan,nan,nan,nan
18.97326350212097,0.39965189,-0.26287404,-5.411097,-0.0023456004460854075,nan,nan,nan,nan,nan,8.966112613677979,10.166112613677978,0.005754232406616211,0.29003324317932133,-0.2598076211353316,0.0,-5.0,0.7316413595734864,-0.01889806517391947,-0.0183189007350651,0.0029006712933772544,nan,nan,nan,nan
19.067383289337158,0.39533964,-0.26471743,-5.4133663,-0.0019078748297027984,nan,nan,nan,nan,nan,9.06032109260559,10.26032109260559,0.006556272506713867,0.2843807344436646,-0.2598076211353316,0.0,-5.0,0.7311433078814448,-0.0309603651076194,-0.011520977712569635,0.002842998788298742,nan,nan,nan,nan
19.16617774963379,0.38119304,-0.2655501,-5.4107227,-0.000585154902067547,nan,nan,nan,nan,nan,9.159165620803833,10.359165620803832,0.007219552993774414,0.27845006275177003,-0.2598076211353316,0.0,-5.0,0.7299960363357826,-0.03471161891599431,-0.015171128732123638,0.0020605521105560953,nan,nan,nan,nan
19.269526720046997,0.36829677,-0.2642739,-5.4057517,0.0005627512108451888,nan,nan,nan,nan,nan,9.26246452331543,10.462464523315429,0.0068073272705078125,0.27225212860107423,-0.2598076211353316,0.0,-5.0,0.7301590548449418,-0.03312594983504671,-0.02546462843488283,-0.000279703396856855,nan,nan,nan,nan
19.36637568473816,0.34907004,-0.2583272,-5.398809,0.000661733535813832,nan,nan,nan,nan,nan,9.35938286781311,10.55938286781311,0.005553007125854492,0.26643702793121343,-0.2598076211353316,0.0,-5.0,0.7310135140189318,-0.03236776891375295,-0.038037759052190985,-0.0005249808656295109,nan,nan,nan,nan
19.470548152923584,0.33790976,-0.2499517,-5.392351,0.00015134409953726762,nan,nan,nan,nan,nan,9.463385343551636,10.663385343551635,0.007518768310546875,0.2601968793869019,-0.2598076211353316,0.0,-5.0,0.7319447877494665,-0.03388759697638305,-0.035071508587753125,-0.0011214506072234418,nan,nan,nan,nan
19.572506427764893,0.32882583,-0.24154636,-5.38605,-0.00023621132287317617,nan,nan,nan,nan,nan,9.565340995788574,10.765340995788574,0.007322788238525391,0.2540795402526856,-0.2598076211353316,0.0,-5.0,0.7330608602328599,-0.03248262938210688,-0.016299289189655626,8.112247234748841e-05,nan,nan,nan,nan
19.669095039367676,0.32902429,-0.23716037,-5.384099,-0.0004274259024290416,nan,nan,nan,nan,nan,9.662001609802246,10.862001609802245,0.00645899772644043,0.24827990341186526,-0.2598076211353316,0.0,-5.0,0.7330618458146487,-0.02339010226273181,0.0037597782815481833,-5.78442595476079e-05,nan,nan,nan,nan
19.768178462982178,0.33120584,-0.23523721,-5.381775,-0.0007001136770999131,nan,nan,nan,nan,nan,9.761096477508545,10.961096477508544,0.006018161773681641,0.24233421134948732,-0.2598076211353316,0.0,-5.0,0.7317047348272647,-0.005166492338894451,0.03653716065379703,0.0005579148455292158,nan,nan,nan,nan
19.8656485080719,0.33587298,-0.23962384,-5.381379,-0.0015148907809485294,nan,nan,nan,nan,nan,9.85856008529663,11.05856008529663,0.006174325942993164,0.2364863948822022,-0.2598076211353316,0.0,-5.0,0.7302756607352996,0.0182190059015034,0.053994195631930676,0.0007718896124898722,nan,nan,nan,nan
19.973634481430054,0.34370822,-0.24526896,-5.395883,-0.002780881748259967,nan,nan,nan,nan,nan,9.966505765914917,11.166505765914916,0.00853419303894043,0.230009654045105,-0.2598076211353316,0.0,-5.0,0.7281421091868049,0.03259846676744042,0.06059416819915215,0.0025874563674122357,nan,nan,nan,nan
20.05939483642578,0.35010988,-0.2509644,-5.4078526,-0.003974504209687618,nan,nan,nan,nan,nan,10.052317142486572,11.252317142486572,0.005576610565185547,0.2248609714508057,-0.2598076211353316,0.0,-5.0,0.724089724647382,0.042787738555029244,0.058978540391804,0.004549667783766039,nan,nan,nan,nan
20.17566990852356,0.3571602,-0.2598836,-5.4242334,-0.005337396753695989,nan,nan,nan,nan,nan,10.168503999710083,11.368503999710082,0.005784273147583008,0.21788976001739505,-0.2598076211353316,0.0,-5.0,0.7209595386400806,0.042060163540279034,0.04671787412598695,0.006930944038856698,nan,nan,nan,nan
20.260608911514282,0.35922125,-0.26556122,-5.4332523,-0.005599304206788846,nan,nan,nan,nan,nan,10.253467082977295,11.453467082977294,0.006055355072021484,0.21279197502136235,-0.2598076211353316,0.0,-5.0,0.718656799940514,0.03562350816737867,0.03265043095945696,0.007621781166792279,nan,nan,nan,nan
20.362839937210083,0.35392678,-0.26962724,-5.4396667,-0.005244451206754479,nan,nan,nan,nan,nan,10.35567593574524,11.555675935745239,0.005110979080200195,0.20665944385528567,-0.2598076211353316,0.0,-5.0,0.7192881666683557,0.014633264740753096,-0.003562100324294893,0.006336559670610284,nan,nan,nan,nan
20.473098039627075,0.3514202,-0.27958813,-5.439522,-0.0046467304387711565,nan,nan,nan,nan,nan,10.466001272201538,11.666001272201537,0.010628700256347656,0.20003992366790774,-0.2598076211353316,0.0,-5.0,0.721528166107506,0.005835838341706754,-0.021228435759058726,0.0065477271709865935,nan,nan,nan,nan
20.55945634841919,0.3464742,-0.29067522,-5.437139,-0.004161296483700955,nan,nan,nan,nan,nan,10.55233120918274,11.752331209182739,0.007582187652587891,0.19486012744903566,-0.2598076211353316,0.0,-5.0,0.7243589050163118,0.007202731547816589,-0.02885508405022149,0.005991105800004655,nan,nan,nan,nan
20.66250705718994,0.33705455,-0.29963925,-5.4325085,-0.0036869697805278563,nan,nan,nan,nan,nan,10.655339479446411,11.85533947944641,0.006609201431274414,0.18867963123321535,-0.2598076211353316,0.0,-5.0,0.7267545076019986,0.0143544253935386,-0.030850125375377298,0.0055628092281331965,nan,nan,nan,nan
20.76038908958435,0.32748237,-0.30330947,-5.4260283,-0.003502533365443923,nan,nan,nan,nan,nan,10.753202438354492,11.953202438354491,0.005380868911743164,0.1828078536987305,-0.2598076211353316,0.0,-5.0,0.7280434791962124,0.009894567501894132,-0.034072599841569635,0.004980099756435655,nan,nan,nan,nan
20.87141442298889,0.31746224,-0.3066337,-5.4167314,-0.0033665457330834666,nan,nan,nan,nan,nan,10.864242315292358,12.064242315292358,0.006112575531005859,0.17614546108245852,-0.2598076211353316,0.0,-5.0,0.7303378798526945,-0.0010711256063096395,-0.031444512106966756,0.004750421439675924,nan,nan,nan,nan
20.963320016860962,0.31253353,-0.3038217,-5.406354,-0.003397555825893783,nan,nan,nan,nan,nan,10.956139087677002,12.156139087677001,0.005192995071411133,0.1706316547393799,-0.2598076211353316,0.0,-5.0,0.7325288941403488,-0.018028118722130608,-0.019173617015310913,0.004444962388422819,nan,nan,nan,nan
21.056775093078613,0.30919373,-0.30156678,-5.400943,-0.003262621519534415,nan,nan,nan,nan,nan,11.049626588821411,12.24962658882141,0.010805130004882812,0.16502240467071536,-0.2598076211353316,0.0,-5.0,0.7334739153401046,-0.028456467781569347,-0.005873134219347031,0.004669397163364081,nan,nan,nan,nan
21.169454097747803,0.30066806,-0.2962831,-5.394211,-0.0025580128731202273,nan,nan,nan,nan,nan,11.162291526794434,12.362291526794433,0.0051708221435546875,0.15826250839233402,-0.2598076211353316,0.0,-5.0,0.7340004397344374,-0.0340418739548543,0.0035676106263451187,0.003725790486926208,nan,nan,nan,nan
21.264617204666138,0.2960679,-0.29199168,-5.393719,-0.002695426258285927,nan,nan,nan,nan,nan,11.257772445678711,12.45777244567871,0.0054090023040771484,0.15253365325927737,-0.2598076211353316,0.0,-5.0,0.7320492840981415,-0.034183662769650985,0.009034196838440537,0.003508276765317949,nan,nan,nan,nan
21.37565851211548,0.29281017,-0.28621528,-5.38779,-0.0035034235458764745,nan,nan,nan,nan,nan,11.368483304977417,12.568483304977416,0.005651235580444336,0.14589100170135502,-0.2598076211353316,0.0,-5.0,0.7315131076627202,-0.028301874320771973,0.014814798748471924,0.004258683486327416,nan,nan,nan,nan
21.463886260986328,0.28473517,-0.2806027,-5.3850784,-0.004321746518666582,nan,nan,nan,nan,nan,11.456713438034058,12.656713438034057,0.0059032440185546875,0.1405971937179566,-0.2598076211353316,0.0,-5.0,0.7315282707411853,-0.018340779398669935,0.011444453925164752,0.006041404758285533,nan,nan,nan,nan
21.5757417678833,0.27859473,-0.2696152,-5.3867016,-0.005820746686173582,nan,nan,nan,nan,nan,11.568636178970337,12.768636178970336,0.006094932556152344,0.13388182926177983,-0.2598076211353316,0.0,-5.0,0.7303765511982191,-0.013607342438391113,0.004538948964750392,0.007253341433192413,nan,nan,nan,nan
21.670461893081665,0.27480754,-0.2622377,-5.3902936,-0.0069035559839549674,nan,nan,nan,nan,nan,11.66331148147583,12.86331148147583,0.005910396575927734,0.12820131111145025,-0.2598076211353316,0.0,-5.0,0.728899690842803,-0.018065212628488033,0.007671919526868618,0.008770094059034008,nan,nan,nan,nan
21.764744520187378,0.2661307,-0.2536098,-5.397368,-0.007852131687998608,nan,nan,nan,nan,nan,11.757568120956421,12.95756812095642,0.00521540641784668,0.12254591274261478,-0.2598076211353316,0.0,-5.0,0.7258171216620893,-0.01848597335877283,0.0021808691540706657,0.010628221541065849,nan,nan,nan,nan
21.874457120895386,0.24589953,-0.24431236,-5.4073725,-0.007798208499105867,nan,nan,nan,nan,nan,11.867525339126587,13.067525339126586,0.0064465999603271484,0.11594847965240479,-0.2598076211353316,0.0,-5.0,0.7232569742608486,-0.011865288873774605,-0.01854081212980488,0.011710707700871428,nan,nan,nan,nan
21.965898990631104,0.23574238,-0.24233398,-5.4144454,-0.007518543993080417,nan,nan,nan,nan,nan,11.95878553390503,13.158785533905029,0.005135297775268555,0.11047286796569829,-0.2598076211353316,0.0,-5.0,0.7224374756679405,-0.0038194108636013845,-0.026858890326258447,0.01030604325957982,nan,nan,nan,nan
22.063668727874756,0.21963055,-0.23758902,-5.4253006,-0.006757000982359689,nan,nan,nan,nan,nan,12.056489706039429,13.256489706039428,0.005864143371582031,0.10461061763763431,-0.2598076211353316,0.0,-5.0,0.7213537425268236,0.01296227172939919,-0.028808953346384635,0.010395192306627337,nan,nan,nan,nan
22.157933950424194,0.20884408,-0.23349969,-5.4305334,-0.00626256907763874,nan,nan,nan,nan,nan,12.150791883468628,13.350791883468627,0.010738849639892578,0.09895248699188236,-0.2598076211353316,0.0,-5.0,0.7204822511702152,0.014850380100017595,-0.023666933274846962,0.008854482855942565,nan,nan,nan,nan
22.274524688720703,0.19307023,-0.23076475,-5.4423037,-0.005624662899644016,nan,nan,nan,nan,nan,12.267369985580444,13.467369985580444,0.006699323654174805,0.09195780086517336,-0.2598076211353316,0.0,-5.0,0.719663801955029,0.01654633727422114,-0.015225609439278347,0.008243335286219003,nan,nan,nan,nan
22.367407083511353,0.18647924,-0.22983912,-5.448925,-0.005268645057943215,nan,nan,nan,nan,nan,12.360270023345947,13.560270023345947,0.005102872848510742,0.0863837985992432,-0.2598076211353316,0.0,-5.0,0.7195604523284973,0.015539415092361425,-0.0060510498850870256,0.007530327560811918,nan,nan,nan,nan
22.459651947021484,0.17544025,-0.22881363,-5.454908,-0.004811813423134967,nan,nan,nan,nan,nan,12.452479839324951,13.65247983932495,0.005983114242553711,0.08085120964050295,-0.2598076211353316,0.0,-5.0,0.7203179496571045,0.013242555373675672,0.0024729149385789924,0.007100714417007808,nan,nan,nan,nan
22.56806254386902,0.16441397,-0.22644834,-5.4563084,-0.004386419155940606,nan,nan,nan,nan,nan,12.561115264892578,13.761115264892577,0.005823612213134766,0.07433308410644533,-0.2598076211353316,0.0,-5.0,0.721995489438916,0.009994358325047848,0.006999919380047122,0.006447609670693723,nan,nan,nan,nan
22.664020776748657,0.15534157,-0.22432958,-5.454271,-0.004040845848230866,nan,nan,nan,nan,nan,12.656847715377808,13.856847715377807,0.0052378177642822266,0.06858913707733158,-0.2598076211353316,0.0,-5.0,0.7230938920117074,0.0014509339796001117,0.007243617644259747,0.00600226076748464,nan,nan,nan,nan
22.774656534194946,0.14139257,-0.22886491,-5.4497495,-0.0033661640682448434,nan,nan,nan,nan,nan,12.767497539520264,13.967497539520263,0.005758047103881836,0.0619501476287842,-0.2598076211353316,0.0,-5.0,0.7258077623465942,0.0050614992248122145,-0.001003961941974861,0.0051304436010321305,nan,nan,nan,nan
22.864314317703247,0.13972557,-0.2368171,-5.442508,-0.003067814859293626,nan,nan,nan,nan,nan,12.85716199874878,14.057161998748779,0.0051004886627197266,0.05657028007507326,-0.2598076211353316,0.0,-5.0,0.7276684878373987,0.014636429135164377,0.005478197949955666,0.0046252495004654795,nan,nan,nan,nan
22.97197723388672,0.14093128,-0.24516577,-5.4319205,-0.0029696313673593707,nan,nan,nan,nan,nan,12.964915990829468,14.164915990829467,0.0056536197662353516,0.05010504055023195,-0.2598076211353316,0.0,-5.0,0.7311752776144489,0.02976430116113069,0.02190141351466293,0.004439044429495178,nan,nan,nan,nan
23.063211917877197,0.14052218,-0.2536908,-5.4200015,-0.0028714927031391908,nan,nan,nan,nan,nan,13.056037902832031,14.25603790283203,0.0053708553314208984,0.04463772583007817,-0.2598076211353316,0.0,-5.0,0.733096418285029,0.03142249263278566,0.036564780379246015,0.003892271096010601,nan,nan,nan,nan
23.17194700241089,0.13632153,-0.26104447,-5.408559,-0.0027886475788018593,nan,nan,nan,nan,nan,13.164798259735107,14.364798259735107,0.00564122200012207,0.03811210441589358,-0.2598076211353316,0.0,-5.0,0.7348617703350905,0.02804186707979324,0.028210109172362618,0.0038336799107129595,nan,nan,nan,nan
23.266932725906372,0.1363347,-0.2644755,-5.403924,-0.0029678513878679176,nan,nan,nan,nan,nan,13.25979995727539,14.45979995727539,0.004923343658447266,0.0324120025634766,-0.2598076211353316,0.0,-5.0,0.7344999664237334,0.019649744389829017,0.024586485758596777,0.004426678409642774,nan,nan,nan,nan
23.358888626098633,0.13030301,-0.26775822,-5.39248,-0.003352751952343801,nan,nan,nan,nan,nan,13.351728439331055,14.551728439331054,0.00788569450378418,0.026896293640136747,-0.2598076211353316,0.0,-5.0,0.7347435937487923,0.004625133532814981,0.010023636383579813,0.004554144726774335,nan,nan,nan,nan
23.47282910346985,0.11950892,-0.27207533,-5.38515,-0.0036730060758088886,nan,nan,nan,nan,nan,13.465791940689087,14.665791940689086,0.005547523498535156,0.02005248355865482,-0.2598076211353316,0.0,-5.0,0.7350635563880834,-0.0053626922104828305,-0.008978974032178927,0.005475194579405692,nan,nan,nan,nan
23.561307430267334,0.11119326,-0.27429032,-5.3830433,-0.003728098340845421,nan,nan,nan,nan,nan,13.554152250289917,14.754152250289916,0.00750422477722168,0.014750864982605015,-0.2598076211353316,0.0,-5.0,0.7346133342502328,-0.007484323432248424,-0.01875406201599191,0.0055291610954098565,nan,nan,nan,nan
23.656525373458862,0.09859808,-0.2762398,-5.3853083,-0.0036879245467514145,nan,nan,nan,nan,nan,13.649592876434326,14.849592876434325,0.009075403213500977,0.009024427413940472,-0.2598076211353316,0.0,-5.0,0.7315758796244026,-0.009454366858533552,-0.029166195744005762,0.005761311706219599,nan,nan,nan,nan
23.774898529052734,0.08978101,-0.2811942,-5.3864655,-0.003965408860345894,nan,nan,nan,nan,nan,13.767768859863281,14.96776885986328,0.006919384002685547,0.0019338684082031543,-0.2598076211353316,0.0,-5.0,0.7291655906765314,-0.004166834919329113,-0.020601100308656712,0.006078268538702838,nan,nan,nan,nan
23.8684401512146,0.087758005,-0.2842312,-5.3887343,-0.004130062198856989,nan,nan,nan,nan,nan,13.86130166053772,15.061301660537719,0.005730390548706055,-0.003678099632263154,-0.2598076211353316,0.0,-5.0,0.7283966209650438,0.0012898339151830222,-0.0072969603247917654,0.00596426141380861,nan,nan,nan,nan
23.96613836288452,0.08267984,-0.28362516,-5.382621,-0.003944757974755468,nan,nan,nan,nan,nan,13.958966255187988,15.158966255187988,0.0054836273193359375,-0.009537975311279267,-0.2598076211353316,0.0,-5.0,0.7288499949959465,0.001984116550170882,0.00801999649325118,0.006136734884644734,nan,nan,nan,nan
24.064798831939697,0.0781184,-0.28288046,-5.377985,-0.0033611560709662235,nan,nan,nan,nan,nan,14.057631254196167,15.257631254196166,0.005028486251831055,-0.015457875251770004,-0.2598076211353316,0.0,-5.0,0.7308247610342683,-0.007921725878302052,0.014166761281855608,0.0055137835168749556,nan,nan,nan,nan
24.164021253585815,0.07048751,-0.28676334,-5.3783183,-0.0023345997413875613,nan,nan,nan,nan,nan,14.156901597976685,15.356901597976684,0.005438089370727539,-0.021414095878601058,-0.2598076211353316,0.0,-5.0,0.7299972017439603,-0.005629821449693227,0.00856048197224218,0.004115689407159114,nan,nan,nan,nan
24.267621994018555,0.068236746,-0.2852932,-5.380988,-0.0017714869207769066,nan,nan,nan,nan,nan,14.260478973388672,15.460478973388671,0.005098819732666016,-0.027628738403320297,-0.2598076211353316,0.0,-5.0,0.728759205993191,-0.0058557524757906565,0.011038824697821435,0.0031406634750092213,nan,nan,nan,nan
24.360902786254883,0.066439725,-0.28329083,-5.3831587,-0.0012910105887601721,nan,nan,nan,nan,nan,14.353735446929932,15.553735446929931,0.005952119827270508,-0.033224126815795896,-0.2598076211353316,0.0,-5.0,0.7276986455632505,-0.009587625428344357,0.012752901345909971,0.002424304070368508,nan,nan,nan,nan
24.47529888153076,0.066956565,-0.27349502,-5.381288,-0.0009448539649664217,nan,nan,nan,nan,nan,14.468360424041748,15.668360424041747,0.0060443878173828125,-0.04010162544250484,-0.2598076211353316,0.0,-5.0,0.7276333080111894,-0.018921818569734034,0.017100118652134597,0.0021837670895825116,nan,nan,nan,nan
24.5730984210968,0.067084484,-0.26607308,-5.378855,-0.0008076452794748123,nan,nan,nan,nan,nan,14.565959692001343,15.765959692001342,0.005644798278808594,-0.04595758152008054,-0.2598076211353316,0.0,-5.0,0.7287984549366946,-0.031152956471926833,0.021193473631044988,0.001537484165093638,nan,nan,nan,nan
24.669127464294434,0.06620745,-0.25662336,-5.3764462,-0.0006798561933861608,nan,nan,nan,nan,nan,14.66201901435852,15.86201901435852,0.0051081180572509766,-0.05172114086151123,-0.2598076211353316,0.0,-5.0,0.7290026218081046,-0.03732576318113247,0.020373957676954577,0.001806978151181856,nan,nan,nan,nan
24.762152194976807,0.055731915,-0.2464156,-5.38127,-0.0002580106554612126,nan,nan,nan,nan,nan,14.754979610443115,15.954979610443115,0.00581049919128418,-0.05729877662658691,-0.2598076211353316,0.0,-5.0,0.7278608556429319,-0.03235780414873489,0.002255787417631263,0.002288460151312757,nan,nan,nan,nan
24.87020778656006,0.046495948,-0.2434056,-5.3816967,-0.00014121889989488975,nan,nan,nan,nan,nan,14.863068103790283,16.063068103790282,0.005034208297729492,-0.063784086227417,-0.2598076211353316,0.0,-5.0,0.7273926379771778,-0.012825710576731611,-0.019796716215839893,0.0016703326702211514,nan,nan,nan,nan
24.96250629425049,0.035119776,-0.2428749,-5.379268,-0.00018446272722690525,nan,nan,nan,nan,nan,14.95534873008728,16.15534873008728,0.005629777908325195,-0.0693209238052368,-0.2598076211353316,0.0,-5.0,0.7281004801064984,0.001562363592904145,-0.024503521763167616,0.0005737112788644187,nan,nan,nan,nan
25.06116485595703,0.013227981,-0.24344957,-5.3748007,4.955747418421662e-05,nan,nan,nan,nan,nan,15.053994417190552,16.25399441719055,0.007911920547485352,-0.07523966503143309,-0.2598076211353316,0.0,-5.0,0.7292863480474472,0.027731871928149902,-0.045977140516125864,0.0014139614305430101,nan,nan,nan,nan
25.17512845993042,-0.0036282365,-0.24241512,-5.3712835,0.00021295220246149785,nan,nan,nan,nan,nan,15.168001174926758,16.368001174926757,0.009782552719116211,-0.08208007049560544,-0.2598076211353316,0.0,-5.0,0.7293311461263634,0.032746301231658746,-0.04466766755043426,0.0005770138338458922,nan,nan,nan,nan
25.26095199584961,-0.013532417,-0.24190918,-5.367995,0.0001956041849824567,nan,nan,nan,nan,nan,15.253796577453613,16.453796577453613,0.010096073150634766,-0.08722779464721679,-0.2598076211353316,0.0,-5.0,0.7295808115384369,0.027547507953041672,-0.03161913678172554,0.0007081115471117742,nan,nan,nan,nan
25.360320806503296,-0.023247007,-0.24297906,-5.3659234,1.913683313326149e-05,nan,nan,nan,nan,nan,15.353208541870117,16.553208541870116,0.006714344024658203,-0.09319251251220702,-0.2598076211353316,0.0,-5.0,0.7301218905803007,0.020876407289089252,-0.015812711119771342,0.0004957675351773716,nan,nan,nan,nan
25.473400354385376,-0.039501566,-0.24557553,-5.3647704,-0.00022602931554064395,nan,nan,nan,nan,nan,15.466328620910645,16.666328620910644,0.005357503890991211,-0.09997971725463865,-0.2598076211353316,0.0,-5.0,0.7302445589246321,0.01414777637232208,-0.004507712552445845,0.0009726881722295605,nan,nan,nan,nan
25.567927837371826,-0.056965347,-0.24758334,-5.368953,3.447356597574471e-05,nan,nan,nan,nan,nan,15.56074833869934,16.76074833869934,0.005049705505371094,-0.10564490032196043,-0.2598076211353316,0.0,-5.0,0.7288204823280054,0.007621058870253074,-0.001725756357413221,0.0009123614154309987,nan,nan,nan,nan
25.66058373451233,-0.06738156,-0.24737647,-5.374034,0.00046647063328325925,nan,nan,nan,nan,nan,15.65346646308899,16.85346646308899,0.006319284439086914,-0.11120798778533932,-0.2598076211353316,0.0,-5.0,0.726537927518978,0.0015830298102087466,0.0003290734988627492,0.000340577890613615,nan,nan,nan,nan
25.77321767807007,-0.08156817,-0.24653047,-5.376855,0.0012517434097883244,nan,nan,nan,nan,nan,15.766303777694702,16.9663037776947,0.006131172180175781,-0.11797822666168213,-0.2598076211353316,0.0,-5.0,0.7252787668116705,-0.004814948898955575,0.0011559363854554017,-0.000631752954154561,nan,nan,nan,nan
25.866355657577515,-0.09664317,-0.2424819,-5.3762712,0.0021196535459123865,nan,nan,nan,nan,nan,15.859183311462402,17.0591833114624,0.0055010318756103516,-0.12355099868774415,-0.2598076211353316,0.0,-5.0,0.7261669381437694,-0.011066247217790696,0.0005042185084214364,-0.001560148664155778,nan,nan,nan,nan
25.97710108757019,-0.10526138,-0.23748575,-5.371823,0.002483261178683931,nan,nan,nan,nan,nan,15.970034837722778,17.170034837722778,0.006647825241088867,-0.1302020902633667,-0.2598076211353316,0.0,-5.0,0.727862948890623,-0.018447863038523457,0.003552931080287348,-0.002308539202590322,nan,nan,nan,nan
26.06685757637024,-0.11491732,-0.22704667,-5.360434,0.0030233535467686324,nan,nan,nan,nan,nan,16.05968976020813,17.25968976020813,0.0049707889556884766,-0.1355813856124878,-0.2598076211353316,0.0,-5.0,0.7307150710844136,-0.027301805686524863,0.006999529539247144,-0.0028149689007630103,nan,nan,nan,nan
26.161271810531616,-0.11977725,-0.2182615,-5.3512807,0.0032856698276009354,nan,nan,nan,nan,nan,16.154101610183716,17.354101610183715,0.006676673889160156,-0.14124609661102291,-0.2598076211353316,0.0,-5.0,0.7325827358150374,-0.03393409724200262,0.012151936773723537,-0.0036928522097593123,nan,nan,nan,nan
26.275496244430542,-0.12287318,-0.20544784,-5.3527346,0.003945380599977375,nan,nan,nan,nan,nan,16.268352270126343,17.468352270126342,0.006345272064208984,-0.14810113620758056,-0.2598076211353316,0.0,-5.0,0.7325559348574215,-0.03649912578663248,0.01925253960840287,-0.004318358894779571,nan,nan,nan,nan
26.368446826934814,-0.12597913,-0.1948808,-5.3580327,0.004479934997824812,nan,nan,nan,nan,nan,16.361302375793457,17.561302375793456,0.005111217498779297,-0.15367814254760742,-0.2598076211353316,0.0,-5.0,0.7293335749219885,-0.028305525044993736,0.023065006199322544,-0.004997936166659663,nan,nan,nan,nan
26.46579885482788,-0.12711075,-0.19036457,-5.3605,0.004550914983572102,nan,nan,nan,nan,nan,16.45863699913025,17.65863699913025,0.005459308624267578,-0.1595182199478149,-0.2598076211353316,0.0,-5.0,0.7280213453538845,-0.0180997139101394,0.024327178156123327,-0.005382175766018715,nan,nan,nan,nan
26.576223611831665,-0.12760045,-0.18871364,-5.3596597,0.0043953888835627595,nan,nan,nan,nan,nan,16.569080352783203,17.769080352783202,0.007679462432861328,-0.16614482116699217,-0.2598076211353316,0.0,-5.0,0.7273738281191194,0.004415382807954055,0.026226936388846687,-0.005166396694542112,nan,nan,nan,nan
26.670714139938354,-0.13344127,-0.19032842,-5.3527203,0.003830829410201556,nan,nan,nan,nan,nan,16.66357922554016,17.86357922554016,0.006205558776855469,-0.17181475353240963,-0.2598076211353316,0.0,-5.0,0.7292350333729192,0.02870661157264822,0.013381581626719898,-0.00507142040367221,nan,nan,nan,nan
26.761716604232788,-0.14176828,-0.19256139,-5.3495946,0.0030596039332195357,nan,nan,nan,nan,nan,16.754545211791992,17.95454521179199,0.0072154998779296875,-0.17727271270751954,-0.2598076211353316,0.0,-5.0,0.7302753552130797,0.03863854554163017,0.002055950996718764,-0.003671465520712088,nan,nan,nan,nan
26.87452745437622,-0.15447421,-0.19825391,-5.3466234,0.00191559673229748,nan,nan,nan,nan,nan,16.867415189743042,18.06741518974304,0.006048917770385742,-0.18404491138458248,-0.2598076211353316,0.0,-5.0,0.7304270034785455,0.042952965698308934,-0.017333544787189452,-0.0021083860768555313,nan,nan,nan,nan
26.976934909820557,-0.164721,-0.20367314,-5.3434215,0.0013050745694363052,nan,nan,nan,nan,nan,16.969860553741455,18.169860553741454,0.007941246032714844,-0.1901916332244873,-0.2598076211353316,0.0,-5.0,0.7300297504887363,0.037890506260929525,-0.02373543219534575,-0.0011917664504807095,nan,nan,nan,nan
27.072325229644775,-0.17072561,-0.2069841,-5.3410454,0.001420626521493283,nan,nan,nan,nan,nan,17.065285444259644,18.265285444259643,0.006106138229370117,-0.19591712665557862,-0.2598076211353316,0.0,-5.0,0.7302823746839414,0.030671037901930088,-0.017927082584483615,-0.0006209312187640964,nan,nan,nan,nan
27.1727352142334,-0.17832027,-0.21222465,-5.3477945,0.0022657380003006976,nan,nan,nan,nan,nan,17.16579246520996,18.36579246520996,0.005170106887817383,-0.2019475479125976,-0.2598076211353316,0.0,-5.0,0.7282068247290466,0.01448603868241374,-0.007818307424535412,-0.0017593597688300704,nan,nan,nan,nan
27.268789529800415,-0.1839925,-0.212492,-5.348585,0.0031809246272453,nan,nan,nan,nan,nan,17.261624574661255,18.461624574661254,0.005406856536865234,-0.2076974744796753,-0.2598076211353316,0.0,-5.0,0.7273586873683473,0.0028435224804602287,-0.0006459209108178404,-0.0024745279229084734,nan,nan,nan,nan
27.3675856590271,-0.18827562,-0.21368812,-5.3460164,0.003973430410615755,nan,nan,nan,nan,nan,17.36041021347046,18.56041021347046,0.005264997482299805,-0.2136246128082275,-0.2598076211353316,0.0,-5.0,0.7279204734611688,-0.009686815751894623,0.0028405333117374294,-0.0037370539165735447,nan,nan,nan,nan
27.46649980545044,-0.19311872,-0.2147216,-5.342878,0.004815919219963551,nan,nan,nan,nan,nan,17.459330558776855,18.659330558776855,0.005345344543457031,-0.21955983352661132,-0.2598076211353316,0.0,-5.0,0.7300295368102144,-0.014695082044361695,0.006341637640223839,-0.0050399728071210785,nan,nan,nan,nan
27.563007593154907,-0.19653982,-0.21395932,-5.3433523,0.005106389885818471,nan,nan,nan,nan,nan,17.555845499038696,18.755845499038696,0.007467985153198242,-0.22535072994232175,-0.2598076211353316,0.0,-5.0,0.7290691197344784,-0.016803732028362228,0.008271835447574566,-0.005716912127834728,nan,nan,nan,nan
27.676329612731934,-0.20304307,-0.21382219,-5.346973,0.005660255527006722,nan,nan,nan,nan,nan,17.66916584968567,18.86916584968567,0.006161212921142578,-0.2321499509811401,-0.2598076211353316,0.0,-5.0,0.727910852943615,-0.013346715277519619,0.0032024453651849894,-0.006432535658775166,nan,nan,nan,nan
27.769195318222046,-0.206039,-0.21056347,-5.3544908,0.00657635302212943,nan,nan,nan,nan,nan,17.762030839920044,18.962030839920043,0.005216836929321289,-0.23772185039520258,-0.2598076211353316,0.0,-5.0,0.7262735328677521,-0.0092667402070236,-0.00024097504716056751,-0.007210337305885362,nan,nan,nan,nan
27.871253728866577,-0.20892268,-0.2067931,-5.3586264,0.007363768930109279,nan,nan,nan,nan,nan,17.86410617828369,19.06410617828369,0.0052073001861572266,-0.24384637069702142,-0.2598076211353316,0.0,-5.0,0.7252920187978418,-0.006088295905154774,0.0009080174668384236,-0.008467385359586244,nan,nan,nan,nan
27.96680736541748,-0.21327634,-0.1997261,-5.363214,0.008359265226986014,nan,nan,nan,nan,nan,17.959635257720947,19.159635257720947,0.005441904067993164,-0.2495781154632568,-0.2598076211353316,0.0,-5.0,0.7249380588845886,-0.011389461774074018,-0.004009562710002751,-0.009737035459820487,nan,nan,nan,nan
28.060823678970337,-0.2143755,-0.19522671,-5.3663306,0.00854336463617099,nan,nan,nan,nan,nan,18.05366039276123,19.25366039276123,0.006999015808105469,-0.2552196235656738,-0.2598076211353316,0.0,-5.0,0.7243231082034975,-0.012594045576940613,-0.004056203782273222,-0.010715057079684058,nan,nan,nan,nan
28.16071915626526,-0.21013217,-0.18652736,-5.37274,0.00851966137315941,nan,nan,nan,nan,nan,18.15355086326599,19.35355086326599,0.006515979766845703,-0.2612130517959595,-0.2598076211353316,0.0,-5.0,0.723838539012032,-0.01430569363069027,0.0033602597584993974,-0.0106330775373825,nan,nan,nan,nan
28.269606828689575,-0.20360042,-0.18192966,-5.3751163,0.008181461858939585,nan,nan,nan,nan,nan,18.262428998947144,19.462428998947143,0.00541377067565918,-0.2677457399368286,-0.2598076211353316,0.0,-5.0,0.7243153380985177,-0.0068624927887566654,0.014428175846348727,-0.010522518741200125,nan,nan,nan,nan
28.36637020111084,-0.19906852,-0.17980653,-5.3760796,0.007726444409118986,nan,nan,nan,nan,nan,18.359243154525757,19.559243154525756,0.007376194000244141,-0.27355458927154536,-0.2598076211353316,0.0,-5.0,0.7255046292527405,0.00347250400948705,0.01780696613079603,-0.009975907668712041,nan,nan,nan,nan
28.462448596954346,-0.19612703,-0.17692167,-5.3765426,0.007208207636860994,nan,nan,nan,nan,nan,18.455320835113525,19.655320835113525,0.0070683956146240234,-0.2793192501068115,-0.2598076211353316,0.0,-5.0,0.7259149835268256,0.014173881731945613,0.01850170961414976,-0.009544109745617573,nan,nan,nan,nan
28.562230348587036,-0.19894652,-0.17398046,-5.3745,0.0068743321994927985,nan,nan,nan,nan,nan,18.555065870285034,19.755065870285033,0.00693202018737793,-0.285303952217102,-0.2598076211353316,0.0,-5.0,0.7265341090691537,0.017207120284906844,0.004591947310155707,-0.008835220939030629,nan,nan,nan,nan
28.660555839538574,-0.20478569,-0.17437054,-5.3778872,0.006092696766291845,nan,nan,nan,nan,nan,18.65340280532837,19.85340280532837,0.007817506790161133,-0.2912041683197021,-0.2598076211353316,0.0,-5.0,0.7267652527767221,0.019115994587882573,-0.015572471739863227,-0.008361482755103174,nan,nan,nan,nan
28.77579975128174,-0.20748946,-0.17516045,-5.384511,0.00580309495421563,nan,nan,nan,nan,nan,18.76865005493164,19.96865005493164,0.006378650665283203,-0.2981190032958984,-0.2598076211353316,0.0,-5.0,0.7255840553418635,0.023144807242840588,-0.0283431017751806,-0.007279648870603013,nan,nan,nan,nan
28.86845874786377,-0.20950392,-0.1794234,-5.3897796,0.005446335466540679,nan,nan,nan,nan,nan,18.86128306388855,20.06128306388855,0.005330801010131836,-0.2981615080833435,-0.25662325972637795,0.0,-5.0,0.7242870741104491,0.02241673325442639,-0.024080611208285477,-0.007003383720820107,nan,nan,nan,nan
28.963690996170044,-0.2109472,-0.1839099,-5.3902,0.004945872730252049,nan,nan,nan,nan,nan,18.956517934799194,20.156517934799194,0.007140636444091797,-0.29530446195602417,-0.2516747106742929,0.0,-5.0,0.7242157820666716,0.028113700524077676,-0.018199137407503552,-0.006452620348708257,nan,nan,nan,nan
29.07702350616455,-0.21631841,-0.18606539,-5.38841,0.004586931319124214,nan,nan,nan,nan,nan,19.069939851760864,20.269939851760864,0.00611114501953125,-0.29190180444717406,-0.24578113498820883,0.0,-5.0,0.7253506521155471,0.025512049788940408,-0.014113627033960517,-0.005825165170295254,nan,nan,nan,nan
29.170862674713135,-0.21913329,-0.18559343,-5.38129,0.004269590429701419,nan,nan,nan,nan,nan,19.163695812225342,20.36369581222534,0.00513911247253418,-0.28908912563323974,-0.240909432377102,0.0,-5.0,0.7280440933762322,0.009430163826541778,-0.008364938837546096,-0.005595941293462819,nan,nan,nan,nan
29.269399404525757,-0.21947916,-0.18255372,-5.3770347,0.004206360928266394,nan,nan,nan,nan,nan,19.262221813201904,20.462221813201904,0.0055408477783203125,-0.2861333456039429,-0.23578987119036238,0.0,-5.0,0.7297622041896807,-0.0004827264348041164,-0.005310061063950986,-0.005156391946255514,nan,nan,nan,nan
29.36477565765381,-0.2156049,-0.17552733,-5.3721952,0.004495056897076896,nan,nan,nan,nan,nan,19.357611894607544,20.557611894607543,0.005630016326904297,-0.28327164316177367,-0.2308332571643814,0.0,-5.0,0.7310643082005032,-0.025091094404072204,0.0055066060841742395,-0.005313076380798332,nan,nan,nan,nan
29.476802110671997,-0.20311508,-0.16428038,-5.3705487,0.0055881264976693195,nan,nan,nan,nan,nan,19.469637155532837,20.669637155532836,0.005503654479980469,-0.2799108853340149,-0.22501225385476836,0.0,-5.0,0.7306860902506284,-0.03885468859827689,0.026176599353871694,-0.00648594754158606,nan,nan,nan,nan
29.55424976348877,-0.1934644,-0.15519372,-5.3687096,0.006406558292562684,nan,nan,nan,nan,nan,19.547064065933228,20.747064065933227,0.006394386291503906,-0.2775880780220032,-0.22098903357417157,0.0,-5.0,0.7298179313491081,-0.04575295878001021,0.04152062239562217,-0.007781527812347677,nan,nan,nan,nan
29.673812866210938,-0.18297154,-0.14015643,-5.365058,0.007052888503305699,nan,nan,nan,nan,nan,19.666733980178833,20.866733980178832,0.005099058151245117,-0.27399798059463504,-0.2147708024258476,0.0,-5.0,0.7300781915966855,-0.04559465520345116,0.04357066934946531,-0.008658039900432473,nan,nan,nan,nan
29.766724348068237,-0.17641777,-0.13049637,-5.3643413,0.007191727024885861,nan,nan,nan,nan,nan,19.759561777114868,20.959561777114867,0.005547285079956055,-0.27121314668655394,-0.20994732860641063,0.0,-5.0,0.7305047825257132,-0.0390597397231451,0.035737024972348326,-0.009472302908750388,nan,nan,nan,nan
