time,x,y,z,yaw,platform,trajectory,traj_double,traj_short,traj_spin,traj_time,ref_time,comptime,x_ref,y_ref,yaw_ref,z_ref,throttle_input,p_input,q_input,r_input,cbf_term_pitch_cbf,cbf_term_roll_cbf,cbf_term_thrust_cbf,cbf_term_yaw_cbf
10.06291937828064,-0.01728057,0.01996814,-2.859339,0.000588758737975266,SIM,CIRCLE_HORIZONTAL,DblSpd,Not Short,Spin,0.06029844284057617,1.2602984428405761,0.0064296722412109375,0.20716767109277948,0.5630999520990869,0.395934432935861,-5.0,0.8785971096381059,0.43894812487786466,0.35193376544403526,0.6260122348821079,nan,nan,nan,nan
10.175097465515137,-0.00794765,0.014064538,-2.8816757,0.003044208034241623,nan,nan,nan,nan,nan,0.17275166511535645,1.3727516651153564,0.0065572261810302734,0.1448551700004533,0.5822516463902354,0.43126265463295593,-5.0,0.8785971096381059,0.45759912542126285,0.37844531296394573,0.7562859926805473,nan,nan,nan,nan
10.259328126907349,0.0048592645,0.0046581803,-2.8989224,0.008976049074055421,nan,nan,nan,nan,nan,0.2566955089569092,1.4566955089569091,0.00682830810546875,0.09718426210131102,0.5920770382305192,0.457634390945627,-5.0,0.8785971096381058,0.37345493699392124,0.48226071730084424,0.7999999999988918,nan,nan,nan,nan
10.370158195495605,0.012389287,-0.00447799,-2.9124415,0.014606133253242113,nan,nan,nan,nan,nan,0.36760854721069336,1.5676085472106933,0.006707191467285156,0.03326918681850012,0.599076924283047,0.49247874956216825,-5.0,0.8785971096381059,0.310783407119013,0.5137968760273129,0.7999999999999572,nan,nan,nan,nan
10.465906620025635,0.017925281,-0.013533946,-2.9245448,0.021549760877024926,nan,nan,nan,nan,nan,0.46343016624450684,1.6634301662445068,0.006754398345947266,-0.022283845222289895,0.5995860490722821,0.5225819990033391,-5.0,0.8785971096381059,0.2773255565560576,0.5453381109746819,0.7999999999999198,nan,nan,nan,nan
10.572643518447876,0.020261597,-0.02781117,-2.937327,0.034985730448881563,nan,nan,nan,nan,nan,0.5700149536132812,1.7700149536132812,0.008281469345092773,-0.08383151520933639,0.5941147002538372,0.5560665975015563,-5.0,0.8785971096381059,0.23684849191546756,0.5500533944399939,0.7999999999999999,nan,nan,nan,nan
10.658189535140991,0.0144418515,-0.036324862,-2.9477894,0.04619256574182706,nan,nan,nan,nan,nan,0.6556081771850586,1.8556081771850585,0.007666587829589844,-0.13264463687322103,0.5851541679837642,0.5829565017385727,-5.0,0.8785971096381059,0.19377956278664876,0.5453599185061042,0.7999999999999999,nan,nan,nan,nan
10.75889778137207,0.008666072,-0.04009171,-2.9684298,0.06695262659382734,nan,nan,nan,nan,nan,0.7562761306762695,1.9562761306762695,0.0065729618072509766,-0.18886867563510912,0.5694985718716421,0.6145822720525634,-5.0,0.8785971096381059,0.11880265607771458,0.4838949175388665,0.7999999999999999,nan,nan,nan,nan
10.860868692398071,-0.009264613,-0.03960271,-3.0458515,0.31197394410624324,nan,nan,nan,nan,nan,0.8582630157470703,2.0582630157470705,0.007221221923828125,-0.24400472793881314,0.5481438613571311,0.6466223969426569,-5.0,0.8785971096381059,-0.1311806186017816,0.11900426020163922,0.7999999999999993,nan,nan,nan,nan
10.962044477462769,-0.04265943,-0.033661667,-3.163032,0.37336350493755155,nan,nan,nan,nan,nan,0.95949387550354,2.15949387550354,0.006590366363525391,-0.2963900474569713,0.5216827961208366,0.6784250094754073,-5.0,0.8785971096381059,-0.22011359244746584,-0.20173451095084374,0.6418245898091294,nan,nan,nan,nan
11.066154956817627,-0.08143493,-0.025879506,-3.2865868,0.4232434215482917,nan,nan,nan,nan,nan,1.063516616821289,2.2635166168212892,0.005556583404541016,-0.3472613153035735,0.4892949814719461,0.7111047174684185,-5.0,0.8785971096380905,-0.3505356566261964,-0.270018001039312,0.5856675929519074,nan,nan,nan,nan
11.167757987976074,-0.14026952,-0.0125398915,-3.465866,0.48024171334349736,nan,nan,nan,nan,nan,1.1654915809631348,2.365491580963135,0.006358146667480469,-0.3937289951832496,0.45274438522414456,0.743141097288229,-5.0,0.8785971096335881,-0.4220571650178593,-0.2579649210355794,0.54894152605528,nan,nan,nan,nan
11.26891541481018,-0.23408952,0.0061108633,-3.7556117,0.5442731030979686,nan,nan,nan,nan,nan,1.2664592266082764,2.4664592266082765,0.007552623748779297,-0.435972831252304,0.41222286497700494,0.7748610186691325,-5.0,0.8261086340943535,-0.3992387285136166,-0.19645263404915606,0.5203931195239232,nan,nan,nan,nan
11.367051601409912,-0.29076618,0.015202775,-3.9435053,0.5743202819404816,nan,nan,nan,nan,nan,1.3644392490386963,2.5644392490386965,0.005463361740112305,-0.47300290523081084,0.3691452988231227,0.8056423505357295,-5.0,0.7283740826185029,-0.3443321025659877,-0.15214598737535787,0.5048175255462118,nan,nan,nan,nan
11.463535070419312,-0.3825386,0.025772972,-4.2698655,0.6166936629323824,nan,nan,nan,nan,nan,1.4609019756317139,2.660901975631714,0.006376981735229492,-0.5053192317154946,0.3235003463034656,0.835947009856716,-5.0,0.6381235033909988,-0.26504252739809536,-0.12102966855957625,0.5169238285147384,nan,nan,nan,nan
11.562713861465454,-0.43090177,0.028279867,-4.454646,0.6418838535679794,nan,nan,nan,nan,nan,1.5600929260253906,2.760092926025391,0.006174564361572266,-0.5339686654101009,0.27363746885277923,0.8671087659626524,-5.0,0.5952202502611053,-0.22700382011266826,-0.10691064326533034,0.5056498421421745,nan,nan,nan,nan
11.664361715316772,-0.4988232,0.023555882,-4.733949,0.6885344355890541,nan,nan,nan,nan,nan,1.6617333889007568,2.861733388900757,0.005576133728027344,-0.55823519927514,0.21993967875361795,0.899040059110324,-5.0,0.5536129126271307,-0.08141695543324746,-0.08540787681031885,0.5061291819319955,nan,nan,nan,nan
11.759594202041626,-0.5353133,0.013443381,-4.8887005,0.7234493778227612,nan,nan,nan,nan,nan,1.7569580078125,2.9569580078125,0.006506443023681641,-0.5760884320204561,0.16769650709604036,0.928955755431726,-5.0,0.5501799231691142,-0.03143228199734659,-0.08090036975429217,0.48160061436584917,nan,nan,nan,nan
11.854751825332642,-0.57452613,-0.013069589,-5.0594535,0.7739881968824223,nan,nan,nan,nan,nan,1.852130651473999,3.052130651473999,0.006643056869506836,-0.5890582470106914,0.11406305987782024,0.9588551232466945,-5.0,0.5625543349729372,0.10303691494406667,-0.0784547410878566,0.45680169759359224,nan,nan,nan,nan
11.955641746520996,-0.5953373,-0.04606861,-5.1575866,0.8144350294456,nan,nan,nan,nan,nan,1.953014850616455,3.1530148506164553,0.006301164627075195,-0.5973652061230476,0.056167699913463286,0.9905488291356175,-5.0,0.5822373232308873,0.15309565223555624,-0.09239568594668118,0.43638980508146646,nan,nan,nan,nan
12.071486711502075,-0.6156308,-0.09670463,-5.245848,0.8612508730179703,nan,nan,nan,nan,nan,2.0693557262420654,3.2693557262420656,0.00919651985168457,-0.5998949827719525,-0.011225401776272004,1.0270983931533797,-5.0,0.6108591300913974,0.2143447663268785,-0.11815139838066616,0.4166257427667796,nan,nan,nan,nan
12.156176090240479,-0.62457025,-0.13805555,-5.284802,0.8927102014274348,nan,nan,nan,nan,nan,2.1535885334014893,3.3535885334014894,0.006014585494995117,-0.5969945137901697,-0.059979584063570304,1.0535609099697087,-5.0,0.6316054471009173,0.2300274827753787,-0.13510608317219822,0.4061111854501946,nan,nan,nan,nan
12.270554542541504,-0.6351849,-0.21390554,-5.3216248,0.9342690546014152,nan,nan,nan,nan,nan,2.2679619789123535,3.4679619789123537,0.005576610565185547,-0.586731903983971,-0.12548176300699737,1.0894923875879772,-5.0,0.6616343780306018,0.21750236176063076,-0.15522521221134886,0.3967801149440228,nan,nan,nan,nan
12.361167907714844,-0.63825953,-0.2674396,-5.3330836,0.9551491646307912,nan,nan,nan,nan,nan,2.358553409576416,3.558553409576416,0.008749723434448242,-0.5735093249311286,-0.176315212664821,1.1179525248932178,-5.0,0.6799421315399191,0.17811250470960754,-0.1739679581262677,0.4026624296792458,nan,nan,nan,nan
12.45890760421753,-0.63566947,-0.34924397,-5.3375645,0.9815208238859464,nan,nan,nan,nan,nan,2.456371545791626,3.656371545791626,0.0073833465576171875,-0.5543007384511307,-0.22967518662783565,1.1486829987053728,-5.0,0.6995304488952898,0.14250537770742916,-0.17682617677583512,0.415088361214431,nan,nan,nan,nan
12.57263970375061,-0.62571365,-0.43426317,-5.33053,1.0031454141331144,nan,nan,nan,nan,nan,2.570004940032959,3.770004940032959,0.006276607513427734,-0.5257826277230057,-0.28905471520923376,1.1843819823604773,-5.0,0.7149483799709682,0.10423620621682694,-0.1661173409245364,0.4333661894314406,nan,nan,nan,nan
12.66603398323059,-0.6202443,-0.49155697,-5.315513,1.0153234238155653,nan,nan,nan,nan,nan,2.6634106636047363,3.8634106636047365,0.005578756332397461,-0.49757759043206534,-0.33528576095596396,1.2137262558581108,-5.0,0.7236712422615685,0.06975639186569875,-0.16653206081103877,0.4414868871673759,nan,nan,nan,nan
12.761227130889893,-0.59685504,-0.57970613,-5.2907743,1.0420285962093492,nan,nan,nan,nan,nan,2.7585949897766113,3.9585949897766115,0.00646519660949707,-0.4646669841162843,-0.37958476506872174,1.2436292938419564,-5.0,0.7358782120612751,0.08033711097141569,-0.11650272594771324,0.4566398616231174,nan,nan,nan,nan
12.857753276824951,-0.57489616,-0.62714285,-5.277628,1.0630925517302918,nan,nan,nan,nan,nan,2.8554375171661377,4.055437517166138,0.008009910583496094,-0.42715057036487186,-0.42135779361127834,1.2740532711021568,-5.0,0.7414399019218204,0.07006966916129317,-0.08892959715551249,0.457845698334278,nan,nan,nan,nan
12.956947565078735,-0.53880614,-0.68852025,-5.2639,1.096423904252061,nan,nan,nan,nan,nan,2.9544146060943604,4.1544146060943605,0.007823944091796875,-0.38494484821503566,-0.46023631303136336,1.3051478406472177,-5.0,0.7436711329236552,0.09279438569294132,-0.02009070807867087,0.4527926438267116,nan,nan,nan,nan
13.060691118240356,-0.48235664,-0.74794567,-5.2468143,1.1381414862134684,nan,nan,nan,nan,nan,3.058135747909546,4.258135747909546,0.007010459899902344,-0.33694499767923025,-0.4964555050948106,1.3377327983620708,-5.0,0.7438545853609535,0.11401666988273572,0.03211464957866851,0.44165483552083995,nan,nan,nan,nan
13.161763668060303,-0.43894073,-0.7742719,-5.240154,1.1686683072192232,nan,nan,nan,nan,nan,3.159130334854126,4.359130334854126,0.006527423858642578,-0.28695068045659416,-0.526933873446657,1.3694611836018138,-5.0,0.7430333950855886,0.1150380262728211,0.05082149748327692,0.43214542097903236,nan,nan,nan,nan
13.255402565002441,-0.3725389,-0.8015423,-5.2353086,1.214028409104312,nan,nan,nan,nan,nan,3.2528505325317383,4.4528505325317385,0.005753278732299805,-0.23810213744646863,-0.5507334855839283,1.3989042520535107,-5.0,0.7394270019764385,0.12141271511447532,0.08920943508601638,0.4163736175857757,nan,nan,nan,nan
13.36628007888794,-0.30020878,-0.81762695,-5.2325087,1.2606790968941692,nan,nan,nan,nan,nan,3.363635540008545,4.563635540008545,0.005600929260253906,-0.17787294794789849,-0.5730281095970111,1.4337083886152133,-5.0,0.7352690022757759,0.11816685983425594,0.11019393709709298,0.3894240368855797,nan,nan,nan,nan
13.46337890625,-0.24977055,-0.82030535,-5.231062,1.2914056376855887,nan,nan,nan,nan,nan,3.4607412815093994,4.6607412815094,0.011271476745605469,-0.12338061931282797,-0.5871773350343004,1.4642150570272607,-5.0,0.7344675512122045,0.09731088072420903,0.09153740380963796,0.3868743952016216,nan,nan,nan,nan
13.552902221679688,-0.18966573,-0.82021827,-5.233535,1.3324457268160128,nan,nan,nan,nan,nan,3.550327777862549,4.750327777862549,0.005923032760620117,-0.07213328393634626,-0.5956482093891985,1.4923594849076511,-5.0,0.7323414593297138,0.0854705034090972,0.08609503982776724,0.37118250464351876,nan,nan,nan,nan
13.672395944595337,-0.12395181,-0.8075377,-5.239823,1.3838689239344224,nan,nan,nan,nan,nan,3.669830799102783,4.869830799102783,0.006453514099121094,-0.0029980534128461367,-0.5999925096830241,1.5299024662686616,-5.0,0.7287617896040026,0.05061272589943137,0.06840467734469312,0.34985358700698044,nan,nan,nan,nan
13.771866798400879,-0.073009744,-0.79149354,-5.2457657,1.423326810996187,nan,nan,nan,nan,nan,3.7692713737487793,4.9692713737487795,0.005680084228515625,0.05460046740081622,-0.5975104927610998,1.5611426441463225,-5.0,0.7258196399830292,0.018107134180181395,0.06726118197907616,0.3236215422944014,nan,nan,nan,nan
13.864331483840942,-0.013145681,-0.76707417,-5.2532125,1.466007309350315,nan,nan,nan,nan,nan,3.8617517948150635,5.061751794815064,0.005843162536621094,0.10772615377643911,-0.5902500112600888,1.5901962252885953,-5.0,0.7240694704704851,0.010045260058129094,0.054586657622182656,0.3053936146310919,nan,nan,nan,nan
13.962077379226685,0.01983745,-0.749494,-5.257623,1.4887864840682252,nan,nan,nan,nan,nan,3.9595067501068115,5.159506750106812,0.007449150085449219,0.16293781294194482,-0.5774523955389705,1.6209068502282509,-5.0,0.7234142510548819,0.007367453486693163,0.030527488368286015,0.306299215079799,nan,nan,nan,nan
14.060792207717896,0.078324586,-0.71219593,-5.2668157,1.532233407571073,nan,nan,nan,nan,nan,4.0582499504089355,5.258249950408936,0.00632929801940918,0.2172300397387356,-0.5592951902485014,1.6519279414943606,-5.0,0.7222571092274205,0.01870300041705788,0.03113645276384663,0.2880191684632486,nan,nan,nan,nan
14.170533418655396,0.119036525,-0.6737163,-5.2694883,1.5681522581142264,nan,nan,nan,nan,nan,4.168012857437134,5.368012857437134,0.006058931350708008,0.27523930686319414,-0.5331447495356851,1.6864109757300054,-5.0,0.7222699240319974,0.021723022110530586,0.012463546913016736,0.29344953945860863,nan,nan,nan,nan
14.270424604415894,0.1648936,-0.6213345,-5.2745132,1.6136551789214928,nan,nan,nan,nan,nan,4.267833232879639,5.467833232879639,0.005181789398193359,0.3253227476319182,-0.5041479047593268,1.7177704715468802,-5.0,0.7232386510814196,0.019016947990699598,0.04619390397663127,0.26741785818606995,nan,nan,nan,nan
14.364626407623291,0.19244692,-0.58799154,-5.278955,1.6399894620342574,nan,nan,nan,nan,nan,4.3620100021362305,5.562010002136231,0.005637407302856445,0.3698075707782524,-0.4724853019884193,1.747356976190413,-5.0,0.7228206510034391,0.017662300767110863,0.03654531428464375,0.26442217953517766,nan,nan,nan,nan
14.464295864105225,0.2325213,-0.53537595,-5.284151,1.678810084105574,nan,nan,nan,nan,nan,4.4616687297821045,5.661668729782105,0.006700038909912109,0.4135391947893851,-0.43472443498490737,1.7786656888542516,-5.0,0.722609493281988,0.025176049607263513,0.03087758371436735,0.253091437666035,nan,nan,nan,nan
14.563943862915039,0.25768316,-0.5001472,-5.287705,1.7054840922728478,nan,nan,nan,nan,nan,4.561333656311035,5.761333656311035,0.006389141082763672,0.45343835769003915,-0.39292958119154137,1.809976348954637,-5.0,0.7228551979872302,0.03622441018844849,0.008167898895889468,0.25675170021256216,nan,nan,nan,nan
14.658590316772461,0.28970787,-0.44451663,-5.2909336,1.7447871051881418,nan,nan,nan,nan,nan,4.656010627746582,5.856010627746582,0.005882978439331055,0.487451059523341,-0.349844915026033,1.8397199967472415,-5.0,0.7230276100114723,0.037713165978736654,0.011909912459777027,0.2427662436802641,nan,nan,nan,nan
14.77107286453247,0.30705747,-0.39923728,-5.289906,1.77555664105344,nan,nan,nan,nan,nan,4.768474340438843,5.968474340438843,0.005310773849487305,0.522531052257374,-0.29489201316210906,1.8750515141061854,-5.0,0.7238806853378982,0.036640702250065375,-0.0015000191493610851,0.24509941099919016,nan,nan,nan,nan
14.866883516311646,0.31864792,-0.35118467,-5.285173,1.807364579237531,nan,nan,nan,nan,nan,4.864252328872681,6.064252328872681,0.005865573883056641,0.5475562359970934,-0.24532054219061117,1.9051410565901208,-5.0,0.7259735932123809,0.012692233392288706,-0.0014944916596132528,0.2394346700119851,nan,nan,nan,nan
14.961708784103394,0.3237935,-0.31913424,-5.279411,1.8308884585727874,nan,nan,nan,nan,nan,4.959104776382446,6.1591047763824465,0.008429527282714844,0.5677178329293009,-0.1941557678104319,1.93493983181729,-5.0,0.7279799085637823,0.0036724934396736627,-0.018699389500547847,0.24502085258384979,nan,nan,nan,nan
15.064356327056885,0.32899117,-0.27248925,-5.277245,1.865271313193337,nan,nan,nan,nan,nan,5.061790466308594,6.261790466308594,0.006424903869628906,0.5841637336132612,-0.1369406160750518,1.9671994927273684,-5.0,0.7290032903439017,-0.008135356891758542,-0.01297771001689039,0.23763454637455325,nan,nan,nan,nan
15.163309812545776,0.32891244,-0.24179624,-5.2799616,1.8882071087899335,nan,nan,nan,nan,nan,5.160697937011719,6.360697937011719,0.005701303482055664,0.5945685841834534,-0.08054935569005954,1.998272191061977,-5.0,0.7287810236515642,0.005096616194682579,-0.023581346523560472,0.24840982583321455,nan,nan,nan,nan
15.259835004806519,0.32209393,-0.19873907,-5.28543,1.9207833186644754,nan,nan,nan,nan,nan,5.257272481918335,6.457272481918335,0.0066792964935302734,0.5994883088888259,-0.024774331587667557,2.0286119791422172,-5.0,0.7262827811412005,0.002539814764004103,-0.0015442046006260528,0.2402689614301317,nan,nan,nan,nan
15.361331462860107,0.31351364,-0.16657001,-5.2885365,1.9440921273092138,nan,nan,nan,nan,nan,5.358760833740234,6.5587608337402346,0.007436037063598633,0.5990323609003968,0.034062157801536395,2.0604954851930786,-5.0,0.7258796799273508,0.010146023780253192,-0.012010446204064355,0.2526825915127784,nan,nan,nan,nan
15.454775333404541,0.2881634,-0.12768593,-5.287912,1.977021739785993,nan,nan,nan,nan,nan,5.452205419540405,6.6522054195404055,0.006082773208618164,0.5935176728260368,0.08795892247615039,2.0898519676198344,-5.0,0.7258001875395854,-0.008029133215745306,0.020747211634120043,0.24112083126023123,nan,nan,nan,nan
15.572845697402954,0.2597015,-0.087778606,-5.282963,2.008371349490955,nan,nan,nan,nan,nan,5.570333957672119,6.770333957672119,0.006888151168823242,0.5796303902817611,0.15501164685859348,2.1269631423772237,-5.0,0.7274166371076035,-0.008335919431643286,0.03291073452378962,0.24857469776815203,nan,nan,nan,nan
15.668281555175781,0.21663837,-0.04524291,-5.2814803,2.0428846236649494,nan,nan,nan,nan,nan,5.665642261505127,6.865642261505127,0.005745887756347656,0.5629113363459785,0.2076796268611457,2.1569051290920123,-5.0,0.7280649672137498,-0.025915617676622597,0.05980833376722059,0.23764416804377733,nan,nan,nan,nan
15.764492988586426,0.18799578,-0.01595121,-5.2827682,2.0647669831913085,nan,nan,nan,nan,nan,5.7618794441223145,6.961879444122315,0.0059947967529296875,0.5411853876428687,0.259072144781792,2.1871389316832457,-5.0,0.7276419803789903,-0.015607301676334073,0.06291442281153482,0.2502836800293296,nan,nan,nan,nan
15.862022161483765,0.14244416,0.035196215,-5.2886415,2.1010203820446303,nan,nan,nan,nan,nan,5.859473466873169,7.059473466873169,0.0063915252685546875,0.5143746725176679,0.30889916845524507,2.2177989981740818,-5.0,0.7255041078485199,-0.014076098001988138,0.08783710071182699,0.23642007814638308,nan,nan,nan,nan
15.963419914245605,0.11102766,0.06935404,-5.296204,2.1255476018237456,nan,nan,nan,nan,nan,5.960787057876587,7.160787057876587,0.012190580368041992,0.4817064867912292,0.35771337769679695,2.2496276014945953,-5.0,0.7241928432118433,0.022903889142491606,0.08056139062160914,0.251553452920541,nan,nan,nan,nan
16.06342387199402,0.061840225,0.12317781,-5.3067613,2.163564945749561,nan,nan,nan,nan,nan,6.060797929763794,7.260797929763794,0.01103067398071289,0.44492915394592597,0.4025394986444964,2.2810469435345913,-5.0,0.7218950683229983,0.04084088356976868,0.0830284412604289,0.24272652405776482,nan,nan,nan,nan
16.15654730796814,0.027085647,0.15465851,-5.306217,2.187142188515616,nan,nan,nan,nan,nan,6.154358386993408,7.354358386993408,0.005917549133300781,0.4067548621326147,0.44107877089186415,2.310439828044497,-5.0,0.7215725318515681,0.06422280483482122,0.07455147781720277,0.24887097546349812,nan,nan,nan,nan
16.27062678337097,-0.025233636,0.19418211,-5.297872,2.2206023449389436,nan,nan,nan,nan,nan,6.2679948806762695,7.46799488067627,0.005273342132568359,0.3559499745398102,0.4830109891349352,2.346139785417875,-5.0,0.7254781747401657,0.04754116049908889,0.06925446802241561,0.24886199189012242,nan,nan,nan,nan
16.361828804016113,-0.059107404,0.21669129,-5.2904487,2.242649324063521,nan,nan,nan,nan,nan,6.359232425689697,7.559232425689697,0.0067234039306640625,0.31202296997783746,0.5124857717109905,2.3748029055324507,-5.0,0.7283568587527269,0.03748938701368623,0.05840967930294631,0.2538374083042818,nan,nan,nan,nan
16.45652413368225,-0.11738877,0.2477868,-5.271057,2.2793765763852467,nan,nan,nan,nan,nan,6.454297065734863,7.6542970657348635,0.006719827651977539,0.2636785292641141,0.5389560586959884,2.4046683430106555,-5.0,0.7328885642775814,-0.0020151622091795452,0.04862220548477791,0.2459790591821144,nan,nan,nan,nan
16.56430172920227,-0.16183439,0.2686329,-5.2569714,2.307995915553046,nan,nan,nan,nan,nan,6.561688423156738,7.7616884231567385,0.007935285568237305,0.2064108942235925,0.5633777975265061,2.4384063329642154,-5.0,0.7359265757335894,-0.002326241103241513,0.038699657683720294,0.2505273476863577,nan,nan,nan,nan
16.659370183944702,-0.19778466,0.28164646,-5.2465816,2.33097373117653,nan,nan,nan,nan,nan,6.656895160675049,7.856895160675049,0.006352901458740234,0.15376232147674776,0.5799630578701381,2.4683164116801932,-5.0,0.7373787100724701,0.01209002032721006,0.03240059854161926,0.25820079366444115,nan,nan,nan,nan
16.75783061981201,-0.2519765,0.29188251,-5.2362084,2.364823502565309,nan,nan,nan,nan,nan,6.755233526229858,7.955233526229859,0.005649566650390625,0.09802089791904606,0.5919391046139323,2.4992103203594946,-5.0,0.7380971884371142,-0.014557381160142975,0.021420668678470773,0.24994981347481124,nan,nan,nan,nan
16.872270345687866,-0.30321395,0.2940851,-5.238603,2.395587823967402,nan,nan,nan,nan,nan,6.869753837585449,8.069753837585449,0.005342721939086914,0.03202679128142483,0.5991446274817258,2.5351879372436485,-5.0,0.7346536054595022,-0.025159878600496535,0.020605930299493463,0.25381839371688375,nan,nan,nan,nan
16.965031385421753,-0.33796582,0.28888226,-5.242553,2.4153895044047475,nan,nan,nan,nan,nan,6.962449789047241,8.16244978904724,0.008305788040161133,-0.021715622213521857,0.5996068976853748,2.5643092292566365,-5.0,0.7318296466548605,-0.02429785623962581,0.024944059860186378,0.26215961304726915,nan,nan,nan,nan
17.06287908554077,-0.39303535,0.27576527,-5.2467217,2.447963191368168,nan,nan,nan,nan,nan,7.060380935668945,8.260380935668945,0.007119178771972656,-0.0782951690872027,0.5948696214277599,2.595075206335074,-5.0,0.7288142939427446,-0.05007523532842659,0.025483746308382543,0.25748102615490426,nan,nan,nan,nan
17.162015199661255,-0.4302843,0.26460007,-5.2511983,2.469128467604146,nan,nan,nan,nan,nan,7.159449815750122,8.359449815750121,0.00648808479309082,-0.13481668522270457,0.5846575590767318,2.6261986129213133,-5.0,0.7283229287976857,-0.03761298676387248,0.03271162837101752,0.2688161174824937,nan,nan,nan,nan
17.272109270095825,-0.48618242,0.24263026,-5.2600036,2.497707680534261,nan,nan,nan,nan,nan,7.269578218460083,8.469578218460082,0.005502462387084961,-0.19617569062172618,0.5670230140030375,2.660796471011832,-5.0,0.7259723306727228,-0.04620039774827059,0.052051806613120935,0.2730478050913333,nan,nan,nan,nan
17.368026733398438,-0.5309438,0.21576813,-5.2637954,2.520234891855341,nan,nan,nan,nan,nan,7.365392208099365,8.565392208099365,0.006012678146362305,-0.2477763772793985,0.5464493268934432,2.690897323608022,-5.0,0.7253133617055746,-0.07236608471885672,0.05784491524379894,0.2750367547347437,nan,nan,nan,nan
17.4676251411438,-0.5906964,0.17802538,-5.2646723,2.550998108139054,nan,nan,nan,nan,nan,7.4649903774261475,8.664990377426147,0.006285667419433594,-0.2991576351039641,0.5201006723308512,2.722187011314823,-5.0,0.7262409175868707,-0.0850600202381344,0.059442669996508365,0.277767833114951,nan,nan,nan,nan
17.570297956466675,-0.63305825,0.14723435,-5.2588425,2.5714721272803054,nan,nan,nan,nan,nan,7.567664623260498,8.767664623260497,0.0056743621826171875,-0.34922041776830026,0.48789865731905213,2.75444307695743,-5.0,0.7289998629065046,-0.08653634839908579,0.06198478188838433,0.2816197121838301,nan,nan,nan,nan
17.653559684753418,-0.67712694,0.11248021,-5.2495146,2.594003287294991,nan,nan,nan,nan,nan,7.65091609954834,8.85091609954834,0.00535893440246582,-0.38731127610476507,0.4582466316320267,2.780597299588069,-5.0,0.731525991490716,-0.0762047900271201,0.0719716071267531,0.2899058585446703,nan,nan,nan,nan
17.772228002548218,-0.7440383,0.051218722,-5.2341638,2.630747510073431,nan,nan,nan,nan,nan,7.76964545249939,8.969645452499389,0.0059015750885009766,-0.43724038549502303,0.41087813922398403,2.8178972258877177,-5.0,0.7363625682479844,-0.0723640174939561,0.0645774142141132,0.2916150651794817,nan,nan,nan,nan
17.870372533798218,-0.7715924,0.019795965,-5.2317967,2.6470726758604313,nan,nan,nan,nan,nan,7.8677332401275635,9.067733240127563,0.005566120147705078,-0.47417590704301366,0.36763733376785235,2.848712413189672,-5.0,0.7370161171321366,-0.070227004694969,0.0650386740122089,0.29850990764667834,nan,nan,nan,nan
17.967334032058716,-0.811889,-0.0450448,-5.2276006,2.6786524778147847,nan,nan,nan,nan,nan,7.964710474014282,9.164710474014282,0.007602691650390625,-0.506506758829229,0.32163784488195596,2.8791787097440698,-5.0,0.7360581564245903,-0.08300527387847653,0.030201899080950268,0.2986893131900308,nan,nan,nan,nan
18.066142320632935,-0.8283555,-0.090566136,-5.2233815,2.700201792826046,nan,nan,nan,nan,nan,8.063528299331665,9.263528299331664,0.006013631820678711,-0.5348744100999622,0.2718627694632302,2.9102232451501506,-5.0,0.735918134794059,-0.06901578597408986,0.017534003364839956,0.30441543048574743,nan,nan,nan,nan
18.167339086532593,-0.8380351,-0.1485907,-5.220386,2.728404968428082,nan,nan,nan,nan,nan,8.164707660675049,9.364707660675048,0.006108283996582031,-0.5588652313604775,0.21833381134492194,2.9420096789792787,-5.0,0.7356825814656861,-0.05608711389192217,-0.020343674446053884,0.30533461256474426,nan,nan,nan,nan
18.265254974365234,-0.8375345,-0.19682966,-5.221376,2.7517855597325256,nan,nan,nan,nan,nan,8.26265811920166,9.46265811920166,0.006814479827880859,-0.5770036864285267,0.16451974303374756,2.972781723071574,-5.0,0.7334951010470362,-0.044647306704895126,-0.05428150466300097,0.30364068690842394,nan,nan,nan,nan
18.357354879379272,-0.8280603,-0.2597564,-5.2128677,2.7822461437824915,nan,nan,nan,nan,nan,8.354755640029907,9.554755640029907,0.005220651626586914,-0.5893457772955691,0.1125680007101546,3.0017150125563594,-5.0,0.7339722180168182,-0.035961911821933076,-0.07632278222732448,0.30051359032342095,nan,nan,nan,nan
18.458269357681274,-0.82119966,-0.3003969,-5.2090073,2.803638097850018,nan,nan,nan,nan,nan,8.455829381942749,9.655829381942748,0.005520820617675781,-0.5975158077328101,0.054542272682824224,3.033468265062781,-5.0,0.7344725563049285,-0.01989096400380623,-0.05287093069160954,0.31464881847317977,nan,nan,nan,nan
18.563772916793823,-0.80921835,-0.35197625,-5.210424,2.8333226283090935,nan,nan,nan,nan,nan,8.561176538467407,9.761176538467407,0.007290363311767578,-0.5999649841487812,-0.006482113494280178,3.0665640503642253,-5.0,0.7333770810013152,-0.018430816760923948,-0.03823755402339268,0.312262372078328,nan,nan,nan,nan
18.65790057182312,-0.7942635,-0.39610708,-5.216405,2.861045481545415,nan,nan,nan,nan,nan,8.655333995819092,9.855333995819091,0.005189180374145508,-0.5968924640934947,-0.06098677158528737,3.0961444879938997,-5.0,0.7306102068128135,-0.018167234410079662,-0.005451926897617173,0.31701845038485676,nan,nan,nan,nan
18.769415616989136,-0.7668654,-0.44012192,-5.221659,2.8921401937985243,nan,nan,nan,nan,nan,8.766777992248535,9.966777992248534,0.00592803955078125,-0.5868751327422008,-0.12481017013378401,3.1311556520408423,-5.0,0.7281759288171928,-0.01609838492893427,-0.000222896998416942,0.31550063293406605,nan,nan,nan,nan
18.861377716064453,-0.7436311,-0.46862313,-5.2227626,2.912516453989321,nan,nan,nan,nan,nan,8.858826637268066,10.058826637268066,0.005648374557495117,-0.5734627376339142,-0.17646667828634524,3.1600735867374676,-5.0,0.7281486927419596,-0.014760107592362872,0.00771569090767239,0.3253529881851394,nan,nan,nan,nan
18.953869819641113,-0.6935336,-0.514727,-5.225907,2.947111009004556,nan,nan,nan,nan,nan,8.951244115829468,10.151244115829467,0.00590205192565918,-0.5554322871924587,-0.22692504124524032,3.189107393908647,-5.0,0.7277188623052905,-0.019085887047329532,-0.032969086913010946,0.31662233102909665,nan,nan,nan,nan
19.058300018310547,-0.65772617,-0.54548126,-5.227316,2.9702311439666618,nan,nan,nan,nan,nan,9.055790424346924,10.255790424346923,0.006006956100463867,-0.5297045903224324,-0.28180320614099474,3.221951585388484,-5.0,0.7276876045319047,-0.024128021097834705,-0.03801501594359066,0.3261088809763976,nan,nan,nan,nan
19.16384530067444,-0.60139334,-0.59073293,-5.2310023,3.004695656669416,nan,nan,nan,nan,nan,9.161305904388428,10.361305904388427,0.006390810012817383,-0.49825871665564914,-0.3342727199109516,3.255100251082323,-5.0,0.7277294049286943,-0.04524520622039511,-0.0610290820052748,0.31886411598564074,nan,nan,nan,nan
19.254849672317505,-0.55988085,-0.6197555,-5.2367916,3.0279125768715094,nan,nan,nan,nan,nan,9.25221586227417,10.45221586227417,0.005589962005615234,-0.46699878559081,-0.3767122698515522,3.2836604566655234,-5.0,0.726863968023446,-0.06222712470947739,-0.046495382048528,0.32606431079699333,nan,nan,nan,nan
19.370442867279053,-0.48098707,-0.662656,-5.24571,3.0658632910373766,nan,nan,nan,nan,nan,9.367799997329712,10.567799997329711,0.006243705749511719,-0.422084916401095,-0.4264320852687806,3.3199722836217256,-5.0,0.725146558914216,-0.07130970027546989,-0.062323018792274136,0.3228857798810291,nan,nan,nan,nan
19.463260412216187,-0.42587095,-0.69678104,-5.25415,3.091598535565251,nan,nan,nan,nan,nan,9.46064043045044,10.660640430450439,0.0067136287689208984,-0.38216812044014586,-0.4625446224087425,3.3491389658865427,-5.0,0.7242325900297328,-0.07782063501304785,-0.06321289972298638,0.3244859787632846,nan,nan,nan,nan
19.560566663742065,-0.37277827,-0.7234742,-5.2606435,3.1153136133178303,nan,nan,nan,nan,nan,9.557964086532593,10.757964086532592,0.005707263946533203,-0.3370273725936622,-0.4963995871499217,3.379714094183362,-5.0,0.7235955679646441,-0.08765409848500307,-0.050892712262147456,0.33021366533221375,nan,nan,nan,nan
19.656588315963745,-0.29523522,-0.75559753,-5.2648997,3.14903096969279,nan,nan,nan,nan,nan,9.65397047996521,10.85397047996521,0.00550079345703125,-0.289575310575939,-0.5254960889529516,3.409875392213918,-5.0,0.723755811279909,-0.06942222583422403,-0.07601368434788586,0.32249461877029223,nan,nan,nan,nan
19.769543170928955,-0.21064311,-0.7846329,-5.2621374,3.185227984456257,nan,nan,nan,nan,nan,9.766923427581787,10.966923427581786,0.006861686706542969,-0.23058844701293302,-0.5539214457882667,3.4453606072572733,-5.0,0.7271246414243342,-0.06724716133649632,-0.06056333272331208,0.32668962217202596,nan,nan,nan,nan
19.871524810791016,-0.15326999,-0.802301,-5.2644753,3.209098361056605,nan,nan,nan,nan,nan,9.86888575553894,11.06888575553894,0.005890369415283203,-0.17496250121170456,-0.5739234471336262,3.477393017302584,-5.0,0.7286178952991029,-0.06509282032343665,-0.04889867150016962,0.3282940446052513,nan,nan,nan,nan
19.96518611907959,-0.0699676,-0.81366324,-5.26601,3.2431332259577683,nan,nan,nan,nan,nan,9.962633609771729,11.162633609771728,0.006098508834838867,-0.12230634427628051,-0.587402041322442,3.5068447743173374,-5.0,0.7288464505362682,-0.0405460420373269,-0.05894364549946412,0.3252816146483474,nan,nan,nan,nan
20.063074827194214,-0.008797644,-0.8152175,-5.265625,3.2678714742354606,nan,nan,nan,nan,nan,10.06051516532898,11.260515165328979,0.00658869743347168,-0.06626419027224364,-0.5963296547108519,3.5375951719033973,-5.0,0.7295650652638044,-0.02810472834363709,-0.054339248093424185,0.32696375611371575,nan,nan,nan,nan
20.1658673286438,0.08185071,-0.80918884,-5.2652683,3.3056329025127003,nan,nan,nan,nan,nan,10.163252115249634,11.363252115249633,0.00695347785949707,-0.006813466187261447,-0.5999613126515034,3.5698709366156924,-5.0,0.7303071792177465,0.01047919382776205,-0.07945538944978557,0.3184600137371265,nan,nan,nan,nan
20.2610182762146,0.13317403,-0.80155814,-5.2667427,3.328357026728468,nan,nan,nan,nan,nan,10.258427858352661,11.45842785835266,0.00580906867980957,0.048334586473233486,-0.5980499709476303,3.5997712781489346,-5.0,0.7302992625714159,0.007295505448753381,-0.0687563053072114,0.3209515736893333,nan,nan,nan,nan
20.35504698753357,0.20301788,-0.78522205,-5.270379,3.3610940753885483,nan,nan,nan,nan,nan,10.352407455444336,11.552407455444335,0.005378007888793945,0.1023903107517349,-0.5911989718057391,3.6292958393299877,-5.0,0.7290978666318273,0.024102372311753998,-0.06785595878548738,0.3139182283867574,nan,nan,nan,nan
20.46954345703125,0.2829252,-0.7532969,-5.277181,3.398859854104241,nan,nan,nan,nan,nan,10.46694016456604,11.66694016456604,0.0068511962890625,0.16708283474263366,-0.5762667145813349,3.6652773510872363,-5.0,0.7278406001212729,0.025733115189301926,-0.05872023334192234,0.31418042707187693,nan,nan,nan,nan
20.568709135055542,0.333169,-0.7253531,-5.280551,3.4240387928757574,nan,nan,nan,nan,nan,10.566202878952026,11.766202878952026,0.006640195846557617,0.22152324383907313,-0.5576086911437218,3.696461652516276,-5.0,0.7267935588201635,0.029170851238532348,-0.05877152741823823,0.31352477160924747,nan,nan,nan,nan
20.663904905319214,0.39769995,-0.67936844,-5.282164,3.459159533827545,nan,nan,nan,nan,nan,10.66133975982666,11.86133975982666,0.006842374801635742,0.271794549472251,-0.5349090790752912,3.7263497851203953,-5.0,0.7269931741802241,0.04706201654162979,-0.062050691464870085,0.305660282759648,nan,nan,nan,nan
20.761935710906982,0.44091043,-0.64165264,-5.2826095,3.484186359583533,nan,nan,nan,nan,nan,10.759363412857056,11.959363412857055,0.005865335464477539,0.3211842802674845,-0.5067944929742804,3.7571448239442278,-5.0,0.727735471709869,0.03155690945087407,-0.053578441057186774,0.31189726154921,nan,nan,nan,nan
20.854416131973267,0.49507895,-0.5822354,-5.2869697,3.5188749200526743,nan,nan,nan,nan,nan,10.851778268814087,12.051778268814086,0.005682945251464844,0.3651164709389135,-0.4761196936161258,3.786177807199945,-5.0,0.7274556896889354,0.04866334294268542,-0.057326390177041386,0.30201077197209264,nan,nan,nan,nan
20.95541000366211,0.5293316,-0.53561956,-5.290799,3.5434988211784484,nan,nan,nan,nan,nan,10.952775239944458,12.152775239944457,0.005610942840576172,0.4097867040957176,-0.4382634563209312,3.817906941453744,-5.0,0.7270825627318419,0.03833078353607608,-0.05325828754043824,0.3062540299487941,nan,nan,nan,nan
21.072489500045776,0.57308865,-0.4644044,-5.297655,3.5800342715263382,nan,nan,nan,nan,nan,11.069887638092041,12.26988763809204,0.006592512130737305,0.45667181867235596,-0.3891668665630244,3.854698886420217,-5.0,0.7262916548368615,0.04296356239303594,-0.05149246155095207,0.3013463719213863,nan,nan,nan,nan
21.170511722564697,0.6069416,-0.3938893,-5.306163,3.6166013234593075,nan,nan,nan,nan,nan,11.167882919311523,12.367882919311523,0.005779743194580078,0.4914337894357466,-0.34422787597872173,3.8854850119767765,-5.0,0.7249524640916325,0.043611033269070926,-0.03847245213695866,0.2903488912531871,nan,nan,nan,nan
21.269381523132324,0.62534285,-0.3385699,-5.312301,3.6431911304762186,nan,nan,nan,nan,nan,11.266749382019043,12.466749382019042,0.0062296390533447266,0.522038617096365,-0.2957628818160163,3.9165448272696115,-5.0,0.7242421718573927,0.020403337376683702,-0.028349605342273564,0.2959583970233606,nan,nan,nan,nan
21.365104913711548,0.63932407,-0.2906657,-5.3126206,3.667152079532934,nan,nan,nan,nan,nan,11.36252760887146,12.56252760887146,0.006924152374267578,0.547146479245524,-0.24623308114310605,3.946634444654953,-5.0,0.7245105566913611,0.013801256020498361,-0.02116707891932927,0.2941661920682143,nan,nan,nan,nan
21.46021842956543,0.65692425,-0.2256176,-5.312714,3.7005767937360066,nan,nan,nan,nan,nan,11.457696676254272,12.657696676254272,0.007147312164306641,0.5674530356014688,-0.19492832628091336,3.9765326889488364,-5.0,0.7261925027264136,0.02238479888198046,-0.01837417562664773,0.28443089801695237,nan,nan,nan,nan
21.565800189971924,0.6679628,-0.17581218,-5.3115935,3.726587375372336,nan,nan,nan,nan,nan,11.563269138336182,12.763269138336181,0.00682830810546875,0.5843588727837445,-0.1361055024564086,4.009699256078627,-5.0,0.7273260536795627,-0.0018671192255960002,-0.02266257708088068,0.28811794505918736,nan,nan,nan,nan
21.66059684753418,0.67628807,-0.11367383,-5.3064656,3.7592669158661063,nan,nan,nan,nan,nan,11.658099174499512,12.858099174499511,0.005565166473388672,0.5943643621168739,-0.08204270257251137,4.039490990573665,-5.0,0.7290720265230701,0.0020820005375107795,-0.026560338255903135,0.27943298388231536,nan,nan,nan,nan
21.75946545600891,0.67574793,-0.07106155,-5.299002,3.783081428015125,nan,nan,nan,nan,nan,11.756860256195068,12.956860256195068,0.0053861141204833984,0.5994783893312755,-0.02501321100498035,4.070517699445199,-5.0,0.7312525731979481,-0.011056346314474155,-0.027955156265137164,0.2820945220115944,nan,nan,nan,nan
21.86320471763611,0.67500526,-0.016370172,-5.291615,3.813939613733395,nan,nan,nan,nan,nan,11.860843658447266,13.060843658447265,0.0067751407623291016,0.598962567797077,0.03526814962444059,4.103185048706276,-5.0,0.7333052192174323,-0.009927702775197288,-0.02792702997189848,0.28113458592600854,nan,nan,nan,nan
21.958483695983887,0.67180055,0.041406073,-5.282936,3.84688927930205,nan,nan,nan,nan,nan,11.955852031707764,13.155852031707763,0.005919456481933594,0.5932039330729683,0.09005050686565487,4.133032809452747,-5.0,0.7342692557787514,0.012808316808934841,-0.02806670667532692,0.2696101508191695,nan,nan,nan,nan
22.062615633010864,0.66527665,0.08178489,-5.2770624,3.8703463763456614,nan,nan,nan,nan,nan,12.06008243560791,13.26008243560791,0.005805253982543945,0.5811380045890335,0.14926024126429796,4.165777756570086,-5.0,0.7355766581878596,0.0012772283517326006,-0.03997598998966948,0.2722582001834764,nan,nan,nan,nan
22.161216735839844,0.643591,0.13876759,-5.272859,3.9055917206635957,nan,nan,nan,nan,nan,12.15869688987732,13.358696889877319,0.005522727966308594,0.5642929385812003,0.20389575637416696,4.19675840107714,-5.0,0.7348815655907713,0.030855629576091868,-0.02510128072973309,0.2613463707453635,nan,nan,nan,nan
22.25741195678711,0.6207833,0.18240243,-5.269215,3.933540583344242,nan,nan,nan,nan,nan,12.254773378372192,13.454773378372192,0.0058019161224365234,0.5429521817961364,0.25534864065198254,4.22694172012096,-5.0,0.7345168895307971,0.03827506118863718,-0.021279264850782856,0.2585065146477382,nan,nan,nan,nan
22.354273319244385,0.5996413,0.21932334,-5.2664843,3.9560136687156957,nan,nan,nan,nan,nan,12.351637363433838,13.551637363433837,0.006551027297973633,0.5166997189123409,0.30499409908374936,4.257372438507669,-5.0,0.7340784849823897,0.04562546614109358,-0.022729623131170468,0.2585567272996999,nan,nan,nan,nan
22.455978393554688,0.56040156,0.27379236,-5.2637515,3.988876466339621,nan,nan,nan,nan,nan,12.45335054397583,13.65335054397583,0.005731344223022461,0.4842654274317657,0.3542414371503273,4.289326576584067,-5.0,0.733092016740433,0.07096666609966763,-0.019124108302654142,0.25221770223156154,nan,nan,nan,nan
22.55704140663147,0.5291332,0.30936605,-5.2625833,4.010596500055224,nan,nan,nan,nan,nan,12.554440259933472,13.754440259933471,0.009875297546386719,0.44739458409865335,0.39979755641973724,4.321084847484667,-5.0,0.7326942451983417,0.06439097030859042,-0.030726122148315597,0.25632601121606136,nan,nan,nan,nan
22.668092250823975,0.47609004,0.36794713,-5.257447,4.0448023265504816,nan,nan,nan,nan,nan,12.66559362411499,13.86559362411499,0.008666276931762695,0.4019406439550913,0.4454702220541419,4.356004706718113,-5.0,0.7324640013703634,0.08383813835499153,-0.027272596399249182,0.25418887935738094,nan,nan,nan,nan
22.75942349433899,0.43354008,0.40626097,-5.2543755,4.067762534788461,nan,nan,nan,nan,nan,12.757311820983887,13.957311820983886,0.005517005920410156,0.3609188231640348,0.47930950656740384,4.3848188280664955,-5.0,0.7327247258154569,0.08937256593419439,-0.030599257120393693,0.2571805496707643,nan,nan,nan,nan
22.86457085609436,0.38150117,0.44107273,-5.2556067,4.090915442718691,nan,nan,nan,nan,nan,12.86221170425415,14.06221170425415,0.0071408748626708984,0.3105457695784317,0.513382240632591,4.417774098330924,-5.0,0.7324730036043445,0.09278975804125486,-0.03525069384946362,0.25787805561530386,nan,nan,nan,nan
22.966116189956665,0.30292866,0.48230907,-5.260849,4.123147648616062,nan,nan,nan,nan,nan,12.96355676651001,14.163556766510009,0.012988567352294922,0.25884392534066375,0.5412945799786257,4.449612588636985,-5.0,0.7301052591491919,0.1139995303742782,0.0006172339593298903,0.25781732520253536,nan,nan,nan,nan
23.068204641342163,0.23224099,0.5091367,-5.269026,4.151846010271809,nan,nan,nan,nan,nan,13.065662145614624,14.265662145614623,0.007424354553222656,0.2042453443329067,0.5641664996420227,4.48168993952569,-5.0,0.7286752507789603,0.10987660560470092,0.0064342077961183535,0.26242662144145856,nan,nan,nan,nan
23.16391158103943,0.17164788,0.52520186,-5.277886,4.176620268607323,nan,nan,nan,nan,nan,13.161354064941406,14.361354064941406,0.0065877437591552734,0.1512611600826395,0.580620410811103,4.511752442602183,-5.0,0.7255016289511269,0.09573608981236932,0.03914115616274015,0.25939442569391574,nan,nan,nan,nan
23.249998807907104,0.123889446,0.5274844,-5.289921,4.1977164585711035,nan,nan,nan,nan,nan,13.247681856155396,14.447681856155395,0.008475542068481445,0.10233927067760942,0.5912078092153172,4.5388731180700335,-5.0,0.7241647757747829,0.07734110253904579,0.03084680681431434,0.26321066569076845,nan,nan,nan,nan
23.362629413604736,0.039481867,0.5274102,-5.3026824,4.235154947398243,nan,nan,nan,nan,nan,13.360031366348267,14.560031366348266,0.005703926086425781,0.037656155544730556,0.5988171790701993,4.574168757655667,-5.0,0.7210992414953857,0.0427915699748433,0.06906646356893727,0.25668566198299336,nan,nan,nan,nan
23.458258390426636,-0.004942019,0.5217627,-5.3062243,4.2560736877218615,nan,nan,nan,nan,nan,13.455621480941772,14.655621480941772,0.006055355072021484,-0.017757447198015378,0.5997371699911634,4.604199277831944,-5.0,0.7219010005519062,0.02852036561536142,0.058301322858757595,0.2609271646754662,nan,nan,nan,nan
23.557392597198486,-0.058039077,0.50512624,-5.3082013,4.284340629634309,nan,nan,nan,nan,nan,13.554754734039307,14.754754734039306,0.006376743316650391,-0.07505880881141969,0.5952866328247349,4.63534290779771,-5.0,0.7234974602930294,0.0014260334116825433,0.0637888197824845,0.25862029931514297,nan,nan,nan,nan
23.657984733581543,-0.11601806,0.47513345,-5.294891,4.320238393530881,nan,nan,nan,nan,nan,13.655417680740356,14.855417680740356,0.005479097366333008,-0.1325368830344943,0.5851785835413842,4.666967105182183,-5.0,0.7278418068618844,-0.02281347819325779,0.06298079003054535,0.2538357368125117,nan,nan,nan,nan
23.75964879989624,-0.15056443,0.4538573,-5.288256,4.344083553269755,nan,nan,nan,nan,nan,13.757011651992798,14.957011651992797,0.006314516067504883,-0.18927353405298533,0.5693641447326073,4.69888379255575,-5.0,0.731278041392291,-0.030947491870452433,0.04767581998914505,0.26051474748882947,nan,nan,nan,nan
23.870681047439575,-0.20891215,0.41384384,-5.278064,4.38318987784789,nan,nan,nan,nan,nan,13.868143081665039,15.068143081665038,0.007191658020019531,-0.2492285712423351,0.5457885298139786,4.733796760859875,-5.0,0.7334847600578607,-0.020681419827254133,0.043614338111207,0.25108912570071196,nan,nan,nan,nan
23.95673418045044,-0.24652222,0.38818303,-5.273823,4.407400857292826,nan,nan,nan,nan,nan,13.954103946685791,15.15410394668579,0.00626373291015625,-0.29366799559298257,0.523219942628719,4.760802163064417,-5.0,0.7342136557689459,0.0017791999210768177,0.03561265801361805,0.25128382907278946,nan,nan,nan,nan
24.071394443511963,-0.28459582,0.36422896,-5.2719946,4.431002566315609,nan,nan,nan,nan,nan,14.068807601928711,15.26880760192871,0.007848739624023438,-0.3497592609777712,0.48751252225997566,4.7968373791295225,-5.0,0.7338963476580891,0.036789887302161296,-0.0016674086572299913,0.26775658083841636,nan,nan,nan,nan
24.155848264694214,-0.33603036,0.33988914,-5.271453,4.460104506350104,nan,nan,nan,nan,nan,14.15322232246399,15.353222322463989,0.005915403366088867,-0.3883318803561652,0.45738206206523335,4.823357045718369,-5.0,0.7325420220572268,0.07604109332363218,-0.006537263564084094,0.26437045569419526,nan,nan,nan,nan
24.25708794593811,-0.36791554,0.31649393,-5.2650623,4.4812330545155366,nan,nan,nan,nan,nan,14.254472970962524,15.454472970962524,0.006046295166015625,-0.43116747889159307,0.41724645612187955,4.855165875067789,-5.0,0.732699771581255,0.10248897869551413,-0.027600148411659607,0.27463599337706,nan,nan,nan,nan
24.3644962310791,-0.40997195,0.2731064,-5.259386,4.5139097773992924,nan,nan,nan,nan,nan,14.362020254135132,15.562020254135131,0.00545501708984375,-0.47213843799651267,0.37025031447145745,4.888952850540649,-5.0,0.7337864046509797,0.09340388520665739,-0.006324095050957525,0.2791417499445144,nan,nan,nan,nan
24.46290922164917,-0.43502748,0.23859589,-5.2577047,4.536378586035276,nan,nan,nan,nan,nan,14.460430145263672,15.660430145263671,0.00670623779296875,-0.5051716332605635,0.3237307846789594,4.919869229641648,-5.0,0.7338587633078327,0.08200041223525585,0.0005088212301508498,0.28460567202527853,nan,nan,nan,nan
24.56075620651245,-0.46931285,0.17868459,-5.256303,4.57073356208752,nan,nan,nan,nan,nan,14.558124780654907,15.758124780654907,0.0053403377532958984,-0.533447105268472,0.27465284611794516,4.950560904525672,-5.0,0.7327636818707742,0.04303759395417974,0.055111494909415165,0.2829317942578856,nan,nan,nan,nan
24.671300888061523,-0.491285,0.13696142,-5.2554455,4.5939599944039795,nan,nan,nan,nan,nan,14.668678045272827,15.868678045272826,0.006757020950317383,-0.5596990671294925,0.21618731288948434,4.985292236921075,-5.0,0.7326525730089078,0.046635721554842025,0.0612556352965653,0.2911221701904185,nan,nan,nan,nan
24.772740364074707,-0.51687527,0.06925283,-5.2497783,4.629476284509639,nan,nan,nan,nan,nan,14.770113229751587,15.970113229751586,0.006202220916748047,-0.5781742947194344,0.16035736629692024,5.017159039958475,-5.0,0.7326363985706108,0.025168450822950744,0.09696195347811498,0.28576945005430565,nan,nan,nan,nan
24.858580112457275,-0.52995414,0.028423999,-5.24777,4.6511508354608,nan,nan,nan,nan,nan,14.855942726135254,16.055942726135253,0.005372047424316406,-0.5894745598647297,0.11189165863585696,5.044123171488499,-5.0,0.7333838025088448,0.034423766590915575,0.09090250453482784,0.2894198482464019,nan,nan,nan,nan
24.958143711090088,-0.545416,-0.038216736,-5.2492986,4.687386553300144,nan,nan,nan,nan,nan,14.955513715744019,16.155513715744018,0.007471323013305664,-0.5974991370614432,0.0547245942043493,5.075404320435055,-5.0,0.7327018756695611,0.0237727672653135,0.09291610754846748,0.2839572753083682,nan,nan,nan,nan
25.058080911636353,-0.5487643,-0.08093468,-5.2540994,4.711569100551559,nan,nan,nan,nan,nan,15.055456399917603,16.255456399917602,0.005933523178100586,-0.5999916542444731,-0.003164622723266065,5.106802240673033,-5.0,0.731321019296159,0.03245040209246139,0.0694381514563729,0.287869643824141,nan,nan,nan,nan
25.156814098358154,-0.54814947,-0.1463667,-5.2625837,4.74738568138765,nan,nan,nan,nan,nan,15.154176950454712,16.35417695045471,0.006394863128662109,-0.5969603014489464,-0.06031913870392167,5.1378162163056045,-5.0,0.7286172580662232,0.011094296903304074,0.0626769628292802,0.28084692680511747,nan,nan,nan,nan
25.272298097610474,-0.54631567,-0.20134969,-5.275746,4.777828313691971,nan,nan,nan,nan,nan,15.26969027519226,16.46969027519226,0.006441831588745117,-0.5865214495426846,-0.1264618093589844,5.1741057975443265,-5.0,0.7260532585155218,0.014414646429084911,0.05573882336670081,0.28172703410423594,nan,nan,nan,nan
25.367502689361572,-0.539098,-0.2426992,-5.2849364,4.801032859575638,nan,nan,nan,nan,nan,15.364905595779419,16.56490559577942,0.006056785583496094,-0.572415891515166,-0.17983338716961758,5.204018572710908,-5.0,0.7247228037040525,0.03135349612558489,0.05000433453607268,0.28602530509205154,nan,nan,nan,nan
25.460402250289917,-0.5194021,-0.298412,-5.2974954,4.833668358468151,nan,nan,nan,nan,nan,15.457764148712158,16.657764148712157,0.006459712982177734,-0.5539910588068723,-0.23042115085651432,5.233190947482555,-5.0,0.7233990630796153,0.009833310733065113,0.05740165651729973,0.2807769748707268,nan,nan,nan,nan
25.562912940979004,-0.4981707,-0.3359748,-5.307801,4.857286249096608,nan,nan,nan,nan,nan,15.560323238372803,16.760323238372802,0.005346059799194336,-0.5284647557786673,-0.28412145624678475,5.265410835746229,-5.0,0.7223363266389986,0.00852659034295737,0.05450852694252291,0.28391918650106407,nan,nan,nan,nan
25.65736961364746,-0.4618832,-0.39493826,-5.316643,4.89006169020243,nan,nan,nan,nan,nan,15.654731035232544,16.854731035232543,0.00633692741394043,-0.5003731286433358,-0.3310992783617621,5.295069919851844,-5.0,0.7216824386174129,-0.03189932061408765,0.07239291507139979,0.2746853635446432,nan,nan,nan,nan
25.76871156692505,-0.4145639,-0.45481452,-5.319264,4.92258336511579,nan,nan,nan,nan,nan,15.766117572784424,16.966117572784423,0.0064966678619384766,-0.4618945124465751,-0.3829535995022643,5.330063032660024,-5.0,0.7234077414845211,-0.049751039617823026,0.09483788708043363,0.2707451401253362,nan,nan,nan,nan
25.860329627990723,-0.3819198,-0.48935315,-5.3175573,4.943401086135017,nan,nan,nan,nan,nan,15.857691526412964,17.057691526412963,0.005702495574951172,-0.42623149260218085,-0.42228747875602113,5.3588318386579825,-5.0,0.7253235651415593,-0.04222916150855831,0.10449305214723664,0.2708763832036783,nan,nan,nan,nan
25.96090340614319,-0.3284513,-0.53655213,-5.3124623,4.975408587287402,nan,nan,nan,nan,nan,15.958281993865967,17.158281993865966,0.006353616714477539,-0.38322162097548507,-0.4616721663874937,5.390433266015135,-5.0,0.728814121869337,-0.044232719101324286,0.09991712520205784,0.27100160877325635,nan,nan,nan,nan
26.0590877532959,-0.27240315,-0.577724,-5.3129597,5.004688758304599,nan,nan,nan,nan,nan,16.05646276473999,17.25646276473999,0.006329774856567383,-0.3377474141283922,-0.49590995578792757,5.421277664865296,-5.0,0.7300739824017236,-0.04619175422307484,0.09197725123930581,0.2643687842881565,nan,nan,nan,nan
26.159201622009277,-0.22564797,-0.60237485,-5.316481,5.0268061659410055,nan,nan,nan,nan,nan,16.15656352043152,17.356563520431518,0.006639003753662109,-0.288257221782682,-0.526220271454958,5.452725244735225,-5.0,0.7301247835099733,-0.033643754602365385,0.08411001765644,0.2657956309068608,nan,nan,nan,nan
26.271182775497437,-0.15400063,-0.63045585,-5.3221607,5.057214656238857,nan,nan,nan,nan,nan,16.268625736236572,17.46862573623657,0.008782625198364258,-0.22967664294738585,-0.5543001350211084,5.487930628127041,-5.0,0.7288734856605807,-0.048066112333497564,0.06557153332149096,0.26019140531683027,nan,nan,nan,nan
26.366400957107544,-0.079859525,-0.6468548,-5.325364,5.085205105523633,nan,nan,nan,nan,nan,16.363791704177856,17.563791704177856,0.006542205810546875,-0.1777864443827196,-0.5730549539038556,5.517827898702651,-5.0,0.7277570378448446,-0.08065064009430335,0.0481547978486013,0.25563218467578447,nan,nan,nan,nan
26.462378978729248,-0.021101348,-0.6526246,-5.3252068,5.106717678742273,nan,nan,nan,nan,nan,16.45974111557007,17.659741115570068,0.0056803226470947266,-0.1239482471328094,-0.5870577757194806,5.547971295297255,-5.0,0.7285322477647913,-0.07161788406217136,0.04763867797890573,0.2612276660003455,nan,nan,nan,nan
26.5670063495636,0.065119,-0.65701944,-5.325905,5.1382667226787095,nan,nan,nan,nan,nan,16.564393997192383,17.764393997192382,0.006053447723388672,-0.06402782202080974,-0.5965739166333636,5.580848967705421,-5.0,0.7290905972328685,-0.08140218685895508,0.038846744261281846,0.25904466952447613,nan,nan,nan,nan
26.66099786758423,0.124611,-0.653224,-5.3274407,5.1589937379189745,nan,nan,nan,nan,nan,16.65837574005127,17.85837574005127,0.005554914474487305,-0.009641428643160688,-0.59992253071019,5.610374202999125,-5.0,0.7294608293698475,-0.07841519714356836,0.03445128702438044,0.25898137856399045,nan,nan,nan,nan
26.756202459335327,0.20863669,-0.63942313,-5.326238,5.187553878433649,nan,nan,nan,nan,nan,16.753576278686523,17.953576278686523,0.007702827453613281,0.04552936045956477,-0.5982700705669163,5.640282334278556,-5.0,0.7295591086875657,-0.09504684187016409,0.01694705797269905,0.2527089846878394,nan,nan,nan,nan
26.869312286376953,0.29291105,-0.61248183,-5.324348,5.215919463570481,nan,nan,nan,nan,nan,16.86670446395874,18.06670446395874,0.007149219512939453,0.11055071112820905,-0.5897275135764375,5.67582260185507,-5.0,0.7306538522746768,-0.0949170270467941,0.010449919094579478,0.25461987498084176,nan,nan,nan,nan
26.95518183708191,0.35679033,-0.5830029,-5.323625,5.2385717201972515,nan,nan,nan,nan,nan,16.952587127685547,18.152587127685546,0.006968975067138672,0.15907172702678865,-0.5785293299917601,5.702803436398556,-5.0,0.7306024479523869,-0.1011015053561452,-0.003113662038668806,0.2563236947895595,nan,nan,nan,nan
27.06309676170349,0.4196676,-0.55389374,-5.3245378,5.260962221031958,nan,nan,nan,nan,nan,17.06053638458252,18.26053638458252,0.0062444210052490234,0.21846564429145243,-0.5588137098034733,5.7367166956413564,-5.0,0.7307013162811368,-0.08836440280521839,0.0031762266621555416,0.2621559084071352,nan,nan,nan,nan
27.171640157699585,0.50326747,-0.50395024,-5.330521,5.2914167253062665,nan,nan,nan,nan,nan,17.16900372505188,18.36900372505188,0.007919073104858398,0.2757498351714202,-0.5328808763719473,5.7707927156386525,-5.0,0.7291925674349453,-0.09443603918525666,-0.008098239850162404,0.2602516956215906,nan,nan,nan,nan
27.27130675315857,0.55226254,-0.4665132,-5.3327317,5.311535016676508,nan,nan,nan,nan,nan,17.268754243850708,18.468754243850707,0.00673365592956543,0.3257714562967592,-0.5038580735309187,5.80213026534367,-5.0,0.7285869595248992,-0.07745254831114606,0.005447174269371293,0.2689400092432452,nan,nan,nan,nan
27.368975400924683,0.6242891,-0.40329155,-5.3345666,5.343376555394643,nan,nan,nan,nan,nan,17.366503953933716,18.566503953933715,0.006994485855102539,0.3718565753278137,-0.47087438599425857,5.8328392424524,-5.0,0.7286576552423906,-0.07041160043527125,-0.014984200455792757,0.26732690083605615,nan,nan,nan,nan
27.459278345108032,0.6720881,-0.3518878,-5.3360143,5.367282014777019,nan,nan,nan,nan,nan,17.45665454864502,18.65665454864502,0.011294364929199219,0.4114272676193289,-0.4367237152471721,5.8611608870585785,-5.0,0.7288083013449936,-0.06633710505456868,-0.01126773960409605,0.27038021654006594,nan,nan,nan,nan
27.57176661491394,0.7034824,-0.3028627,-5.3373976,5.387562180414617,nan,nan,nan,nan,nan,17.569180011749268,18.769180011749267,0.00986933708190918,0.45640551289348386,-0.3894791493782895,5.896511803881588,-5.0,0.7290786221933726,-0.050774384786206085,-0.0063065547086810555,0.28037585456944075,nan,nan,nan,nan
27.655364990234375,0.72970045,-0.2526658,-5.3370695,5.4081993455244515,nan,nan,nan,nan,nan,17.652806997299194,18.852806997299194,0.007109165191650391,0.4863653347624884,-0.35135275883557904,5.92278399622614,-5.0,0.7293177995646578,-0.0412341119791428,-0.017283056850186645,0.2850262221579372,nan,nan,nan,nan
27.763283491134644,0.76227796,-0.1632401,-5.3335075,5.444088258023063,nan,nan,nan,nan,nan,17.76064896583557,18.96064896583557,0.007976293563842773,0.5202854575759475,-0.2988361468011977,5.956663549836394,-5.0,0.7301109869186799,-0.038856244897256004,-0.0557047573489599,0.2806393123239905,nan,nan,nan,nan
27.85408115386963,0.7745386,-0.1081632,-5.3312426,5.465695465831601,nan,nan,nan,nan,nan,17.851507902145386,19.051507902145385,0.008101224899291992,0.5444925800189564,-0.2520472779148791,5.985207726518783,-5.0,0.7309924681157169,-0.03607608264090688,-0.06214385192625079,0.2843534603889148,nan,nan,nan,nan
27.956832885742188,0.7825047,-0.050952658,-5.3302217,5.487539949026754,nan,nan,nan,nan,nan,17.95425033569336,19.15425033569336,0.006985902786254883,0.5668005068560729,-0.19681764511267494,6.0174852139634085,-5.0,0.7311634062631835,-0.03755029144687337,-0.05302412357341632,0.29454479157070385,nan,nan,nan,nan
28.06378746032715,0.78719354,0.041741595,-5.3352184,5.525313112106769,nan,nan,nan,nan,nan,18.061156272888184,19.261156272888183,0.005827665328979492,0.5840796738838485,-0.13729870558653173,6.051070704655047,-5.0,0.729279767709024,-0.041514429035386186,-0.07359564651700129,0.286465238547837,nan,nan,nan,nan
28.15669322013855,0.78197664,0.09761724,-5.3406353,5.549776244795382,nan,nan,nan,nan,nan,18.154168605804443,19.354168605804443,0.008796453475952148,0.5940483547950476,-0.08430036871388696,6.080291390833344,-5.0,0.7278606045286025,-0.03456505192723584,-0.06255952427408061,0.28924026778603223,nan,nan,nan,nan
28.270435333251953,0.76464003,0.17361373,-5.349081,5.5831827041267506,nan,nan,nan,nan,nan,18.267818212509155,19.467818212509155,0.00999140739440918,0.5997097049837341,-0.018661986719603493,6.115995467784034,-5.0,0.7263603931995752,-0.021570402272117983,-0.05046424023910858,0.2913243731245969,nan,nan,nan,nan
28.366886377334595,0.7461324,0.22743559,-5.3567734,5.607763364270655,nan,nan,nan,nan,nan,18.364525318145752,19.56452531814575,0.006791114807128906,0.5988332608129389,0.03739954203118897,6.14637690104582,-5.0,0.7251382855856721,-0.015376619045649978,-0.04599113699488487,0.2947540846387791,nan,nan,nan,nan
28.450625896453857,0.72530323,0.27343562,-5.3633175,5.63035831178564,nan,nan,nan,nan,nan,18.44814372062683,19.64814372062683,0.0075092315673828125,0.5938584431235701,0.08562797166142354,6.172646396939768,-5.0,0.7235663806350948,-0.013253541316587084,-0.03986119752691529,0.29813382892989887,nan,nan,nan,nan
28.56946110725403,0.68665665,0.3416918,-5.366495,5.6646064640693305,nan,nan,nan,nan,nan,18.566861629486084,19.766861629486083,0.007843494415283203,0.5801474215562026,0.15306524511361086,6.209942727971945,-5.0,0.7238255151154529,-0.012427520586186696,-0.04056266948643944,0.30128961124659887,nan,nan,nan,nan
28.671647787094116,0.65673167,0.38654467,-5.3673964,5.687661211060545,nan,nan,nan,nan,nan,18.66901922225952,19.86901922225952,0.0075740814208984375,0.5622304059780144,0.2095160389893744,6.24203648226849,-5.0,0.7253443475698831,-0.018731412183670096,-0.032685005987732524,0.310878161620453,nan,nan,nan,nan
28.770488500595093,0.6062255,0.45098895,-5.366226,5.722410361888756,nan,nan,nan,nan,nan,18.767876148223877,19.967876148223876,0.007391929626464844,0.5396745461198206,0.2622048517292647,6.2730933015050985,-5.0,0.7268684354864142,-0.02093947549985817,-0.059638525408731324,0.30245719354116435,nan,nan,nan,nan
28.87232780456543,0.5684,0.49067304,-5.364709,5.745674097372913,nan,nan,nan,nan,nan,18.869710683822632,20.06971068382263,0.007302522659301758,0.511292750492742,0.31397408060788484,6.305085564396976,-5.0,0.7282113674291992,-0.03589550679398407,-0.049988792548298244,0.3119696224711115,nan,nan,nan,nan
28.961150407791138,0.5218767,0.5296807,-5.3649254,5.771549648230065,nan,nan,nan,nan,nan,18.95855140686035,20.15855140686035,0.0056498050689697266,0.48247840799758834,0.3566715377151822,6.332995700680467,-5.0,0.7285669006029181,-0.036681507818728365,-0.055303267902443005,0.31118275584673566,nan,nan,nan,nan
29.063241243362427,0.45411536,0.57932025,-5.356418,5.807241045912969,nan,nan,nan,nan,nan,19.060609340667725,20.260609340667724,0.005335092544555664,0.44500252889843295,0.4024583820396828,6.365058146189447,-5.0,0.7302623866044362,-0.023472902636039978,-0.06660987255624602,0.30519239630855843,nan,nan,nan,nan
29.164848804473877,0.40705943,0.60798115,-5.354,5.831048070024112,nan,nan,nan,nan,nan,19.16221785545349,20.36221785545349,0.005499124526977539,0.4033921447491624,0.4441562535354769,6.39697940254876,-5.0,0.732105889856626,-0.028511086274596247,-0.052646126774614097,0.3116761931362161,nan,nan,nan,nan
29.260882139205933,0.33987388,0.6427812,-5.3536325,5.864343330705479,nan,nan,nan,nan,nan,19.25829553604126,20.45829553604126,0.0060689449310302734,0.360462883616864,0.4796524883023282,6.427163096099608,-5.0,0.7317042358003228,-0.00997350239015487,-0.0604244992068162,0.30184059341602565,nan,nan,nan,nan
