time,x,y,z,yaw,platform,trajectory,traj_double,traj_short,traj_spin,traj_time,ref_time,comptime,x_ref,y_ref,yaw_ref,z_ref,throttle_input,p_input,q_input,r_input,cbf_term_pitch_cbf,cbf_term_roll_cbf,cbf_term_thrust_cbf,cbf_term_yaw_cbf
10.053855657577515,0.045167442,0.03425372,-2.8407154,-0.0002845694997792988,SIM,FIG8_VERTICAL,NormSpd,Not Short,NoSpin,0.05111432075500488,1.2511143207550048,0.005776643753051758,nan,nan,nan,nan,0.7221472964555763,-0.12160826191995558,-0.02940684669662532,-0.0006264641223509099,nan,nan,nan,nan
10.15000867843628,0.045662507,0.030861115,-2.839517,-0.00010074197543732651,nan,nan,nan,nan,nan,0.14734244346618652,1.3473424434661865,0.008901357650756836,nan,nan,nan,nan,0.7215417798988512,-0.12910613618159364,-0.024686975493358108,-2.5027065463005926e-05,nan,nan,nan,nan
10.248657941818237,0.044248216,0.027683767,-2.837835,3.064916100553247e-05,nan,nan,nan,nan,nan,0.24600458145141602,1.446004581451416,0.005797863006591797,nan,nan,nan,nan,0.7214131538454457,-0.11590039317251388,-0.02227907862854399,-9.386017725619533e-05,nan,nan,nan,nan
10.35515308380127,0.04133226,0.02164798,-2.8354845,0.00022745676864275796,nan,nan,nan,nan,nan,0.35239124298095703,1.552391242980957,0.005796909332275391,nan,nan,nan,nan,0.7219737349952751,-0.05877809145000289,-0.020469602877710498,-0.0001604250707360531,nan,nan,nan,nan
10.445432424545288,0.04360797,0.014756636,-2.835956,0.0005618741866685074,nan,nan,nan,nan,nan,0.4427485466003418,1.6427485466003418,0.0051305294036865234,nan,nan,nan,nan,0.7224368326679437,0.00895449620546435,-0.01099134870966856,-0.0001430167989551681,nan,nan,nan,nan
10.517253875732422,0.04261407,0.0007914593,-2.8362758,0.0007101354036795973,nan,nan,nan,nan,nan,0.5145642757415771,1.714564275741577,0.005204439163208008,nan,nan,nan,nan,0.7226078283248025,0.047482455358973295,-0.00599265102048696,-0.000260064141649762,nan,nan,nan,nan
10.657413482666016,0.044234473,-0.016742801,-2.836208,0.000650336394561489,nan,nan,nan,nan,nan,0.654658317565918,1.854658317565918,0.0053615570068359375,nan,nan,nan,nan,0.7228259521530859,0.10586335517891811,0.0005517151528310744,-0.00023603730798567183,nan,nan,nan,nan
10.747679710388184,0.046222102,-0.03285392,-2.836303,0.0004943367485923025,nan,nan,nan,nan,nan,0.7449483871459961,1.944948387145996,0.0052607059478759766,nan,nan,nan,nan,0.722844487384731,0.13088643446211656,0.0030280289545992376,-0.00018578959242503476,nan,nan,nan,nan
10.853045225143433,0.049585037,-0.06034995,-2.8365452,0.000296729888945742,nan,nan,nan,nan,nan,0.8503124713897705,2.0503124713897707,0.006872653961181641,nan,nan,nan,nan,0.7230303345851038,0.15064584374879433,0.008258136924952643,-2.8956216968409193e-06,nan,nan,nan,nan
10.944597959518433,0.046926484,-0.08524565,-2.8371634,0.00017897724882797415,nan,nan,nan,nan,nan,0.9419407844543457,2.141940784454346,0.0051915645599365234,nan,nan,nan,nan,0.7231091901589703,0.14833825432233239,0.006742887416846476,3.8021389207824634e-05,nan,nan,nan,nan
11.061413526535034,0.043176707,-0.1105113,-2.84188,0.0002712605339857937,nan,nan,nan,nan,nan,1.0586791038513184,2.2586791038513185,0.005288362503051758,nan,nan,nan,nan,0.72305526666966,0.12611371487357112,0.001654899849453388,-2.332389088263961e-05,nan,nan,nan,nan
11.154003858566284,0.041834198,-0.12039504,-2.8437095,0.0003632368038265568,nan,nan,nan,nan,nan,1.1512508392333984,2.3512508392333986,0.006755352020263672,nan,nan,nan,nan,0.7229683069647377,0.11084731714450677,-0.0008214035327150739,3.0931879083245826e-05,nan,nan,nan,nan
11.248116254806519,0.03918961,-0.13039647,-2.8447697,0.0006684774316973209,nan,nan,nan,nan,nan,1.2454042434692383,2.4454042434692385,0.0053327083587646484,nan,nan,nan,nan,0.7230747348015858,0.06415020074212929,-0.003397717637652856,-0.00018763422762878298,nan,nan,nan,nan
11.356796026229858,0.033276323,-0.13125736,-2.8445802,0.0010521689888160386,nan,nan,nan,nan,nan,1.3540849685668945,2.5540849685668947,0.005641460418701172,nan,nan,nan,nan,0.7232715585361925,0.014343415853917239,-0.0054226933089297396,-0.0005142106659804658,nan,nan,nan,nan
11.451645851135254,0.025203273,-0.12332349,-2.8442922,0.0011933585504035962,nan,nan,nan,nan,nan,1.4488873481750488,2.648887348175049,0.007031917572021484,nan,nan,nan,nan,0.7232587911297843,-0.01004827684137969,-0.011686162998983828,-0.0005363023883732568,nan,nan,nan,nan
11.561814785003662,0.015056566,-0.10742435,-2.8455725,0.001389273518703403,nan,nan,nan,nan,nan,1.5590953826904297,2.75909538269043,0.005007028579711914,nan,nan,nan,nan,0.723336703450482,-0.05056823583061113,-0.01778292987829996,-0.0006371393563843803,nan,nan,nan,nan
11.658485174179077,0.009809331,-0.08611542,-2.8374815,0.00176240177288383,nan,nan,nan,nan,nan,1.6557555198669434,2.8557555198669435,0.005331516265869141,nan,nan,nan,nan,0.7236614808876258,-0.08674002055004054,-0.01795955306444315,-0.0009754151039232415,nan,nan,nan,nan
11.752432107925415,0.008303481,-0.07186784,-2.8308375,0.0020276246355056884,nan,nan,nan,nan,nan,1.7497107982635498,2.94971079826355,0.007603168487548828,nan,nan,nan,nan,0.7240290968876916,-0.10261962128125025,-0.01411107280122506,-0.0011632618671536124,nan,nan,nan,nan
11.862218141555786,0.006498339,-0.039670013,-2.8152807,0.0026689376450966876,nan,nan,nan,nan,nan,1.8595571517944336,3.0595571517944338,0.005129337310791016,nan,nan,nan,nan,0.7246445324561971,-0.11707236937859958,-0.006570582086119075,-0.001596514973651313,nan,nan,nan,nan
11.955471992492676,0.0005619199,-0.011411489,-2.798934,0.0033106395744058256,nan,nan,nan,nan,nan,1.952714204788208,3.152714204788208,0.007094860076904297,nan,nan,nan,nan,0.725430252966275,-0.11747577158727976,-0.0047329320591655115,-0.0020418778864053125,nan,nan,nan,nan
12.055623531341553,-0.0019633793,0.018925596,-2.7806046,0.0038709317642720794,nan,nan,nan,nan,nan,2.0528695583343506,3.2528695583343508,0.006535053253173828,nan,nan,nan,nan,0.7261282998254909,-0.11709445968349179,-0.003083649410198821,-0.0024207590664987026,nan,nan,nan,nan
12.148217916488647,-0.0060502593,0.04554219,-2.7680266,0.004221905651979075,nan,nan,nan,nan,nan,2.145573377609253,3.345573377609253,0.005434989929199219,nan,nan,nan,nan,0.7265736837220083,-0.11996524582370674,-0.001574490473177065,-0.0025819517074749405,nan,nan,nan,nan
12.245271921157837,-0.010466034,0.08048573,-2.7515266,0.004657200191833076,nan,nan,nan,nan,nan,2.2425177097320557,3.442517709732056,0.0053539276123046875,nan,nan,nan,nan,0.7272212960037323,-0.1059881769680822,-0.002458303165383712,-0.0029334857404684587,nan,nan,nan,nan
12.360344409942627,-0.010701673,0.119851544,-2.7291334,0.0046771612059739245,nan,nan,nan,nan,nan,2.3575804233551025,3.5575804233551027,0.005141735076904297,nan,nan,nan,nan,0.7279933909150587,-0.09594934043036324,0.003346619512341813,-0.003104837465578304,nan,nan,nan,nan
12.456207513809204,-0.011287223,0.13565257,-2.7203114,0.0043653437333179695,nan,nan,nan,nan,nan,2.453458070755005,3.653458070755005,0.005899190902709961,nan,nan,nan,nan,0.7283439064525576,-0.09195453879923401,0.00543662680387503,-0.0028404761541399575,nan,nan,nan,nan
12.54975938796997,-0.0047743917,0.15286152,-2.7089834,0.0035999097585421753,nan,nan,nan,nan,nan,2.5470657348632812,3.7470657348632814,0.005192279815673828,nan,nan,nan,nan,0.728724126729203,-0.05649301877905183,0.011885938332027713,-0.0024931311157440623,nan,nan,nan,nan
12.650901079177856,0.0032285198,0.16344304,-2.6966462,0.0030182210034078102,nan,nan,nan,nan,nan,2.648221492767334,3.848221492767334,0.00611114501953125,nan,nan,nan,nan,0.7290595231950109,-0.024757673329054642,0.019084161756051606,-0.001992420854920849,nan,nan,nan,nan
12.759994506835938,0.0074111787,0.16956837,-2.683242,0.0027054266825824735,nan,nan,nan,nan,nan,2.757240056991577,3.9572400569915773,0.005157947540283203,nan,nan,nan,nan,0.7295869154234824,0.0018461809405793503,0.020874761803303294,-0.0016686749846755496,nan,nan,nan,nan
12.85374903678894,0.00707359,0.17044726,-2.6734445,0.002589192874597711,nan,nan,nan,nan,nan,2.851274013519287,4.051274013519287,0.00685429573059082,nan,nan,nan,nan,0.7299270063036819,0.006235891219015386,0.015943876267471242,-0.001521053936963045,nan,nan,nan,nan
12.94703984260559,0.004684715,0.16159798,-2.6524873,0.0022323399080671213,nan,nan,nan,nan,nan,2.9443204402923584,4.144320440292359,0.005050182342529297,nan,nan,nan,nan,0.7305363456361547,0.03496966958250836,0.005561728622948542,-0.0015119258155632633,nan,nan,nan,nan
13.05649995803833,0.0047436003,0.14626196,-2.635546,0.0020605756534067474,nan,nan,nan,nan,nan,3.0537831783294678,4.253783178329468,0.005926370620727539,nan,nan,nan,nan,0.731167074556684,0.04860208810306022,-0.0002217428890421946,-0.0012941197759591598,nan,nan,nan,nan
13.150898694992065,0.0036893846,0.12449329,-2.6178246,0.002195765980074406,nan,nan,nan,nan,nan,3.1482009887695312,4.348200988769531,0.00530552864074707,nan,nan,nan,nan,0.7317822056022196,0.0746207908498326,-0.004321796676613631,-0.0013491749607993206,nan,nan,nan,nan
13.261619329452515,0.0020849013,0.09557785,-2.5984635,0.0023030449796697418,nan,nan,nan,nan,nan,3.258866310119629,4.458866310119629,0.005354404449462891,nan,nan,nan,nan,0.7323371531215032,0.08769893908011894,-0.00845153505005616,-0.0013999589759518406,nan,nan,nan,nan
13.355512857437134,0.006286741,0.056778792,-2.5763142,0.002083621009770104,nan,nan,nan,nan,nan,3.3528411388397217,4.552841138839722,0.007036685943603516,nan,nan,nan,nan,0.7329017598874759,0.1002095993478218,-0.00461615881634351,-0.0012302176749461127,nan,nan,nan,nan
13.451488494873047,0.010336123,0.03530771,-2.5680695,0.0019242757392121668,nan,nan,nan,nan,nan,3.4487791061401367,4.648779106140137,0.006806612014770508,nan,nan,nan,nan,0.7331939882495792,0.10247610113049152,-0.0008670334687017059,-0.0011242438991601262,nan,nan,nan,nan
13.54384469985962,0.014897967,0.003843383,-2.5576541,0.001587442914215637,nan,nan,nan,nan,nan,3.5410921573638916,4.741092157363892,0.005541324615478516,nan,nan,nan,nan,0.7332468813559596,0.09550885380798335,0.0036269599117525813,-0.0008972087806039012,nan,nan,nan,nan
13.66226315498352,0.015732737,-0.03240019,-2.546353,0.0010344345125955269,nan,nan,nan,nan,nan,3.6595563888549805,4.859556388854981,0.0052947998046875,nan,nan,nan,nan,0.7333275788522249,0.08463937864759068,0.002980558525611195,-0.0006518986632663474,nan,nan,nan,nan
13.758131980895996,0.016030058,-0.059291176,-2.5384686,0.0006471418390046474,nan,nan,nan,nan,nan,3.7554023265838623,4.9554023265838625,0.00548863410949707,nan,nan,nan,nan,0.7335179244753033,0.08416604973810647,-6.550043367479595e-05,-0.000320397685831382,nan,nan,nan,nan
13.856016159057617,0.017665707,-0.09168091,-2.5293455,0.00032577357736439903,nan,nan,nan,nan,nan,3.8533308506011963,5.0533308506011965,0.0068073272705078125,nan,nan,nan,nan,0.7337120131565703,0.08145608193673708,-0.0015775110258666402,-5.067679853946996e-05,nan,nan,nan,nan
13.95058560371399,0.019233782,-0.12702118,-2.5154278,0.00014724990782359094,nan,nan,nan,nan,nan,3.947857618331909,5.147857618331909,0.005587577819824219,nan,nan,nan,nan,0.7339745945967552,0.07676850893499898,-0.001710965765585663,7.55212794550583e-05,nan,nan,nan,nan
14.063241720199585,0.024954043,-0.15472081,-2.5068736,-7.254161823942035e-05,nan,nan,nan,nan,nan,4.0604941844940186,5.260494184494019,0.005174875259399414,nan,nan,nan,nan,0.7341413027077299,0.06280689179243759,0.0013904988347680476,0.0002081370547994906,nan,nan,nan,nan
14.155166864395142,0.0313862,-0.16724497,-2.505977,-8.416458331847454e-05,nan,nan,nan,nan,nan,4.152420997619629,5.352420997619629,0.006612539291381836,nan,nan,nan,nan,0.7340977893248788,0.048984677419328215,0.005221102691488291,0.00024283495188296946,nan,nan,nan,nan
14.250528812408447,0.036937214,-0.17339851,-2.5067892,-5.8200194180513254e-05,nan,nan,nan,nan,nan,4.247913837432861,5.4479138374328615,0.005135059356689453,nan,nan,nan,nan,0.7340084282191249,0.03975019345822637,0.009019037250735135,0.00012886441290224613,nan,nan,nan,nan
14.362823486328125,0.044049773,-0.1750336,-2.5041387,0.0001251079945531787,nan,nan,nan,nan,nan,4.360079050064087,5.560079050064087,0.0056035518646240234,nan,nan,nan,nan,0.7337978425606663,0.009940800444394727,0.01148117601187327,-2.973481534658042e-05,nan,nan,nan,nan
14.447629690170288,0.04661469,-0.16547598,-2.5047076,8.390725952252612e-05,nan,nan,nan,nan,nan,4.444951057434082,5.644951057434082,0.005033969879150391,nan,nan,nan,nan,0.7336712594720902,-0.009679610264448269,0.010615189843731346,-0.0001224086892138989,nan,nan,nan,nan
14.557740926742554,0.053327605,-0.14731,-2.5110667,-0.00017506297385726233,nan,nan,nan,nan,nan,4.554995775222778,5.7549957752227785,0.010639429092407227,nan,nan,nan,nan,0.7333018026901856,-0.036968560028353005,0.008805713762334409,-5.128586689734682e-05,nan,nan,nan,nan
14.653629541397095,0.057993885,-0.124500416,-2.5205297,-0.00031402114952354745,nan,nan,nan,nan,nan,4.650967359542847,5.850967359542847,0.006699323654174805,nan,nan,nan,nan,0.7325903381990215,-0.06394622309635432,0.0095405852922327,0.00012496493523045217,nan,nan,nan,nan
14.762832403182983,0.06062256,-0.09391189,-2.5341566,-0.0007524932428093212,nan,nan,nan,nan,nan,4.760082006454468,5.960082006454468,0.005322933197021484,nan,nan,nan,nan,0.7320804360630587,-0.07373740976546424,0.004075970849747136,0.0002840185913893195,nan,nan,nan,nan
14.851138591766357,0.06416356,-0.06587231,-2.5487525,-0.0013544214479498662,nan,nan,nan,nan,nan,4.84853458404541,6.04853458404541,0.005358219146728516,nan,nan,nan,nan,0.7314969586688007,-0.08076992424355126,0.0032060353050017624,0.0004585286173301474,nan,nan,nan,nan
14.95372462272644,0.07167866,-0.04393577,-2.561781,-0.0016557180183110736,nan,nan,nan,nan,nan,4.950992584228516,6.150992584228516,0.0059621334075927734,nan,nan,nan,nan,0.7309847357540903,-0.0833757637929546,0.004122335076330983,0.0006582958803918325,nan,nan,nan,nan
15.062299013137817,0.07859873,-0.010770329,-2.5778117,-0.002064883380014356,nan,nan,nan,nan,nan,5.059540510177612,6.2595405101776125,0.005415678024291992,nan,nan,nan,nan,0.7302117769026399,-0.08412803021963695,0.006823731534283418,0.0008434505011926754,nan,nan,nan,nan
15.158838748931885,0.082703896,0.02768734,-2.5899234,-0.0023390797399595853,nan,nan,nan,nan,nan,5.156100034713745,6.356100034713745,0.006003856658935547,nan,nan,nan,nan,0.7296903682878808,-0.08438347679092448,0.004503480869927686,0.0011165295478105222,nan,nan,nan,nan
15.249890327453613,0.08523647,0.05710888,-2.5970485,-0.002364217971220264,nan,nan,nan,nan,nan,5.247229099273682,6.447229099273682,0.005508899688720703,nan,nan,nan,nan,0.7295452678487904,-0.09260221389936153,0.0017548265820279802,0.0010088987113403612,nan,nan,nan,nan
15.348685264587402,0.09189718,0.09081418,-2.6100793,-0.002069768829270191,nan,nan,nan,nan,nan,5.345957279205322,6.545957279205322,0.005167722702026367,nan,nan,nan,nan,0.7290805441914571,-0.08741777320368546,0.0004884936701798185,0.0009180831513546396,nan,nan,nan,nan
15.45849061012268,0.107364036,0.12428626,-2.6186073,-0.0020521934619002515,nan,nan,nan,nan,nan,5.455734491348267,6.655734491348267,0.006093502044677734,nan,nan,nan,nan,0.7288167346821306,-0.08599359330663335,0.006182604790984479,0.0006731237855014812,nan,nan,nan,nan
15.55215859413147,0.115265265,0.14709428,-2.6234431,-0.0021445933005555494,nan,nan,nan,nan,nan,5.5496666431427,6.7496666431427,0.006719827651977539,nan,nan,nan,nan,0.7286326663932525,-0.08712048460420654,0.011211350136790138,0.000790096096012864,nan,nan,nan,nan
15.645137786865234,0.120808646,0.17265363,-2.6331916,-0.0022052255014346628,nan,nan,nan,nan,nan,5.6423845291137695,6.84238452911377,0.005332231521606445,nan,nan,nan,nan,0.728454885360008,-0.06965236149929954,0.010000849108832865,0.0009098563704522545,nan,nan,nan,nan
15.759018659591675,0.12082632,0.19046156,-2.6480126,-0.0020314171816383057,nan,nan,nan,nan,nan,5.756293296813965,6.956293296813965,0.00687861442565918,nan,nan,nan,nan,0.727869938456778,-0.0509558575354559,0.002737595587876121,0.0009060071182645014,nan,nan,nan,nan
15.851152658462524,0.11827554,0.19827555,-2.6552174,-0.0019295917277389087,nan,nan,nan,nan,nan,5.84848165512085,7.04848165512085,0.005407810211181641,nan,nan,nan,nan,0.7275475123085113,-0.043066742934887055,-0.004164727650031307,0.0006898604714856925,nan,nan,nan,nan
15.959850549697876,0.11858763,0.20513174,-2.6688933,-0.001743020899477022,nan,nan,nan,nan,nan,5.957109212875366,7.157109212875366,0.005494832992553711,nan,nan,nan,nan,0.7271561875661458,-0.02836925596723543,-0.009591867172477704,0.0005971397247256943,nan,nan,nan,nan
16.054481267929077,0.11983088,0.1999899,-2.6793702,-0.0014754763179402296,nan,nan,nan,nan,nan,6.051759958267212,7.251759958267212,0.007417440414428711,nan,nan,nan,nan,0.7267096215887539,0.007071116658177377,-0.009325840695561955,0.0006744480106098143,nan,nan,nan,nan
16.150027990341187,0.12008695,0.19172536,-2.6843681,-0.0011224734865086725,nan,nan,nan,nan,nan,6.147309064865112,7.3473090648651125,0.005347251892089844,nan,nan,nan,nan,0.7265515679063553,0.01698997106965156,-0.009238463674432524,0.0005248439641328249,nan,nan,nan,nan
16.247719049453735,0.121035784,0.17128995,-2.6920445,-0.00037818746377354245,nan,nan,nan,nan,nan,6.244967460632324,7.444967460632324,0.0056002140045166016,nan,nan,nan,nan,0.7263471262759286,0.04920316518190089,-0.006881181252375357,0.00030493787422812855,nan,nan,nan,nan
16.3480007648468,0.1180402,0.15343675,-2.6962,7.027940338453706e-05,nan,nan,nan,nan,nan,6.345238924026489,7.545238924026489,0.0052797794342041016,nan,nan,nan,nan,0.7262139617235565,0.05857722226906663,-0.0076824540659126755,4.4877828951197944e-05,nan,nan,nan,nan
16.446273803710938,0.11326155,0.13231577,-2.6992185,0.000795278940865226,nan,nan,nan,nan,nan,6.443532943725586,7.643532943725586,0.005467891693115234,nan,nan,nan,nan,0.7261148152703851,0.0773113688518486,-0.009896701083263716,-0.00035608220309795845,nan,nan,nan,nan
16.562947273254395,0.1084784,0.09801391,-2.7037964,0.00191039452808155,nan,nan,nan,nan,nan,6.560186386108398,7.760186386108399,0.0053217411041259766,nan,nan,nan,nan,0.7259550694996395,0.0846979274007631,-0.011754434307540612,-0.0007811411838087469,nan,nan,nan,nan
16.653714895248413,0.107120894,0.06747742,-2.7079363,0.002817478992703808,nan,nan,nan,nan,nan,6.651029825210571,7.8510298252105715,0.006026268005371094,nan,nan,nan,nan,0.7257807104395405,0.09596122720937104,-0.007748621473488855,-0.0013153808549805485,nan,nan,nan,nan
16.762259006500244,0.10304305,0.021709315,-2.711601,0.003834874552794582,nan,nan,nan,nan,nan,6.759511470794678,7.959511470794678,0.005801200866699219,nan,nan,nan,nan,0.7256635630886555,0.10991438002282947,-0.006208810676570224,-0.0018945426251304944,nan,nan,nan,nan
16.856999397277832,0.09639473,-0.028736474,-2.7100108,0.004274923436415005,nan,nan,nan,nan,nan,6.854335069656372,8.054335069656371,0.006734132766723633,nan,nan,nan,nan,0.7257257434895276,0.11802817785860706,-0.007884618039605025,-0.0022802426082106273,nan,nan,nan,nan
16.9473078250885,0.0899857,-0.07005136,-2.7174602,0.004568308954613828,nan,nan,nan,nan,nan,6.944549798965454,8.144549798965453,0.005301952362060547,nan,nan,nan,nan,0.7255427637308688,0.12351564270631168,-0.010022999162157832,-0.002415616378368473,nan,nan,nan,nan
17.06028461456299,0.08332403,-0.10995609,-2.7242606,0.004743525275731899,nan,nan,nan,nan,nan,7.057538270950317,8.257538270950317,0.00590968132019043,nan,nan,nan,nan,0.7250725421602964,0.1195996440454286,-0.011821122350780129,-0.0025542889164357797,nan,nan,nan,nan
17.151062726974487,0.077306576,-0.14707343,-2.7304368,0.0049662523360695515,nan,nan,nan,nan,nan,7.148447513580322,8.348447513580322,0.005239009857177734,nan,nan,nan,nan,0.7248349767019144,0.10696610826517086,-0.011166224558478334,-0.002673701087319998,nan,nan,nan,nan
17.262396097183228,0.073054835,-0.1815733,-2.7396915,0.005299105084547822,nan,nan,nan,nan,nan,7.25964093208313,8.45964093208313,0.005678653717041016,nan,nan,nan,nan,0.724431649863669,0.0794787576559065,-0.006953498954392861,-0.0029446346427554754,nan,nan,nan,nan
17.361348867416382,0.06979791,-0.19879125,-2.7435684,0.005442793276278161,nan,nan,nan,nan,nan,7.3586907386779785,8.558690738677978,0.005694866180419922,nan,nan,nan,nan,0.7241602608942325,0.07215819926152679,-0.005192260256169457,-0.003042883170360006,nan,nan,nan,nan
17.4608371257782,0.061135747,-0.21548344,-2.747861,0.0054766354813992335,nan,nan,nan,nan,nan,7.458086729049683,8.658086729049682,0.0065190792083740234,nan,nan,nan,nan,0.7240700216261654,0.03483107725052654,-0.004653540778421218,-0.0032831629157799368,nan,nan,nan,nan
17.55649495124817,0.052705307,-0.2217411,-2.7477524,0.005164240211031332,nan,nan,nan,nan,nan,7.553746700286865,8.753746700286865,0.006762027740478516,nan,nan,nan,nan,0.7240430615687284,0.01198992966916306,-0.007119125335039753,-0.003145014426130438,nan,nan,nan,nan
17.648659229278564,0.04807699,-0.2198465,-2.7447174,0.0048202971544111725,nan,nan,nan,nan,nan,7.645907640457153,8.845907640457153,0.0052640438079833984,nan,nan,nan,nan,0.7241968332574527,-0.005324799436583903,-0.007371742336569099,-0.0029408733881849123,nan,nan,nan,nan
17.76160192489624,0.047671143,-0.21493326,-2.7392352,0.004426529744203815,nan,nan,nan,nan,nan,7.7588701248168945,8.958870124816894,0.005997180938720703,nan,nan,nan,nan,0.7245044545888415,-0.03141329619191708,-0.0017211594402772002,-0.002781761409721585,nan,nan,nan,nan
17.852710008621216,0.043417465,-0.19617085,-2.724708,0.0036402139793011296,nan,nan,nan,nan,nan,7.850192070007324,9.050192070007324,0.0050656795501708984,nan,nan,nan,nan,0.7250652324829474,-0.060306986365990335,0.002477176363897621,-0.0024871950075635975,nan,nan,nan,nan
17.963059186935425,0.048785906,-0.1722012,-2.7098007,0.002878415633769338,nan,nan,nan,nan,nan,7.960531711578369,9.160531711578368,0.005712985992431641,nan,nan,nan,nan,0.7256666702780797,-0.0810006149523251,0.008892640235154303,-0.0021310182993396778,nan,nan,nan,nan
18.056029796600342,0.052721895,-0.15372527,-2.7021108,0.0025948442728085143,nan,nan,nan,nan,nan,8.053362131118774,9.253362131118774,0.006373167037963867,nan,nan,nan,nan,0.7258568429617871,-0.0843783172056848,0.01390860258783805,-0.0019295676963499747,nan,nan,nan,nan
18.15034294128418,0.057538927,-0.11450982,-2.690237,0.002386010282434778,nan,nan,nan,nan,nan,8.147599935531616,9.347599935531616,0.005192756652832031,nan,nan,nan,nan,0.726315472793475,-0.10492262991202438,0.019475898242436222,-0.0017432558414049366,nan,nan,nan,nan
18.24489116668701,0.055615235,-0.075600214,-2.6799145,0.0021347581232893306,nan,nan,nan,nan,nan,8.242151498794556,9.442151498794555,0.0067174434661865234,nan,nan,nan,nan,0.7265424907442548,-0.11282118312693519,0.015515022873515357,-0.0015885815672379002,nan,nan,nan,nan
18.35887050628662,0.049717057,-0.032490652,-2.6665308,0.0014444890936487808,nan,nan,nan,nan,nan,8.356142282485962,9.556142282485961,0.00723576545715332,nan,nan,nan,nan,0.7269206046552711,-0.11880331454066542,0.006727277414187512,-0.001277312448979021,nan,nan,nan,nan
18.449772834777832,0.048495635,-0.002696429,-2.6584847,0.0008767088192316644,nan,nan,nan,nan,nan,8.4470374584198,9.647037458419799,0.005070686340332031,nan,nan,nan,nan,0.7271759594205269,-0.12067245125753724,0.0019195815862602234,-0.0010075806197914609,nan,nan,nan,nan
18.546376943588257,0.047096685,0.045607675,-2.6423938,9.111722740919818e-05,nan,nan,nan,nan,nan,8.543632507324219,9.743632507324218,0.005606412887573242,nan,nan,nan,nan,0.7275552013483882,-0.10972630668765374,0.00046924968087050075,-0.00045364952327962626,nan,nan,nan,nan
18.661423683166504,0.045619585,0.08823794,-2.6229606,-0.00045547468917326965,nan,nan,nan,nan,nan,8.658694505691528,9.858694505691528,0.0060350894927978516,nan,nan,nan,nan,0.7282280771634121,-0.10039906370633653,-0.0025291640703971816,-0.00012151002460527036,nan,nan,nan,nan
18.75612235069275,0.047183372,0.12163696,-2.6088266,-0.001000815196543433,nan,nan,nan,nan,nan,8.753775119781494,9.953775119781493,0.008037328720092773,nan,nan,nan,nan,0.7287081203689091,-0.0916756852246743,-0.0011353509237479727,0.00012170915836318605,nan,nan,nan,nan
18.8514244556427,0.04469067,0.14725497,-2.598042,-0.0012368375788442583,nan,nan,nan,nan,nan,8.848732471466064,10.048732471466064,0.005072593688964844,nan,nan,nan,nan,0.7291394281501656,-0.07914518206222901,-0.000956137393694989,0.00044247079106141997,nan,nan,nan,nan
18.946134328842163,0.04567291,0.17142661,-2.585803,-0.001404815875159223,nan,nan,nan,nan,nan,8.943404912948608,10.143404912948608,0.0058002471923828125,nan,nan,nan,nan,0.7295728253663596,-0.058433175110545174,-0.0023443376673713216,0.000596045134896327,nan,nan,nan,nan
19.05824303627014,0.05305058,0.1907184,-2.568351,-0.0017857459200213144,nan,nan,nan,nan,nan,9.05550503730774,10.255505037307739,0.006413936614990234,nan,nan,nan,nan,0.7299640640077193,-0.04152774767940618,0.003939496747578543,0.0008475584239150786,nan,nan,nan,nan
19.149165868759155,0.057052594,0.19992082,-2.552877,-0.0021312026947231492,nan,nan,nan,nan,nan,9.146411180496216,10.346411180496215,0.0051441192626953125,nan,nan,nan,nan,0.7304420349176403,-0.003678180040299645,0.007136289352524012,0.0011414739321769386,nan,nan,nan,nan
19.262951135635376,0.06923206,0.19986853,-2.538357,-0.0025912669367856613,nan,nan,nan,nan,nan,9.260213136672974,10.460213136672973,0.0055201053619384766,nan,nan,nan,nan,0.7308802568668689,0.021745410241966887,0.013002220569455249,0.0015211191518437145,nan,nan,nan,nan
19.343047380447388,0.0764673,0.19297862,-2.5357718,-0.0026392725653243965,nan,nan,nan,nan,nan,9.340317726135254,10.540317726135253,0.00914907455444336,nan,nan,nan,nan,0.7309802498884561,0.03818619892229884,0.016568720120697118,0.0016646769003500531,nan,nan,nan,nan
19.457392930984497,0.08523897,0.18103518,-2.53144,-0.0025446313688729516,nan,nan,nan,nan,nan,9.454687356948853,10.654687356948852,0.006643533706665039,nan,nan,nan,nan,0.7310102885697135,0.056032554385774196,0.018647713182865133,0.001701829415672399,nan,nan,nan,nan
19.55043315887451,0.09538161,0.15878262,-2.5241551,-0.0025414558792249374,nan,nan,nan,nan,nan,9.547684669494629,10.747684669494628,0.005238533020019531,nan,nan,nan,nan,0.7311114678463388,0.06841456349935472,0.01763859670912333,0.0016904365814618212,nan,nan,nan,nan
19.647767305374146,0.10033385,0.1379647,-2.5179336,-0.0026328402805771284,nan,nan,nan,nan,nan,9.645036697387695,10.845036697387695,0.005927085876464844,nan,nan,nan,nan,0.7314070324137578,0.07334964393627928,0.01498175340110271,0.001919565710627259,nan,nan,nan,nan
19.758511781692505,0.10730832,0.1093562,-2.5119436,-0.0028320267205740914,nan,nan,nan,nan,nan,9.755764484405518,10.955764484405517,0.007130861282348633,nan,nan,nan,nan,0.7316714007142188,0.08377864747701826,0.009203933622648867,0.002096295924298518,nan,nan,nan,nan
19.856616973876953,0.11421067,0.07135661,-2.5066335,-0.002966398308322413,nan,nan,nan,nan,nan,9.8539137840271,11.053913784027099,0.005723476409912109,nan,nan,nan,nan,0.7318241043634717,0.0889844541441212,0.003067177602392374,0.002096857775518946,nan,nan,nan,nan
19.955585956573486,0.1175843,0.038226593,-2.5002475,-0.002941720766034903,nan,nan,nan,nan,nan,9.952992677688599,11.152992677688598,0.0054111480712890625,nan,nan,nan,nan,0.7320355802888048,0.08985936374735758,-0.0010906536876905174,0.002236367238102,nan,nan,nan,nan
20.05902886390686,0.117601685,0.007419331,-2.4935093,-0.002819611514541033,nan,nan,nan,nan,nan,10.056365966796875,11.256365966796874,0.007314920425415039,nan,nan,nan,nan,0.7323721377012954,0.09229129420133846,-0.004228536922939282,0.002356109093047297,nan,nan,nan,nan
20.154009103775024,0.11241956,-0.027704949,-2.4863791,-0.002489294996038296,nan,nan,nan,nan,nan,10.151293516159058,11.351293516159057,0.005106925964355469,nan,nan,nan,nan,0.7326404673628785,0.08826009584019867,-0.013433040620607649,0.002107428274171237,nan,nan,nan,nan
20.24895977973938,0.09963726,-0.05235387,-2.481632,-0.0024173625940549703,nan,nan,nan,nan,nan,10.246210098266602,11.4462100982666,0.006230592727661133,nan,nan,nan,nan,0.7328236443188638,0.08396423270876968,-0.022877266097005,0.0021055087752716336,nan,nan,nan,nan
20.359954118728638,0.08260099,-0.08885356,-2.4837346,-0.0024718512598176593,nan,nan,nan,nan,nan,10.357225894927979,11.557225894927978,0.008291006088256836,nan,nan,nan,nan,0.7328172207697081,0.07560544678804326,-0.034601851424741974,0.002136295419324244,nan,nan,nan,nan
20.452362298965454,0.06830262,-0.11651686,-2.4844596,-0.0025500162260074233,nan,nan,nan,nan,nan,10.449605703353882,11.649605703353881,0.005002260208129883,nan,nan,nan,nan,0.7326968489534228,0.0742997812359811,-0.038307878583088956,0.0022029844500097997,nan,nan,nan,nan
20.5610408782959,0.050013013,-0.14643168,-2.4809222,-0.0026699647400325703,nan,nan,nan,nan,nan,10.558309078216553,11.758309078216552,0.007546424865722656,nan,nan,nan,nan,0.732892170449814,0.06771324426991601,-0.038690465610151145,0.0022097286353158965,nan,nan,nan,nan
20.65131664276123,0.034541097,-0.16661502,-2.4751122,-0.0029004463937763354,nan,nan,nan,nan,nan,10.648560047149658,11.848560047149657,0.005151271820068359,nan,nan,nan,nan,0.7331360129897982,0.04917213944940632,-0.03397349333219269,0.002089691996449907,nan,nan,nan,nan
20.75135612487793,0.026603812,-0.1773201,-2.475255,-0.003133707896581791,nan,nan,nan,nan,nan,10.74861764907837,11.948617649078368,0.0052700042724609375,nan,nan,nan,nan,0.7333146737689351,0.04325405446518253,-0.027422653610385317,0.0022938088116279958,nan,nan,nan,nan
20.850653886795044,0.015973065,-0.18639317,-2.4672656,-0.003237843335928789,nan,nan,nan,nan,nan,10.847894191741943,12.047894191741943,0.006855964660644531,nan,nan,nan,nan,0.7333353418079669,0.016016175547662503,-0.01491649395528627,0.0021951982206487586,nan,nan,nan,nan
20.94929075241089,0.011424935,-0.18865895,-2.4614904,-0.003046212611365475,nan,nan,nan,nan,nan,10.94654893875122,12.14654893875122,0.005523681640625,nan,nan,nan,nan,0.7337200244902182,0.004443036750586308,-0.00669456113965673,0.0020936724429211537,nan,nan,nan,nan
21.06138777732849,0.007950488,-0.18812042,-2.4544933,-0.002609951500734238,nan,nan,nan,nan,nan,11.058646440505981,12.25864644050598,0.009301185607910156,nan,nan,nan,nan,0.7339969128301294,-0.013343067392646162,0.005287332616426802,0.0016885996876319404,nan,nan,nan,nan
21.158008575439453,0.0045138136,-0.17288017,-2.4480639,-0.0021766275646439744,nan,nan,nan,nan,nan,11.155439138412476,12.355439138412475,0.006619930267333984,nan,nan,nan,nan,0.7341122170819673,-0.040171430297828145,0.013819788943404073,0.0013497855586904058,nan,nan,nan,nan
21.25308871269226,0.0018897634,-0.15490273,-2.455766,-0.0019657661730653614,nan,nan,nan,nan,nan,11.250360250473022,12.450360250473022,0.0052814483642578125,nan,nan,nan,nan,0.7339464114020382,-0.051997307739294694,0.016164391814957147,0.001177820857826948,nan,nan,nan,nan
21.347859144210815,0.0046751266,-0.13464686,-2.4612908,-0.0020019820295320047,nan,nan,nan,nan,nan,11.345140933990479,12.545140933990478,0.0056302547454833984,nan,nan,nan,nan,0.7335325032553149,-0.06721484128564417,0.018104012155011045,0.0010766545450054687,nan,nan,nan,nan
21.461719036102295,0.009643341,-0.10266546,-2.4707794,-0.002037849432241258,nan,nan,nan,nan,nan,11.458978652954102,12.6589786529541,0.00941014289855957,nan,nan,nan,nan,0.7330563514773418,-0.08412254414620701,0.024422384579511767,0.001057421352844057,nan,nan,nan,nan
21.545198678970337,0.012426909,-0.07846199,-2.4797316,-0.0021396752990458547,nan,nan,nan,nan,nan,11.542486906051636,12.742486906051635,0.008165121078491211,nan,nan,nan,nan,0.7326315892388647,-0.0915341546048755,0.025034508856127888,0.0011326541490853867,nan,nan,nan,nan
21.662070989608765,0.016216675,-0.040704224,-2.4956853,-0.002180728262357533,nan,nan,nan,nan,nan,11.659433364868164,12.859433364868163,0.007379293441772461,nan,nan,nan,nan,0.7318759240371736,-0.09785053353317577,0.022810026148304262,0.00117884405921522,nan,nan,nan,nan
21.75379467010498,0.020105494,-0.003018892,-2.5125563,-0.0020829418190312582,nan,nan,nan,nan,nan,11.751047134399414,12.951047134399413,0.005262136459350586,nan,nan,nan,nan,0.7310639935842032,-0.0994127875107557,0.01833203654437119,0.001215762299983606,nan,nan,nan,nan
21.848249435424805,0.02617514,0.02312508,-2.525249,-0.001967979229025738,nan,nan,nan,nan,nan,11.84553050994873,13.04553050994873,0.005739927291870117,nan,nan,nan,nan,0.7305363596909551,-0.10366976661387736,0.016550689942559215,0.00104073166656504,nan,nan,nan,nan
21.956799507141113,0.036921278,0.06165579,-2.5452156,-0.0017972686372417857,nan,nan,nan,nan,nan,11.954300880432129,13.154300880432128,0.005387306213378906,nan,nan,nan,nan,0.7298076830592072,-0.10311714692013459,0.018163013796131406,0.0008956897937579457,nan,nan,nan,nan
22.049516677856445,0.043466378,0.09529181,-2.5642016,-0.0017235995859087323,nan,nan,nan,nan,nan,12.046786785125732,13.246786785125732,0.0055103302001953125,nan,nan,nan,nan,0.729047914585868,-0.08525380304665342,0.014060659057228815,0.0008778782778353803,nan,nan,nan,nan
22.14365315437317,0.04903277,0.11944908,-2.5791564,-0.001458481417300369,nan,nan,nan,nan,nan,12.1409170627594,13.340917062759399,0.00852060317993164,nan,nan,nan,nan,0.7285642278972356,-0.08658754445466871,0.011780117494482874,0.0007108724907358016,nan,nan,nan,nan
22.260064363479614,0.051450532,0.14451528,-2.5950823,-0.0011355807437242633,nan,nan,nan,nan,nan,12.257397890090942,13.457397890090942,0.006152153015136719,nan,nan,nan,nan,0.7279136707213021,-0.06969145183515833,0.004907690746582233,0.00043360551427767805,nan,nan,nan,nan
22.355318069458008,0.05325294,0.15503827,-2.6048417,-0.0011016414102082601,nan,nan,nan,nan,nan,12.352599620819092,13.552599620819091,0.004959821701049805,nan,nan,nan,nan,0.7275788486093911,-0.03729545454114555,-0.002532454254794223,0.00037749542535564414,nan,nan,nan,nan
22.449930906295776,0.054356016,0.15736452,-2.612144,-0.0012799905314895554,nan,nan,nan,nan,nan,12.447191715240479,13.647191715240478,0.00564265251159668,nan,nan,nan,nan,0.7274505013086784,-0.031496284647457136,-0.004189248019665892,0.0004226374985466352,nan,nan,nan,nan
22.555755615234375,0.054126896,0.15529905,-2.6252244,-0.0014718061658290198,nan,nan,nan,nan,nan,12.55310583114624,13.75310583114624,0.005276918411254883,nan,nan,nan,nan,0.7270769282386195,-0.00201077900444947,-0.008067426987451718,0.0006232526250439564,nan,nan,nan,nan
22.65032720565796,0.05406678,0.14107646,-2.633877,-0.001444275152994095,nan,nan,nan,nan,nan,12.64758038520813,13.84758038520813,0.00533294677734375,nan,nan,nan,nan,0.7267942003847828,0.03487384090788867,-0.010059805292607549,0.0007664618568180972,nan,nan,nan,nan
22.76152753829956,0.053449705,0.12769617,-2.6417446,-0.0014601330402844413,nan,nan,nan,nan,nan,12.758775234222412,13.958775234222411,0.00674748420715332,nan,nan,nan,nan,0.726540233857907,0.05760834835671122,-0.01100086683596392,0.0008325481186934796,nan,nan,nan,nan
22.854039907455444,0.05334224,0.103502266,-2.6560805,-0.001075179725020154,nan,nan,nan,nan,nan,12.85128402709961,14.051284027099609,0.0050432682037353516,nan,nan,nan,nan,0.7262182215332815,0.06950776985331888,-0.010672815628153528,0.0007877652344235182,nan,nan,nan,nan
22.946407318115234,0.05445786,0.081361584,-2.6666298,-0.0005270272472980633,nan,nan,nan,nan,nan,12.943679571151733,14.143679571151733,0.006563663482666016,nan,nan,nan,nan,0.7257600015224078,0.07739751515254295,-0.00920921000790563,0.0005614724904728363,nan,nan,nan,nan
23.043778657913208,0.0608312,0.042642586,-2.6758728,0.00024670062142488625,nan,nan,nan,nan,nan,13.041046380996704,14.241046380996703,0.007116794586181641,nan,nan,nan,nan,0.7254633757526211,0.09592652925091764,-0.0017118938115810484,0.00023355116036603455,nan,nan,nan,nan
23.16110348701477,0.065496214,0.012639577,-2.6841676,0.0005195869266098416,nan,nan,nan,nan,nan,13.15843391418457,14.35843391418457,0.006296873092651367,nan,nan,nan,nan,0.7251659643084575,0.10038901665173156,0.002764169462148163,-1.764564067386749e-05,nan,nan,nan,nan
23.26146101951599,0.069359384,-0.02418096,-2.688878,0.0005407102650583587,nan,nan,nan,nan,nan,13.258995771408081,14.45899577140808,0.007512807846069336,nan,nan,nan,nan,0.7250288724674792,0.10000604662683231,0.004339395936230728,-6.860617208732079e-05,nan,nan,nan,nan
23.357145071029663,0.07103457,-0.05157971,-2.6892061,0.00046462117515435404,nan,nan,nan,nan,nan,13.354576826095581,14.55457682609558,0.00547480583190918,nan,nan,nan,nan,0.7249574652123305,0.10059785327094621,0.004122141781142645,1.108561737910903e-05,nan,nan,nan,nan
23.446949005126953,0.07202183,-0.07297248,-2.6893609,0.00036929948089089266,nan,nan,nan,nan,nan,13.444206237792969,14.644206237792968,0.00661468505859375,nan,nan,nan,nan,0.7249330763234428,0.09903928919559066,0.0029860289920717853,0.00011328880982782974,nan,nan,nan,nan
23.55411696434021,0.0734616,-0.10321,-2.6879585,2.7233209812124043e-05,nan,nan,nan,nan,nan,13.551361322402954,14.751361322402953,0.0054857730865478516,nan,nan,nan,nan,0.7249946340476947,0.0908328959106461,0.0010113142619658957,0.0003117726186709792,nan,nan,nan,nan
23.661514282226562,0.07898683,-0.13479933,-2.6870208,-0.0003530707268196622,nan,nan,nan,nan,nan,13.658777236938477,14.858777236938476,0.006719827651977539,nan,nan,nan,nan,0.7251657914192446,0.07194537348514689,0.001521485314656535,0.0005479090831764492,nan,nan,nan,nan
23.739222288131714,0.08706722,-0.15546945,-2.6899474,-0.0004774432464568247,nan,nan,nan,nan,nan,13.73654818534851,14.93654818534851,0.006433963775634766,nan,nan,nan,nan,0.7251205858635945,0.06575572047010093,0.004718791171830974,0.0006982665978999335,nan,nan,nan,nan
23.857450008392334,0.09348394,-0.17614456,-2.6931255,-0.00033499921596514756,nan,nan,nan,nan,nan,13.854800701141357,15.054800701141357,0.005170345306396484,nan,nan,nan,nan,0.7248734381579348,0.06611486329997587,0.0096870960879713,0.0005994705367702406,nan,nan,nan,nan
23.953201055526733,0.09665796,-0.19440642,-2.6951354,-2.0850767143042875e-05,nan,nan,nan,nan,nan,13.950474262237549,15.150474262237548,0.005353450775146484,nan,nan,nan,nan,0.7248339746927207,0.04010768150645039,0.007984516732290396,0.0003581605686868334,nan,nan,nan,nan
24.04624104499817,0.09775475,-0.20589255,-2.6949975,9.574456436682588e-05,nan,nan,nan,nan,nan,14.043490648269653,15.243490648269653,0.007903814315795898,nan,nan,nan,nan,0.7247661144502907,0.038194226935512145,0.005183175248781691,0.00027296323952109164,nan,nan,nan,nan
24.16290855407715,0.097075276,-0.20860237,-2.695898,0.00025598220343705375,nan,nan,nan,nan,nan,14.160167455673218,15.360167455673217,0.006806612014770508,nan,nan,nan,nan,0.724749382546101,0.018202654183444515,-0.0007253416732254411,0.00018799917159741957,nan,nan,nan,nan
24.256269216537476,0.09692115,-0.20325845,-2.6949885,0.000298422948794317,nan,nan,nan,nan,nan,14.253589630126953,15.453589630126952,0.0051424503326416016,nan,nan,nan,nan,0.7249042375219794,-0.01713370919849531,-0.005880880673179426,-6.458710723962182e-06,nan,nan,nan,nan
24.349605560302734,0.09750129,-0.19536094,-2.692418,6.072307442315031e-05,nan,nan,nan,nan,nan,14.346848964691162,15.546848964691161,0.006532192230224609,nan,nan,nan,nan,0.7249071446476767,-0.026145527578288228,-0.006680453741444105,7.998205082031637e-05,nan,nan,nan,nan
24.44326615333557,0.09816548,-0.17973517,-2.6881127,-0.00019462815582698897,nan,nan,nan,nan,nan,14.440932989120483,15.640932989120483,0.007325172424316406,nan,nan,nan,nan,0.725192921401512,-0.050142928309863076,-0.006337656614211881,0.00011912018983577214,nan,nan,nan,nan
24.539421796798706,0.099175334,-0.16182028,-2.685956,-0.0004224175711986071,nan,nan,nan,nan,nan,14.536664485931396,15.736664485931396,0.006015777587890625,nan,nan,nan,nan,0.7252775533212882,-0.0624403449168938,-0.005306843357241454,0.00018174536293378727,nan,nan,nan,nan
24.657166957855225,0.09604974,-0.13087814,-2.6759672,-0.0008617621621634375,nan,nan,nan,nan,nan,14.654442310333252,15.854442310333251,0.0054242610931396484,nan,nan,nan,nan,0.7256781435979495,-0.0861544873648236,-0.0061569978565887105,0.0003638492401582035,nan,nan,nan,nan
24.746805906295776,0.085161164,-0.09735224,-2.6655812,-0.0011974291407889325,nan,nan,nan,nan,nan,14.744080781936646,15.944080781936645,0.006820201873779297,nan,nan,nan,nan,0.7261692845963843,-0.10069899685178006,-0.011013880724628373,0.0005966222614169657,nan,nan,nan,nan
24.858003854751587,0.07270748,-0.05858294,-2.6537132,-0.001326739634717463,nan,nan,nan,nan,nan,14.855278968811035,16.055278968811034,0.0050275325775146484,nan,nan,nan,nan,0.7267717903802112,-0.10888828489714283,-0.020354412163805746,0.0007288626188664384,nan,nan,nan,nan
24.96202063560486,0.0633729,-0.022417229,-2.64278,-0.0012974266928495333,nan,nan,nan,nan,nan,14.959307432174683,16.159307432174682,0.005982398986816406,nan,nan,nan,nan,0.7272199840389849,-0.11347297748356985,-0.022373535902721734,0.0006649763183171188,nan,nan,nan,nan
25.056883335113525,0.0570498,0.00684254,-2.6347964,-0.0012003089483886321,nan,nan,nan,nan,nan,15.05422067642212,16.25422067642212,0.0057659149169921875,nan,nan,nan,nan,0.727467928647356,-0.11611981405955149,-0.02134126570681718,0.0005620960717201554,nan,nan,nan,nan
25.16287589073181,0.050571036,0.04895719,-2.6189618,-0.0009685157387657201,nan,nan,nan,nan,nan,15.160457611083984,16.360457611083984,0.011214971542358398,nan,nan,nan,nan,0.7280156184025446,-0.10165027536339104,-0.013812028416647637,0.00040713359109353063,nan,nan,nan,nan
25.25054121017456,0.046415865,0.07298495,-2.6108675,-0.0007454382501786427,nan,nan,nan,nan,nan,15.247812986373901,16.4478129863739,0.006277799606323242,nan,nan,nan,nan,0.7283916176492179,-0.09111040615536681,-0.008067098196990644,0.0003240099093880848,nan,nan,nan,nan
25.35063862800598,0.0431321,0.094960794,-2.6041727,-0.0005372058538054558,nan,nan,nan,nan,nan,15.347933053970337,16.547933053970336,0.0056912899017333984,nan,nan,nan,nan,0.7286408815927768,-0.0854976361815944,-0.004170621974509851,0.00025412238312995947,nan,nan,nan,nan
25.445199728012085,0.04047484,0.121291906,-2.5966444,-0.00030313158457570197,nan,nan,nan,nan,nan,15.442493915557861,16.64249391555786,0.00592350959777832,nan,nan,nan,nan,0.7289120003794588,-0.055798430340515195,0.0029853409865225828,0.00011580259338007493,nan,nan,nan,nan
25.562989234924316,0.038773067,0.14443685,-2.5873754,-8.41589041651776e-05,nan,nan,nan,nan,nan,15.560313940048218,16.760313940048217,0.007256984710693359,nan,nan,nan,nan,0.7292540082703283,-0.03753435016986568,0.007640673487374509,1.659077643190572e-05,nan,nan,nan,nan
25.655067443847656,0.040782608,0.15478583,-2.584191,-8.971929487323893e-05,nan,nan,nan,nan,nan,15.652310609817505,16.852310609817504,0.0055539608001708984,nan,nan,nan,nan,0.7294882328516556,-0.030775038612829774,0.010951702542948059,7.256448680735592e-05,nan,nan,nan,nan
25.755123138427734,0.043685008,0.16517377,-2.5767713,-0.00010236090842626056,nan,nan,nan,nan,nan,15.752376794815063,16.952376794815063,0.005285501480102539,nan,nan,nan,nan,0.7297467076842736,-0.005684495701918001,0.015804934098983488,4.836287732648873e-05,nan,nan,nan,nan
25.849021434783936,0.043805353,0.16714658,-2.5713732,-0.00019313564332943886,nan,nan,nan,nan,nan,15.846293449401855,17.046293449401855,0.009135246276855469,nan,nan,nan,nan,0.7300711362646555,0.002677125876945796,0.017876086957704,0.00021280766173310055,nan,nan,nan,nan
25.947908401489258,0.040340487,0.16427147,-2.5659456,-0.0002912836232944957,nan,nan,nan,nan,nan,15.945252418518066,17.145252418518066,0.006531476974487305,nan,nan,nan,nan,0.7304126712589019,0.02646187586487701,0.011554095497648947,0.00019882456747355524,nan,nan,nan,nan
26.055065155029297,0.041539457,0.15109637,-2.5512471,-0.0006768596913898119,nan,nan,nan,nan,nan,16.05233383178711,17.25233383178711,0.005363941192626953,nan,nan,nan,nan,0.7309131944759392,0.04551816704393967,0.007866695635089179,0.00031828610748233817,nan,nan,nan,nan
26.152710437774658,0.04458413,0.13523258,-2.541462,-0.0010865437976322716,nan,nan,nan,nan,nan,16.149998426437378,17.349998426437377,0.005528926849365234,nan,nan,nan,nan,0.7313975795967991,0.05819051237761852,0.006896108798769192,0.0006642893858231955,nan,nan,nan,nan
26.25649356842041,0.045042474,0.10485354,-2.5330195,-0.0016380437340398797,nan,nan,nan,nan,nan,16.253732204437256,17.453732204437255,0.005245208740234375,nan,nan,nan,nan,0.7318280095058511,0.08408762104706395,0.004747507634568288,0.0010173616381008305,nan,nan,nan,nan
26.36246085166931,0.044404257,0.08070888,-2.5288439,-0.0017921710827892637,nan,nan,nan,nan,nan,16.35973072052002,17.55973072052002,0.006003618240356445,nan,nan,nan,nan,0.7320325345945882,0.09389003415272458,0.00040516934294887295,0.0012502701761232674,nan,nan,nan,nan
26.447763919830322,0.046222057,0.042552844,-2.5198717,-0.001897323297836994,nan,nan,nan,nan,nan,16.445282697677612,17.64528269767761,0.007487773895263672,nan,nan,nan,nan,0.7323001827878571,0.10375104644152063,-0.0014998609733734357,0.0013458798798297819,nan,nan,nan,nan
26.547438859939575,0.051254977,0.00662268,-2.509757,-0.0018652167500061625,nan,nan,nan,nan,nan,16.54469108581543,17.74469108581543,0.00662684440612793,nan,nan,nan,nan,0.7327250209066024,0.11354445362558953,0.00025145902285471616,0.0014642843507608572,nan,nan,nan,nan
26.658573865890503,0.04926926,-0.036284313,-2.496329,-0.0018597859948769144,nan,nan,nan,nan,nan,16.655863761901855,17.855863761901855,0.005078792572021484,nan,nan,nan,nan,0.733289020573759,0.11431674644420887,-0.00036387033358700705,0.00131304322588231,nan,nan,nan,nan
26.7544105052948,0.048238717,-0.06532346,-2.4883904,-0.0018464424835646317,nan,nan,nan,nan,nan,16.751664638519287,17.951664638519286,0.005295515060424805,nan,nan,nan,nan,0.7337098105265577,0.11402200960582856,-0.004675682640153146,0.0014799517973235106,nan,nan,nan,nan
26.862751007080078,0.04865892,-0.10473967,-2.479765,-0.0016771575619290349,nan,nan,nan,nan,nan,16.860350131988525,18.060350131988525,0.005949258804321289,nan,nan,nan,nan,0.7340348854867493,0.10163488697191038,-0.005702004699862415,0.0014424901343294426,nan,nan,nan,nan
26.95384454727173,0.048340484,-0.14413811,-2.47193,-0.0012877974837950008,nan,nan,nan,nan,nan,16.95114016532898,18.15114016532898,0.006069183349609375,nan,nan,nan,nan,0.734290150400773,0.08726022840800424,-0.00518571763265623,0.0011991512528733124,nan,nan,nan,nan
27.048529624938965,0.050154246,-0.16488852,-2.4691906,-0.0012146756097691953,nan,nan,nan,nan,nan,17.04578447341919,18.24578447341919,0.006301403045654297,nan,nan,nan,nan,0.7345534939335128,0.08534323136527294,-0.0035525646205868885,0.0011011378546356288,nan,nan,nan,nan
27.15852189064026,0.050751433,-0.19501226,-2.4698057,-0.0010076709367565634,nan,nan,nan,nan,nan,17.155803203582764,18.355803203582763,0.005215883255004883,nan,nan,nan,nan,0.7345906861150912,0.0654148487272697,-0.0009783275191370408,0.0009416211941027181,nan,nan,nan,nan
27.255298614501953,0.05227308,-0.21993816,-2.4727497,-0.0005844844816936083,nan,nan,nan,nan,nan,17.252540588378906,18.452540588378906,0.0052182674407958984,nan,nan,nan,nan,0.7343950761850122,0.03840935435869265,-0.0008549558927644099,0.0006644790612699556,nan,nan,nan,nan
27.349390268325806,0.054162867,-0.2301027,-2.4741988,-0.0003195897522644056,nan,nan,nan,nan,nan,17.34663987159729,18.54663987159729,0.0068225860595703125,nan,nan,nan,nan,0.734476481077017,0.034275553145763395,0.0013152430097241512,0.00045442078732138834,nan,nan,nan,nan
27.442508697509766,0.058431163,-0.23327705,-2.4680026,0.00012437725620173534,nan,nan,nan,nan,nan,17.43980646133423,18.639806461334228,0.008192777633666992,nan,nan,nan,nan,0.7345199399112318,-0.0033846259976068735,0.005104017029582115,8.664780351087712e-05,nan,nan,nan,nan
27.562926769256592,0.054023545,-0.22733572,-2.4626665,0.00027935236120327916,nan,nan,nan,nan,nan,17.560216903686523,18.760216903686523,0.006358623504638672,nan,nan,nan,nan,0.7347774529775766,-0.028627417742623996,0.002570695434108732,-0.00011282819517453249,nan,nan,nan,nan
27.6586971282959,0.049107637,-0.21882074,-2.4654737,0.00024434581972601274,nan,nan,nan,nan,nan,17.655937671661377,18.855937671661376,0.00516057014465332,nan,nan,nan,nan,0.7348528087250531,-0.03954739127934901,-0.0016214430615075917,-0.00013442995109201887,nan,nan,nan,nan
27.759052991867065,0.04366663,-0.19667308,-2.473977,0.00010167254108476437,nan,nan,nan,nan,nan,17.75643229484558,18.95643229484558,0.0066432952880859375,nan,nan,nan,nan,0.7345080102578057,-0.06069668271318264,-0.007288853758135083,-5.928306397808092e-05,nan,nan,nan,nan
27.863091468811035,0.04082266,-0.17635801,-2.481708,0.00011565318612853648,nan,nan,nan,nan,nan,17.860368967056274,19.060368967056274,0.006402015686035156,nan,nan,nan,nan,0.7341680302568115,-0.07520004003725717,-0.007839771649040782,-7.169478338394427e-05,nan,nan,nan,nan
27.955054998397827,0.03631309,-0.1450819,-2.495256,9.326531467492016e-05,nan,nan,nan,nan,nan,17.952330112457275,19.152330112457275,0.005956172943115234,nan,nan,nan,nan,0.7335802302791686,-0.09155204658635413,-0.008574703437666645,-0.00012674577535648759,nan,nan,nan,nan
28.053906440734863,0.031604238,-0.11498192,-2.5031652,7.40703030456917e-05,nan,nan,nan,nan,nan,18.051260948181152,19.25126094818115,0.006396293640136719,nan,nan,nan,nan,0.7332377589049834,-0.10100124869791233,-0.008955751268856844,-0.00010840816144041693,nan,nan,nan,nan
28.15198516845703,0.027487025,-0.06492228,-2.5104086,-2.4045900616300603e-05,nan,nan,nan,nan,nan,18.14931845664978,19.34931845664978,0.009524822235107422,nan,nan,nan,nan,0.7327843118745291,-0.1140894398300821,-0.008123426092237132,-0.0001663528401467152,nan,nan,nan,nan
28.248705625534058,0.026792292,-0.034286425,-2.5138824,-0.00014448909048337451,nan,nan,nan,nan,nan,18.245962381362915,19.445962381362914,0.006722688674926758,nan,nan,nan,nan,0.732699419046271,-0.12201241010564269,-0.004946694461098256,-6.366618363520503e-05,nan,nan,nan,nan
28.360458612442017,0.02881509,0.010169543,-2.5204585,-0.0004286455886341107,nan,nan,nan,nan,nan,18.357760429382324,19.557760429382324,0.005338191986083984,nan,nan,nan,nan,0.7324772416152847,-0.11915136818388204,0.002025014267040114,8.22629664345235e-05,nan,nan,nan,nan
28.455437660217285,0.029717866,0.057872757,-2.5369294,-0.00037049815016166124,nan,nan,nan,nan,nan,18.45267939567566,19.65267939567566,0.0058100223541259766,nan,nan,nan,nan,0.7318974932954962,-0.1047422086112912,0.005947222174776649,9.660586519668934e-05,nan,nan,nan,nan
28.5483238697052,0.031066226,0.08141334,-2.5484679,-0.0004919423665202989,nan,nan,nan,nan,nan,18.545573711395264,19.745573711395263,0.005613803863525391,nan,nan,nan,nan,0.7314937691025252,-0.10296694043390939,0.007338678717885493,0.00014474035030344324,nan,nan,nan,nan
28.658665895462036,0.033478,0.11929962,-2.5695217,-0.0005048874804005794,nan,nan,nan,nan,nan,18.65591311454773,19.85591311454773,0.005343914031982422,nan,nan,nan,nan,0.7307253145780428,-0.07933833316010105,0.009373693602808363,0.000244609229887286,nan,nan,nan,nan
28.75718879699707,0.036695182,0.14087696,-2.5856156,-0.00035743192155689163,nan,nan,nan,nan,nan,18.75464677810669,19.95464677810669,0.005181074142456055,nan,nan,nan,nan,0.7301635135130446,-0.06826597402903066,0.008849981365380899,0.00017397835709328336,nan,nan,nan,nan
28.852259874343872,0.043151926,0.16721052,-2.6116567,-0.00026242084127282503,nan,nan,nan,nan,nan,18.849521160125732,20.04952116012573,0.0077190399169921875,nan,nan,nan,nan,0.7291338602245604,-0.0428318151363404,0.012916801947350828,8.050894141438332e-05,nan,nan,nan,nan
28.950358152389526,0.044958536,0.17964967,-2.6289334,-4.771961969360014e-05,nan,nan,nan,nan,nan,18.947605848312378,20.147605848312377,0.006704568862915039,nan,nan,nan,nan,0.728607435629032,-0.04138858560046478,0.012433981887047434,0.00011164001908548999,nan,nan,nan,nan
29.061097860336304,0.046794046,0.191337,-2.6547985,0.00044263334609930677,nan,nan,nan,nan,nan,19.058387994766235,20.258387994766235,0.004970550537109375,nan,nan,nan,nan,0.7278557731015486,-0.024879717056906347,0.009644661829417827,-0.0001891635945798771,nan,nan,nan,nan
29.15420937538147,0.049283024,0.19450529,-2.6704333,0.000913754657746374,nan,nan,nan,nan,nan,19.151485919952393,20.351485919952392,0.005674839019775391,nan,nan,nan,nan,0.7271295274779846,0.004128252556846576,0.005608875654956778,-0.0005890137794134111,nan,nan,nan,nan
29.245770692825317,0.05522312,0.18740816,-2.6808379,0.0014981014355751054,nan,nan,nan,nan,nan,19.243072271347046,20.443072271347045,0.00505828857421875,nan,nan,nan,nan,0.7269905823857449,0.024819176076354088,0.00400660557805938,-0.0008907997736482225,nan,nan,nan,nan
29.355704069137573,0.0651994,0.16748315,-2.6881177,0.0014483345128273664,nan,nan,nan,nan,nan,19.352954149246216,20.552954149246215,0.005576372146606445,nan,nan,nan,nan,0.7269574869067196,0.06126371446686226,0.007969745645045458,-0.0008645356767646126,nan,nan,nan,nan
29.44462275505066,0.06993555,0.15104328,-2.6929219,0.0013379742285391759,nan,nan,nan,nan,nan,19.441890478134155,20.641890478134155,0.008154630661010742,nan,nan,nan,nan,0.726854448338577,0.07037358571303942,0.009000014251658247,-0.00070288059240601,nan,nan,nan,nan
29.54922652244568,0.070582226,0.11857962,-2.705543,0.0013702082753632334,nan,nan,nan,nan,nan,19.546550035476685,20.746550035476684,0.00592041015625,nan,nan,nan,nan,0.7266362036251814,0.10092025902244124,0.004858197365265843,-0.0007254613408007234,nan,nan,nan,nan
29.6619393825531,0.06075244,0.07656169,-2.7195876,0.0015046902745365041,nan,nan,nan,nan,nan,19.65946316719055,20.85946316719055,0.00527644157409668,nan,nan,nan,nan,0.7261746239963319,0.11565355172235685,-0.0059145192314190515,-0.0008764221794630538,nan,nan,nan,nan
29.752837419509888,0.05363172,0.050769836,-2.726656,0.0016340628720151185,nan,nan,nan,nan,nan,19.75011897087097,20.95011897087097,0.006777524948120117,nan,nan,nan,nan,0.7258318770349744,0.1260945944971137,-0.015119155727631653,-0.0007440696937414289,nan,nan,nan,nan
29.86354422569275,0.041853696,0.001267922,-2.7381284,0.0017146866797908287,nan,nan,nan,nan,nan,19.860945463180542,21.06094546318054,0.005270481109619141,nan,nan,nan,nan,0.7254117506122013,0.13718530703713008,-0.02570180597260371,-0.0008089188664180578,nan,nan,nan,nan
29.955142974853516,0.030755503,-0.045170236,-2.75026,0.0018406586612187115,nan,nan,nan,nan,nan,19.952401161193848,21.152401161193847,0.005905628204345703,nan,nan,nan,nan,0.7250922219672427,0.1316880977807657,-0.02944625189945408,-0.0009475077107658729,nan,nan,nan,nan
30.048184871673584,0.027054306,-0.071984164,-2.7559094,0.0018213799139640396,nan,nan,nan,nan,nan,20.045478105545044,21.245478105545043,0.005252838134765625,nan,nan,nan,nan,0.7247923703289154,0.13314017430623362,-0.02864530396751728,-0.000843736082812559,nan,nan,nan,nan
30.161157846450806,0.02137406,-0.1176735,-2.7642949,0.0016432901251202635,nan,nan,nan,nan,nan,20.158434629440308,21.358434629440307,0.005095005035400391,nan,nan,nan,nan,0.7245828950531393,0.12060770796930109,-0.021546885823051906,-0.0008019931785190232,nan,nan,nan,nan
30.249030828475952,0.018703414,-0.15174195,-2.770497,0.0014778344024248234,nan,nan,nan,nan,nan,20.2463276386261,21.446327638626098,0.005434513092041016,nan,nan,nan,nan,0.7245895104196137,0.09399706384218887,-0.014344986159389627,-0.0007423554598695988,nan,nan,nan,nan
30.362931966781616,0.02100411,-0.18485476,-2.7794085,0.0016254014202210197,nan,nan,nan,nan,nan,20.3603937625885,21.5603937625885,0.00572967529296875,nan,nan,nan,nan,0.7244170332870346,0.07329440332133962,-0.0010357670438506613,-0.0008364029431318397,nan,nan,nan,nan
30.45727825164795,0.019179383,-0.20220073,-2.7868922,0.0014262975255499542,nan,nan,nan,nan,nan,20.454516649246216,21.654516649246215,0.0056378841400146484,nan,nan,nan,nan,0.7241723756248417,0.06368596579224249,0.0033046218676902077,-0.0009735663812553251,nan,nan,nan,nan
30.552841901779175,0.01491989,-0.21451959,-2.799737,0.0010959869914971831,nan,nan,nan,nan,nan,20.550143241882324,21.750143241882324,0.00710749626159668,nan,nan,nan,nan,0.7239322778832544,0.024972766122520428,0.005362530019603704,-0.0007824540142764788,nan,nan,nan,nan
30.6552894115448,0.012031555,-0.21433485,-2.809211,0.0009531000221162517,nan,nan,nan,nan,nan,20.652539491653442,21.85253949165344,0.005548715591430664,nan,nan,nan,nan,0.7236341340478888,0.01003954119691942,0.0045187184319000736,-0.0006777252219098519,nan,nan,nan,nan
30.761438369750977,0.0100387065,-0.20126565,-2.82242,0.0007031308749603712,nan,nan,nan,nan,nan,20.758736610412598,21.958736610412597,0.006178855895996094,nan,nan,nan,nan,0.7233219600356366,-0.03210199966430714,0.003386123204545533,-0.0005517530574814984,nan,nan,nan,nan
30.855534076690674,0.011919953,-0.17995228,-2.8327672,0.0004583472603082034,nan,nan,nan,nan,nan,20.852779388427734,22.052779388427734,0.006708860397338867,nan,nan,nan,nan,0.7231543776941046,-0.07057072990018758,0.006971165693975105,-0.0004093309533382984,nan,nan,nan,nan
30.948368072509766,0.013388542,-0.15633659,-2.8398576,0.0004830473671996287,nan,nan,nan,nan,nan,20.945634126663208,22.145634126663207,0.005240440368652344,nan,nan,nan,nan,0.7231189075894089,-0.08759264623853741,0.009162233081279192,-0.00039831969326592444,nan,nan,nan,nan
31.05987548828125,0.020172443,-0.12508921,-2.837042,0.000828301665360031,nan,nan,nan,nan,nan,21.0571231842041,22.2571231842041,0.00548243522644043,nan,nan,nan,nan,0.7235705093539637,-0.11128511874350276,0.013149786026938845,-0.0006285472701202475,nan,nan,nan,nan
31.15915822982788,0.023779495,-0.0975745,-2.833436,0.0011789213632919793,nan,nan,nan,nan,nan,21.1564040184021,22.3564040184021,0.0056340694427490234,nan,nan,nan,nan,0.7238308663769235,-0.11457222751059667,0.016499148320443104,-0.000846293686211789,nan,nan,nan,nan
31.250013828277588,0.023923697,-0.054753702,-2.8301914,0.001664518917286641,nan,nan,nan,nan,nan,21.247350454330444,22.447350454330444,0.0058896541595458984,nan,nan,nan,nan,0.7243561461355076,-0.12029226289986701,0.01089417163096311,-0.0010481002794718978,nan,nan,nan,nan
31.345460891723633,0.02447976,-0.020994896,-2.8284154,0.001685422224041764,nan,nan,nan,nan,nan,21.342745542526245,22.542745542526244,0.00540471076965332,nan,nan,nan,nan,0.7245164784313072,-0.12426257487018968,0.008015473462809468,-0.0012693824743009432,nan,nan,nan,nan
31.457391023635864,0.024809804,0.022851959,-2.8233473,0.0015780617149845977,nan,nan,nan,nan,nan,21.454663515090942,22.65466351509094,0.005825996398925781,nan,nan,nan,nan,0.7249376826769119,-0.12283527770667271,0.003928315949404082,-0.0012290511929896378,nan,nan,nan,nan
31.548911809921265,0.031210478,0.07115974,-2.8148334,0.0011463592555173829,nan,nan,nan,nan,nan,21.54626441001892,22.74626441001892,0.0054569244384765625,nan,nan,nan,nan,0.7254283795867621,-0.10826531697661769,0.003349497405741994,-0.001122171086813089,nan,nan,nan,nan
31.65886354446411,0.038718,0.109450705,-2.804708,0.0005768249044390897,nan,nan,nan,nan,nan,21.656139612197876,22.856139612197875,0.005268096923828125,nan,nan,nan,nan,0.7259037292021459,-0.09368432475758585,0.008047379712732373,-0.0007567422414810903,nan,nan,nan,nan
31.75352454185486,0.045027673,0.1411166,-2.7942064,0.0001085783682860976,nan,nan,nan,nan,nan,21.750784635543823,22.950784635543823,0.008249521255493164,nan,nan,nan,nan,0.726519050895247,-0.07448448764068173,0.009947570185246618,-0.0003727421947165518,nan,nan,nan,nan
31.847182512283325,0.051322356,0.16888966,-2.7846687,-0.0002794534097757678,nan,nan,nan,nan,nan,21.844511032104492,23.04451103210449,0.005612373352050781,nan,nan,nan,nan,0.7268540747592757,-0.06961635133334934,0.010823630003178307,-0.00015716828294973323,nan,nan,nan,nan
31.957960605621338,0.046959274,0.1942392,-2.777243,-0.00023842049663724482,nan,nan,nan,nan,nan,21.955207347869873,23.155207347869872,0.005553722381591797,nan,nan,nan,nan,0.7273389563188787,-0.04142411446353312,0.002574316560875205,1.4972979271324512e-05,nan,nan,nan,nan
32.05304312705994,0.04234038,0.20508412,-2.7712097,-0.0001885575865550257,nan,nan,nan,nan,nan,22.050301551818848,23.250301551818847,0.007210254669189453,nan,nan,nan,nan,0.7275764280910567,-0.04044979482331137,-0.0039755758575180725,-0.00015201788487295988,nan,nan,nan,nan
