time,x,y,z,yaw,platform,trajectory,traj_double,traj_short,traj_spin,traj_time,ref_time,comptime,x_ref,y_ref,yaw_ref,z_ref,throttle_input,p_input,q_input,r_input,cbf_term_pitch_cbf,cbf_term_roll_cbf,cbf_term_thrust_cbf,cbf_term_yaw_cbf
10.059248685836792,0.03420688,0.012931104,-2.778584,0.0002916980598568486,SIM,TRIANGLE,NormSpd,Not Short,NoSpin,0.05346846580505371,1.2534684658050537,0.005651712417602539,0.03760405397415161,0.19467548908153867,0.0,-5.0,0.7165670374334518,0.09109694772329328,-0.05931295611312522,-1.1758075758169659e-05,nan,nan,nan,nan
10.16146731376648,0.02142564,0.0081929155,-2.7874894,0.0003877499827504849,nan,nan,nan,nan,nan,0.15571951866149902,1.355719518661499,0.005120754241943359,0.040671585559844965,0.18936236852129545,0.0,-5.0,0.7165193369268577,0.09320855141341193,-0.055697461111144625,-0.0001345033465190007,nan,nan,nan,nan
10.264349222183228,0.0074348194,0.008922739,-2.7942035,0.0005412020298414255,nan,nan,nan,nan,nan,0.2586236000061035,1.4586236000061035,0.00501561164855957,0.043758708000183104,0.1840153156054438,0.0,-5.0,0.7164857346961481,0.08590207364751937,-0.06322124912951194,-0.00032340729997134475,nan,nan,nan,nan
10.355119705200195,-0.010687893,0.011444338,-2.8023713,0.0006526054234927692,nan,nan,nan,nan,nan,0.3493773937225342,1.5493773937225341,0.0055010318756103516,0.046481321811676024,0.1792996101545493,0.0,-5.0,0.7165550134464606,0.07458573679783331,-0.06699471255971273,-0.00043194274289263526,nan,nan,nan,nan
10.447802782058716,-0.0267732,0.012193201,-2.810968,0.0007719570405462228,nan,nan,nan,nan,nan,0.442366361618042,1.642366361618042,0.005977630615234375,0.04927099084854126,0.17446776164639696,0.0,-5.0,0.7165210563048664,0.07187057538750707,-0.07246140327543396,-0.0004803610764507808,nan,nan,nan,nan
10.55765700340271,-0.044996515,0.010462381,-2.8155968,0.0009569503331161577,nan,nan,nan,nan,nan,0.5518991947174072,1.7518991947174072,0.005294322967529297,0.05255697584152222,0.16877626868564508,0.0,-5.0,0.7167158724719669,0.06997979112896573,-0.07308481572099604,-0.0005703720313375008,nan,nan,nan,nan
10.65779185295105,-0.054441344,0.006477457,-2.814802,0.0010675613912063397,nan,nan,nan,nan,nan,0.6520354747772217,1.8520354747772216,0.0052340030670166016,0.055561064243316645,0.16357303494330874,0.0,-5.0,0.7168765231272803,0.07022485196803145,-0.0727845990574011,-0.000690697918960333,nan,nan,nan,nan
10.749840497970581,-0.061607555,0.0011193171,-2.811867,0.001226068815602499,nan,nan,nan,nan,nan,0.7442495822906494,1.9442495822906494,0.005807399749755859,0.05832748746871948,0.15878144936167246,0.0,-5.0,0.7176251540861778,0.06566493976560857,-0.05867813452594674,-0.000705281424593229,nan,nan,nan,nan
10.859819889068604,-0.06518786,-0.00061208406,-2.8052752,0.0013524225022982783,nan,nan,nan,nan,nan,0.8540606498718262,2.0540606498718263,0.0050389766693115234,0.06162181949615479,0.1530754989131531,0.0,-5.0,0.7191772670069536,0.03859318618150613,-0.023600298157228156,-0.000777011046175615,nan,nan,nan,nan
10.94937014579773,-0.0675436,0.0021145027,-2.7996953,0.0013415776280960579,nan,nan,nan,nan,nan,0.943640947341919,2.143640947341919,0.005547285079956055,0.06430922842025757,0.14842077011589308,0.0,-5.0,0.7204169296221352,0.01148792534564585,-0.0036846794761154537,-0.0008244883065039345,nan,nan,nan,nan
11.061484098434448,-0.07149082,0.0028697113,-2.7939782,0.001271877386330722,nan,nan,nan,nan,nan,1.0557727813720703,2.2557727813720705,0.005175352096557617,0.06767318344116212,0.14259422910530997,0.0,-5.0,0.721432687119293,-0.010524470476280712,0.010754485123253579,-0.0007760427401125134,nan,nan,nan,nan
11.152865409851074,-0.07175583,0.008670444,-2.7814999,0.0013341201915055834,nan,nan,nan,nan,nan,1.1471445560455322,2.3471445560455324,0.0064239501953125,0.07041433668136597,0.13784641242194484,0.0,-5.0,0.7226486316128096,-0.03127836128857787,0.025529263684005557,-0.0007189764093636657,nan,nan,nan,nan
11.263534784317017,-0.06595634,0.018426603,-2.7670486,0.001537539628183815,nan,nan,nan,nan,nan,1.2579779624938965,2.4579779624938967,0.005536556243896484,0.0737393388748169,0.13208733968760988,0.0,-5.0,0.7238790849938784,-0.04523985734056807,0.03624325831024708,-0.0007917519215878525,nan,nan,nan,nan
11.35851240158081,-0.058036033,0.026733996,-2.756995,0.0016746869114951934,nan,nan,nan,nan,nan,1.352738857269287,2.5527388572692873,0.00550079345703125,0.07658216571807862,0.12716341915795995,0.0,-5.0,0.7246552331009115,-0.05184492836186538,0.041426619227803906,-0.0007938776990883975,nan,nan,nan,nan
11.46050238609314,-0.041971803,0.039466437,-2.7431803,0.0017796361305699726,nan,nan,nan,nan,nan,1.4547290802001953,2.6547290802001955,0.005146503448486328,0.07964187240600586,0.12186385171821167,0.0,-5.0,0.7256368744516317,-0.05118626985674556,0.047567471661562506,-0.000909780767285661,nan,nan,nan,nan
11.55741810798645,-0.028019287,0.053505674,-2.7322924,0.001900776055179243,nan,nan,nan,nan,nan,1.5516996383666992,2.7516996383666994,0.0052950382232666016,0.082550989151001,0.1168251137107307,0.0,-5.0,0.7263676349079097,-0.0528794415835503,0.051409906532657715,-0.00085555712247488,nan,nan,nan,nan
11.649450778961182,-0.005371137,0.070347026,-2.7205958,0.002121132577496798,nan,nan,nan,nan,nan,1.6437435150146484,2.8437435150146486,0.00514984130859375,0.08531230545043947,0.11204237358433519,0.0,-5.0,0.7269955489396343,-0.04949570540588369,0.05221278952347409,-0.001012213869878555,nan,nan,nan,nan
11.76175045967102,0.019269422,0.08511712,-2.7134588,0.002301832716504304,nan,nan,nan,nan,nan,1.7560091018676758,2.956009101867676,0.005103588104248047,0.08868027305603028,0.1062088825732058,0.0,-5.0,0.7274044157885752,-0.036529204024083974,0.04826528566531142,-0.0012070756482702866,nan,nan,nan,nan
11.859798192977905,0.0343035,0.09277867,-2.7111375,0.0023348801775924244,nan,nan,nan,nan,nan,1.8540394306182861,3.0540394306182863,0.005094289779663086,0.0916211829185486,0.10111507727084368,0.0,-5.0,0.7275411521990695,-0.0280440830392244,0.043486628764215635,-0.001173640890115881,nan,nan,nan,nan
11.958497762680054,0.06343587,0.101105906,-2.711657,0.0022353568624540188,nan,nan,nan,nan,nan,1.952756643295288,3.1527566432952883,0.005294322967529297,0.09458269929885865,0.09598558043269918,0.0,-5.0,0.727527278487225,-0.011760668716055953,0.03739112870991505,-0.0013091286687313439,nan,nan,nan,nan
12.050801277160645,0.07624191,0.10865423,-2.7152965,0.002116562885196238,nan,nan,nan,nan,nan,2.045098304748535,3.2450983047485353,0.0054628849029541016,0.09735294914245606,0.09118736695392873,0.0,-5.0,0.7273625903920934,-0.004039913984813955,0.027769938348319194,-0.0012078515426044492,nan,nan,nan,nan
12.1656334400177,0.08773601,0.112603955,-2.7133074,0.0018507037371424673,nan,nan,nan,nan,nan,2.1600148677825928,3.360014867782593,0.005385875701904297,0.10080044603347779,0.08521612717974336,0.0,-5.0,0.7272668920909156,0.006659248837291145,0.007700050554211715,-0.0011970148833885903,nan,nan,nan,nan
12.248899459838867,0.09456336,0.11255674,-2.710324,0.0016620171497621072,nan,nan,nan,nan,nan,2.2432591915130615,3.4432591915130617,0.005437612533569336,0.10329777574539185,0.08089062523545686,0.0,-5.0,0.7273499013106565,0.01345763294432328,-0.00470862575023477,-0.001109635884200464,nan,nan,nan,nan
12.363649368286133,0.102641374,0.11023975,-2.7049172,0.0015191884712617565,nan,nan,nan,nan,nan,2.35791015625,3.55791015625,0.0051615238189697266,0.1067373046875,0.0749331863536219,0.0,-5.0,0.7275081758110009,0.021746809322563877,-0.014930289680910478,-0.0010024415525913466,nan,nan,nan,nan
12.458034992218018,0.1089419,0.10436419,-2.692228,0.0014387323193973955,nan,nan,nan,nan,nan,2.4522738456726074,3.6522738456726076,0.005439281463623047,0.10956821537017823,0.07002990521953371,0.0,-5.0,0.7279652437065585,0.02865558781752156,-0.020601295050611864,-0.0009425221236825359,nan,nan,nan,nan
12.552996635437012,0.11225649,0.09800571,-2.6872385,0.0014301876864903917,nan,nan,nan,nan,nan,2.547255039215088,3.747255039215088,0.006338834762573242,0.11241765117645265,0.06509453763016045,0.0,-5.0,0.7281272599952217,0.030246376374132623,-0.022889020964233533,-0.0009284862544799113,nan,nan,nan,nan
12.648619651794434,0.11785771,0.087135255,-2.6766644,0.0014462257189893357,nan,nan,nan,nan,nan,2.6429483890533447,3.842948389053345,0.005034208297729492,0.11528845167160034,0.06012216531417073,0.0,-5.0,0.72838717729983,0.03247307248615366,-0.023155204490884325,-0.0009080284007547188,nan,nan,nan,nan
12.75807785987854,0.122978896,0.076990694,-2.6610575,0.0012804857413506454,nan,nan,nan,nan,nan,2.752337694168091,3.952337694168091,0.005432605743408203,0.11857013082504272,0.054438130286268906,0.0,-5.0,0.7288050189731311,0.03082392678331792,-0.020465496344998266,-0.0008229818073722087,nan,nan,nan,nan
12.856432437896729,0.1269511,0.069377385,-2.6451976,0.0011618591591435745,nan,nan,nan,nan,nan,2.8509511947631836,4.050951194763184,0.005927562713623047,0.12152853584289551,0.04931402248598118,0.0,-5.0,0.7293797137082303,0.02631046117182673,-0.017200224399463705,-0.0007488412438024119,nan,nan,nan,nan
12.956023931503296,0.13261434,0.059675306,-2.634286,0.0009751633639378809,nan,nan,nan,nan,nan,2.9502744674682617,4.150274467468262,0.006825685501098633,0.12450823402404787,0.04415303384500472,0.0,-5.0,0.729702066118862,0.01674323933210427,-0.010433872194664313,-0.0006195290704300911,nan,nan,nan,nan
13.066208839416504,0.12598658,0.05131335,-2.6229398,0.0008358635799199376,nan,nan,nan,nan,nan,3.060554265975952,4.260554265975952,0.005339145660400391,0.12781662797927856,0.03842272742309138,0.0,-5.0,0.7298922193455788,0.008728142523256818,-0.013783693295781203,-0.0005211242115746127,nan,nan,nan,nan
13.160361051559448,0.12016955,0.040404893,-2.6085718,0.0008047698259341374,nan,nan,nan,nan,nan,3.1545915603637695,4.35459156036377,0.005551576614379883,0.13063774681091309,0.03353640627251105,0.0,-5.0,0.7301161435613724,0.005358452468105443,-0.01797723662320318,-0.0004968852008285542,nan,nan,nan,nan
13.252427816390991,0.11774241,0.034103632,-2.6012542,0.0008214702915418925,nan,nan,nan,nan,nan,3.2467117309570312,4.446711730957031,0.00633549690246582,0.13340135192871094,0.0287497017964278,0.0,-5.0,0.7303441213322512,0.003882556102128433,-0.019358226619047025,-0.0004990198205502245,nan,nan,nan,nan
13.366321325302124,0.119701326,0.023442717,-2.5948057,0.001068365395543669,nan,nan,nan,nan,nan,3.360590696334839,4.560590696334839,0.0050961971282958984,0.13681772089004518,0.0228323771779956,0.0,-5.0,0.7302087836433353,8.854582432600408e-05,-0.013306515140057101,-0.000604619517725147,nan,nan,nan,nan
13.464596033096313,0.12074296,0.018143779,-2.5885582,0.0012015222193810793,nan,nan,nan,nan,nan,3.458866834640503,4.658866834640503,0.005330324172973633,0.1397660050392151,0.017725799236483316,0.0,-5.0,0.7302187911268397,-0.0031610171570236774,-0.006418981099314554,-0.0007095184802492032,nan,nan,nan,nan
13.556049346923828,0.11703559,0.012106813,-2.5893624,0.0013010599415483881,nan,nan,nan,nan,nan,3.5503575801849365,4.750357580184937,0.005828857421875,0.1425107274055481,0.012971800645323868,0.0,-5.0,0.7299903247911599,-0.00596108030668287,-0.004427953260768904,-0.000777684266032529,nan,nan,nan,nan
13.652652025222778,0.113508,0.007165688,-2.5888362,0.0012487310668198859,nan,nan,nan,nan,nan,3.6469264030456543,4.8469264030456545,0.005856513977050781,0.14540779209136964,0.007953937416667388,0.0,-5.0,0.7296297933005548,-0.00786648578589268,-0.006002525405891719,-0.0007745555007843927,nan,nan,nan,nan
13.765895128250122,0.10658399,0.0013652397,-2.586274,0.001114848717219008,nan,nan,nan,nan,nan,3.7603180408477783,4.9603180408477785,0.004940986633300781,0.14880954122543336,0.0020619350818656024,0.0,-5.0,0.729417602965679,-0.008341350478243616,-0.007626635798320781,-0.0007098901093996376,nan,nan,nan,nan
13.856066465377808,0.10062308,-0.0018591275,-2.5842094,0.0010695675521970038,nan,nan,nan,nan,nan,3.8503432273864746,5.050343227386475,0.007371664047241211,0.15151029682159423,-0.002615910829511007,0.0,-5.0,0.7293797335335955,-0.007555360641489852,-0.012877885472668668,-0.0006494712116873298,nan,nan,nan,nan
13.965606689453125,0.0965095,-0.0037463421,-2.5754564,0.0011658790966460053,nan,nan,nan,nan,nan,3.95993709564209,5.15993709564209,0.004875659942626953,0.15479811286926268,-0.008310575270013073,0.0,-5.0,0.7294332973310291,-0.007945261154103146,-0.0138967442459899,-0.0006659078112122654,nan,nan,nan,nan
14.0542733669281,0.09437484,-0.0071755806,-2.5609524,0.001220049198541684,nan,nan,nan,nan,nan,4.048539876937866,5.248539876937866,0.007291555404663086,0.15745619630813598,-0.012914510836899038,0.0,-5.0,0.7296788650180001,-0.0070132002095020475,-0.00986669693902457,-0.0007261030581506221,nan,nan,nan,nan
14.148524284362793,0.09521227,-0.0074228714,-2.5509472,0.001266737759210823,nan,nan,nan,nan,nan,4.142812967300415,5.342812967300415,0.005086660385131836,0.16028438901901246,-0.017813084305733033,0.0,-5.0,0.729893579590709,-0.00628489161470433,-0.006804357106643588,-0.0007240690309710076,nan,nan,nan,nan
14.260252714157104,0.10144279,-0.005464861,-2.5359254,0.0014201109097209397,nan,nan,nan,nan,nan,4.2544872760772705,5.454487276077271,0.0059659481048583984,0.16363461828231812,-0.023615851606782506,0.0,-5.0,0.730244236914079,-0.010026749766720052,0.0028784652014337496,-0.0007560902330736636,nan,nan,nan,nan
14.359985828399658,0.10704057,-0.006331673,-2.5320802,0.0015026115730698564,nan,nan,nan,nan,nan,4.3542256355285645,5.554225635528565,0.006639719009399414,0.16662676906585694,-0.028798408787778743,0.0,-5.0,0.730183620760677,-0.009286471173845807,0.010297946465552009,-0.0008083449489421251,nan,nan,nan,nan
14.460031509399414,0.1154538,-0.011082368,-2.5278628,0.0015724189525125887,nan,nan,nan,nan,nan,4.45427131652832,5.6542713165283205,0.005831003189086914,0.16962813949584962,-0.033996934864860925,0.0,-5.0,0.7299857736385779,-0.003751974056270074,0.017950419503562978,-0.0008749979650561905,nan,nan,nan,nan
14.548879384994507,0.12280912,-0.013532522,-2.524957,0.0015994804286489916,nan,nan,nan,nan,nan,4.543172121047974,5.743172121047974,0.004921913146972656,0.1722951636314392,-0.03861635617271455,0.0,-5.0,0.7298133957955237,-0.0012992603594902427,0.01993154577994917,-0.0008874114219135451,nan,nan,nan,nan
14.664421558380127,0.13426405,-0.01761727,-2.5223062,0.0015921633481519315,nan,nan,nan,nan,nan,4.658663988113403,5.8586639881134035,0.0050237178802490234,0.17575991964340212,-0.04461748962126403,0.0,-5.0,0.7296044153671584,-4.195987843797303e-05,0.02108034391376807,-0.0008930356255341368,nan,nan,nan,nan
14.758239507675171,0.14587714,-0.021187175,-2.5231297,0.0014573394893964142,nan,nan,nan,nan,nan,4.752624988555908,5.952624988555908,0.006706953048706055,0.17857874965667728,-0.04949984642215665,0.0,-5.0,0.7294236831083594,0.002116882309118359,0.02330270285857741,-0.0008427798966573991,nan,nan,nan,nan
14.859555006027222,0.15497744,-0.023072604,-2.5273197,0.0012812580033343401,nan,nan,nan,nan,nan,4.853784561157227,6.053784561157227,0.007364988327026367,0.18161353683471682,-0.05475625200467971,0.0,-5.0,0.7291069457861266,0.0016096413441464858,0.022579355627149068,-0.0006991672935127691,nan,nan,nan,nan
14.961295366287231,0.16272661,-0.022630336,-2.5383224,0.0010664766138477333,nan,nan,nan,nan,nan,4.955522537231445,6.1555225372314455,0.005524396896362305,0.18466567611694337,-0.060042712313272927,0.0,-5.0,0.7285017898780088,-0.0014134745683074626,0.015232358460780573,-0.0005737500152366685,nan,nan,nan,nan
15.060756206512451,0.16699278,-0.022763435,-2.5430994,0.0009760353238665864,nan,nan,nan,nan,nan,5.055002450942993,6.255002450942993,0.007754325866699219,0.1876500735282898,-0.06521184025970198,0.0,-5.0,0.728137131398815,-0.003897325750113299,0.007973585257134784,-0.0005256796379505185,nan,nan,nan,nan
15.158365249633789,0.16891564,-0.02436919,-2.5425124,0.0008893817524828762,nan,nan,nan,nan,nan,5.152642726898193,6.3526427268981935,0.00683283805847168,0.19057928180694583,-0.0702853778242856,0.0,-5.0,0.7279334220569443,-0.004905629096123107,0.002371237316713853,-0.00047610840395418704,nan,nan,nan,nan
15.25492000579834,0.1706144,-0.03075807,-2.5356328,0.000724800544497306,nan,nan,nan,nan,nan,5.249248743057251,6.449248743057251,0.006123781204223633,0.19347746229171756,-0.07530517367341483,0.0,-5.0,0.7281766134648775,0.0019081217158251858,-0.006429619326669713,-0.00041499193701294247,nan,nan,nan,nan
15.353871822357178,0.17162827,-0.03744657,-2.5299056,0.0006517891731752101,nan,nan,nan,nan,nan,5.348169565200806,6.548169565200806,0.006340503692626953,0.1964450869560242,-0.08044525036978845,0.0,-5.0,0.7284003869778014,0.007596043702453724,-0.010232393576413196,-0.0003625830489806608,nan,nan,nan,nan
15.447529077529907,0.17084533,-0.045774218,-2.517511,0.0004747819826977917,nan,nan,nan,nan,nan,5.441936254501343,6.641936254501343,0.0052716732025146484,0.1992580876350403,-0.08531751046757012,0.0,-5.0,0.7287596333379383,0.013978246949170077,-0.0139305918997484,-0.0002839700027159359,nan,nan,nan,nan
15.557903289794922,0.17207637,-0.049498044,-2.5018737,0.0003686029501555055,nan,nan,nan,nan,nan,5.552185773849487,6.7521857738494875,0.008854866027832031,0.20256557321548466,-0.09104624353820115,0.0,-5.0,0.729188420390606,0.01322166423387035,-0.014604626192296464,-0.00019617417894986715,nan,nan,nan,nan
15.661147117614746,0.17273204,-0.05344621,-2.48993,0.00033467312830781637,nan,nan,nan,nan,nan,5.655369758605957,6.855369758605957,0.0058476924896240234,0.20566109275817873,-0.0964078406619697,0.0,-5.0,0.7296131826449511,0.008180727983616992,-0.011545899179147367,-0.00014830375846136226,nan,nan,nan,nan
15.76567029953003,0.17170325,-0.05715464,-2.483748,0.00024808247478258494,nan,nan,nan,nan,nan,5.759901762008667,6.959901762008667,0.0051212310791015625,0.20879705286026004,-0.10183948288928338,0.0,-5.0,0.7297013500819771,0.005197576083102665,-0.010573269099043109,-0.00014745185796706506,nan,nan,nan,nan
15.863214254379272,0.16698597,-0.06029627,-2.4760525,0.00024006374980389822,nan,nan,nan,nan,nan,5.857452392578125,7.057452392578125,0.005563497543334961,0.21172357177734374,-0.10690836234298383,0.0,-5.0,0.7298070333296168,0.0009622626504936784,-0.01052226816634979,-8.1847202448643e-05,nan,nan,nan,nan
15.96516489982605,0.1664411,-0.064310946,-2.4764202,0.00025944337909589166,nan,nan,nan,nan,nan,5.959409236907959,7.159409236907959,0.011281490325927734,0.2147822771072388,-0.11220619537974376,0.0,-5.0,0.7297259255214429,-0.001043753011085057,-0.009800731163188418,-0.00011236910767171876,nan,nan,nan,nan
16.052303075790405,0.16828334,-0.07073322,-2.4819024,0.00033183503437372863,nan,nan,nan,nan,nan,6.0466039180755615,7.246603918075562,0.005375385284423828,0.21739811754226687,-0.11673696391770548,0.0,-5.0,0.7294024397782216,-0.0006710018845320358,-0.0057769488810393175,-0.0001353126077288175,nan,nan,nan,nan
16.152251482009888,0.17338355,-0.08265728,-2.4885812,0.0006104794451218254,nan,nan,nan,nan,nan,6.146534442901611,7.3465344429016115,0.0051419734954833984,0.22039603328704835,-0.1219295063044777,0.0,-5.0,0.7287299582775212,0.003932662404341732,0.001654544597336081,-0.000267325342402664,nan,nan,nan,nan
16.263156414031982,0.17891401,-0.09405981,-2.4880812,0.0008015240662375689,nan,nan,nan,nan,nan,6.257429122924805,7.457429122924805,0.005343198776245117,0.22372287368774416,-0.12769176290715564,0.0,-5.0,0.7286807543032169,0.010888349162749937,0.008274315366328635,-0.00041581650977270094,nan,nan,nan,nan
16.354562997817993,0.18141194,-0.09908273,-2.4886615,0.000856663154304993,nan,nan,nan,nan,nan,6.348798751831055,7.548798751831055,0.0054473876953125,0.22646396255493165,-0.13243946809318577,0.0,-5.0,0.7286079027126512,0.01088027838767413,0.009657046110278362,-0.0004803779660811262,nan,nan,nan,nan
16.461929321289062,0.18540843,-0.10704225,-2.489126,0.0007734343368008822,nan,nan,nan,nan,nan,6.456164598464966,7.656164598464966,0.005736589431762695,0.22968493795394898,-0.13801836113421323,0.0,-5.0,0.7284959457312461,0.008914699628012812,0.00994075836185306,-0.00045639267048818636,nan,nan,nan,nan
16.554373741149902,0.1912714,-0.11293047,-2.4879467,0.0006281119430027182,nan,nan,nan,nan,nan,6.548625469207764,7.748625469207764,0.0055637359619140625,0.2324587640762329,-0.14282276890937076,0.0,-5.0,0.72841045962145,0.006880849513344607,0.00981470232576445,-0.00038144730382776203,nan,nan,nan,nan
16.649630069732666,0.20295781,-0.118198425,-2.486765,0.000493760324494108,nan,nan,nan,nan,nan,6.643860340118408,7.843860340118408,0.005278587341308594,0.23531581020355227,-0.1477713179614558,0.0,-5.0,0.7284867606690341,0.002929243194877238,0.011191980003863287,-0.00028028225671228383,nan,nan,nan,nan
16.758373498916626,0.21927609,-0.122901894,-2.4889874,0.00036040480687615783,nan,nan,nan,nan,nan,6.752606630325317,7.952606630325318,0.007359981536865234,0.23857819890975954,-0.1534219409546457,0.0,-5.0,0.7283858126613446,-2.277399664043014e-05,0.020199857538665763,-0.00015220346763574188,nan,nan,nan,nan
16.848116636276245,0.23503533,-0.12535945,-2.4853475,0.0002010439054465074,nan,nan,nan,nan,nan,6.842341661453247,8.042341661453246,0.005121946334838867,0.2412702498435974,-0.15808470994861612,0.0,-5.0,0.7284402439182265,-0.0036507301710470646,0.023375419278990884,-5.79918386419969e-05,nan,nan,nan,nan
16.962482213974,0.2445301,-0.12276979,-2.4872117,-4.870335060136455e-06,nan,nan,nan,nan,nan,6.956708192825317,8.156708192825317,0.00604701042175293,0.2447012457847595,-0.16402736923927147,0.0,-5.0,0.7283874301512132,-0.011906795092886908,0.018708861039152636,9.904466716022097e-05,nan,nan,nan,nan
17.057819604873657,0.24985214,-0.12156454,-2.4901323,-0.00018558527135281722,nan,nan,nan,nan,nan,7.052096366882324,8.252096366882324,0.00635528564453125,0.24756289100646972,-0.16898388415651028,0.0,-5.0,0.7282438958887724,-0.01700017261601749,0.013464961713479287,0.00019221729009180565,nan,nan,nan,nan
17.14901351928711,0.25672555,-0.12121753,-2.493895,-0.0004158505213833763,nan,nan,nan,nan,nan,7.143239736557007,8.343239736557006,0.005329132080078125,0.2502971920967102,-0.17371983256799772,0.0,-5.0,0.7280012843433487,-0.0174342157462669,0.0060613034445212025,0.00034610001710413593,nan,nan,nan,nan
17.25826096534729,0.2626769,-0.1214752,-2.4937015,-0.00039618059047841214,nan,nan,nan,nan,nan,7.25254225730896,8.45254225730896,0.006729602813720703,0.2535762677192688,-0.17939935814812974,0.0,-5.0,0.7279291183367771,-0.013609667253756088,0.0007423060373223476,0.0003874818154651098,nan,nan,nan,nan
17.3579044342041,0.26793775,-0.12023294,-2.4874067,-0.0003536335705303095,nan,nan,nan,nan,nan,7.352208375930786,8.552208375930785,0.006471395492553711,0.25656625127792354,-0.18457816158551543,0.0,-5.0,0.7281131388883045,-0.010777345937916188,-0.002083908197273087,0.0003708190650449145,nan,nan,nan,nan
17.451332330703735,0.2749921,-0.1215961,-2.47814,-0.00029535647317446845,nan,nan,nan,nan,nan,7.445589065551758,8.645589065551757,0.005070924758911133,0.2593676719665527,-0.18943036455159573,0.0,-5.0,0.7283609207441369,-0.00837722985376986,-0.0022290748792502583,0.0003481781104269993,nan,nan,nan,nan
17.56349229812622,0.28170782,-0.12517537,-2.4594922,-0.00034910265434007215,nan,nan,nan,nan,nan,7.557733535766602,8.7577335357666,0.005516529083251953,0.262732006072998,-0.19525756215759582,0.0,-5.0,0.728935652044876,0.00019895866152943548,-0.0007396510232320597,0.0003615234147129403,nan,nan,nan,nan
17.653680324554443,0.2842263,-0.12733832,-2.4482226,-0.00038003538758912825,nan,nan,nan,nan,nan,7.647957801818848,8.847957801818847,0.0065555572509765625,0.2654387340545654,-0.19994575254393893,0.0,-5.0,0.7293620013252006,0.004342471525015546,-0.0025882121431358364,0.0003694757578234807,nan,nan,nan,nan
17.747880220413208,0.2915646,-0.12907688,-2.4340196,-0.00038353980741456795,nan,nan,nan,nan,nan,7.742120981216431,8.94212098121643,0.005056619644165039,0.2682636294364929,-0.204838614871504,0.0,-5.0,0.7298465195683563,0.00901888316496742,-0.0015042136072541095,0.00038781126785305864,nan,nan,nan,nan
17.857002019882202,0.30465195,-0.13437808,-2.4208481,-0.0003343257862722382,nan,nan,nan,nan,nan,7.851330995559692,9.051330995559692,0.007599830627441406,0.27153992986679076,-0.21051333367763966,0.0,-5.0,0.730089798420319,0.011574561138085544,0.004979537074834774,0.00038045371555382897,nan,nan,nan,nan
17.949650526046753,0.30820101,-0.13829072,-2.4145393,-0.0003070187279763381,nan,nan,nan,nan,nan,7.943878889083862,9.143878889083862,0.0051996707916259766,0.27431636667251585,-0.21532226328915977,0.0,-5.0,0.730136146842012,0.013361030911609171,0.008256634486448134,0.00038020729007121463,nan,nan,nan,nan
18.057892560958862,0.31255955,-0.14340805,-2.4089532,-0.0002697608906063742,nan,nan,nan,nan,nan,8.052219867706299,9.252219867706298,0.006017446517944336,0.27756659603118894,-0.2209518256746336,0.0,-5.0,0.7300370082802381,0.015352238122050192,0.0039467017989433225,0.0003463135406046242,nan,nan,nan,nan
18.164455890655518,0.31899747,-0.14648342,-2.4089656,-0.00018714855440160605,nan,nan,nan,nan,nan,8.158686876296997,9.358686876296996,0.005372047424316406,0.28076060628890986,-0.22648401372090243,0.0,-5.0,0.7298214050835381,0.012947889957164928,0.005465832809650382,0.0002987924585408991,nan,nan,nan,nan
18.25772738456726,0.3245422,-0.14952832,-2.4157257,-0.0002431063219154872,nan,nan,nan,nan,nan,8.251981973648071,9.45198197364807,0.005848884582519531,0.28355945920944214,-0.23133176918217682,0.0,-5.0,0.7293242315395193,0.008884666822792608,0.005844322219037731,0.00026609624086485845,nan,nan,nan,nan
18.352481842041016,0.3270957,-0.15404806,-2.4168832,-0.0004051222934129406,nan,nan,nan,nan,nan,8.346794128417969,9.546794128417968,0.005236387252807617,0.28640382385253904,-0.23625835325927316,0.0,-5.0,0.7290466779093523,0.007279378060359096,0.006221561583050888,0.00035408564503198835,nan,nan,nan,nan
18.463983297348022,0.3270603,-0.15809795,-2.4210906,-0.0006426684343963096,nan,nan,nan,nan,nan,8.458216428756714,9.658216428756713,0.0054509639739990234,0.28974649286270143,-0.24204802581776036,0.0,-5.0,0.7286830751733597,0.0054227074463932086,0.002509582150724488,0.0005215850087084663,nan,nan,nan,nan
18.554433822631836,0.3262054,-0.16353902,-2.4239867,-0.000803097310722034,nan,nan,nan,nan,nan,8.548823118209839,9.748823118209838,0.005687236785888672,0.2924646935462951,-0.24675608750691316,0.0,-5.0,0.7283643416151194,0.0027104240298633582,-0.0030541776475475255,0.0005883355957651388,nan,nan,nan,nan
18.650336742401123,0.32645944,-0.16822273,-2.424203,-0.0008904027342304666,nan,nan,nan,nan,nan,8.6445631980896,9.844563198089599,0.0051310062408447266,0.29533689594268797,-0.25173088798708665,0.0,-5.0,0.7283819000489412,0.004425302144758407,-0.0023407497192357283,0.0006701487266415119,nan,nan,nan,nan
18.759449005126953,0.3259688,-0.172243,-2.4201376,-0.001027009555579106,nan,nan,nan,nan,nan,8.753685712814331,9.95368571281433,0.006159782409667969,0.2986105713844299,-0.2574010601796742,0.0,-5.0,0.728460192561486,0.004260004124247282,-0.0022153853064635675,0.0007463551212651361,nan,nan,nan,nan
18.8647882938385,0.31776154,-0.17657314,-2.4111495,-0.0011111913289534314,nan,nan,nan,nan,nan,8.859029531478882,10.059029531478881,0.005232572555541992,0.2964582281112671,-0.2598076211353316,0.0,-5.0,0.7287043499790669,0.003868946002088314,-0.007049336985578604,0.0007982504241620678,nan,nan,nan,nan
18.958401918411255,0.312197,-0.18036531,-2.4054282,-0.001091181105628447,nan,nan,nan,nan,nan,8.952630758285522,10.152630758285522,0.006493568420410156,0.2908421545028687,-0.2598076211353316,0.0,-5.0,0.7289160772674877,0.0033741851680353777,-0.011702156435884145,0.0008033928060585319,nan,nan,nan,nan
19.053402423858643,0.3072622,-0.18022382,-2.4054873,-0.0009717262164223861,nan,nan,nan,nan,nan,9.047665357589722,10.247665357589721,0.0050563812255859375,0.2851400785446167,-0.2598076211353316,0.0,-5.0,0.7288927140245043,0.002516132676795359,-0.009949579009715244,0.0007469315825265278,nan,nan,nan,nan
19.162899494171143,0.2965382,-0.17450297,-2.408952,-0.000722406562949196,nan,nan,nan,nan,nan,9.15715479850769,10.35715479850769,0.0062634944915771484,0.2785707120895386,-0.2598076211353316,0.0,-5.0,0.7285413047304038,-0.008054793323023635,-0.013907205651632393,0.0005795583104392449,nan,nan,nan,nan
19.25499439239502,0.2930808,-0.17077413,-2.408982,-0.0005927959218716694,nan,nan,nan,nan,nan,9.249287128448486,10.449287128448486,0.005246639251708984,0.2730427722930909,-0.2598076211353316,0.0,-5.0,0.7285051849089189,-0.012442437826273238,-0.0110429801797597,0.0004776071291361546,nan,nan,nan,nan
19.350099802017212,0.2911081,-0.17005387,-2.4109576,-0.0005157017003729614,nan,nan,nan,nan,nan,9.344331502914429,10.544331502914428,0.005409955978393555,0.2673401098251343,-0.2598076211353316,0.0,-5.0,0.7283757703571703,-0.014366582647772177,-0.006518122497401891,0.0003998126331923768,nan,nan,nan,nan
19.461463451385498,0.2867813,-0.1704867,-2.4166067,-0.0004639217314119648,nan,nan,nan,nan,nan,9.455705881118774,10.655705881118774,0.00811624526977539,0.2606576471328736,-0.2598076211353316,0.0,-5.0,0.7281291332055796,-0.010416895412746536,-0.0003018129135285947,0.00037601564862484166,nan,nan,nan,nan
19.55722975730896,0.28339553,-0.17038691,-2.4200213,-0.00042725280251243447,nan,nan,nan,nan,nan,9.55157732963562,10.75157732963562,0.005844593048095703,0.25490536022186283,-0.2598076211353316,0.0,-5.0,0.7278801354048502,-0.007293053603187951,0.0024032487434383003,0.0003684602553356557,nan,nan,nan,nan
19.653956651687622,0.2803075,-0.1700994,-2.4215698,-0.0002585020772580826,nan,nan,nan,nan,nan,9.648412227630615,10.848412227630615,0.005112409591674805,0.2490952663421631,-0.2598076211353316,0.0,-5.0,0.7278018453270424,-0.003724347144205444,0.005039470896528331,0.0002730375907689442,nan,nan,nan,nan
19.75028681755066,0.27434105,-0.16284987,-2.4250293,3.360472306246365e-05,nan,nan,nan,nan,nan,9.744530439376831,10.94453043937683,0.0055389404296875,0.24332817363739018,-0.2598076211353316,0.0,-5.0,0.7276695647618576,-0.005084346658084334,0.005174273471505829,0.0001394629826932965,nan,nan,nan,nan
19.862428188323975,0.2760356,-0.16017063,-2.4321713,0.00020344554109463786,nan,nan,nan,nan,nan,9.856666326522827,11.056666326522826,0.007149457931518555,0.2366000204086304,-0.2598076211353316,0.0,-5.0,0.7273935188740918,-0.005816409684921067,0.007567608350822298,-1.0004093477432727e-05,nan,nan,nan,nan
19.95983386039734,0.2746806,-0.15535462,-2.4352653,0.0002651281693970553,nan,nan,nan,nan,nan,9.954073667526245,11.154073667526244,0.00704503059387207,0.23075557994842533,-0.2598076211353316,0.0,-5.0,0.7271752322853372,-0.00553133439533218,0.01040735276441674,-3.594344496265927e-05,nan,nan,nan,nan
20.055172204971313,0.27008754,-0.14948511,-2.4373822,0.00036769449034324,nan,nan,nan,nan,nan,10.049473524093628,11.249473524093627,0.005141496658325195,0.22503158855438235,-0.2598076211353316,0.0,-5.0,0.7271575385974843,-0.00969793752420669,0.008895782571163297,-0.0001053474078569987,nan,nan,nan,nan
20.148801803588867,0.2593326,-0.14745025,-2.4382236,0.00042705311152380077,nan,nan,nan,nan,nan,10.143048286437988,11.343048286437988,0.0052487850189208984,0.21941710281372073,-0.2598076211353316,0.0,-5.0,0.7272182725801754,-0.0067194281779524665,-0.00028247449230042607,-0.0001983824851461827,nan,nan,nan,nan
20.261152744293213,0.25714865,-0.15079775,-2.4325378,0.0004282900953280766,nan,nan,nan,nan,nan,10.255406141281128,11.455406141281127,0.007339000701904297,0.21267563152313235,-0.2598076211353316,0.0,-5.0,0.7274842706945787,0.00217214838245135,-0.0011090494295990536,-0.00019046321281430785,nan,nan,nan,nan
20.354291439056396,0.2565682,-0.15275839,-2.4252515,0.000495619881274223,nan,nan,nan,nan,nan,10.348632574081421,11.54863257408142,0.005165576934814453,0.20708204555511478,-0.2598076211353316,0.0,-5.0,0.7277475812199709,0.008147094957507418,0.0012886596688038965,-0.0001989804623409593,nan,nan,nan,nan
20.452726364135742,0.25587192,-0.1550078,-2.420887,0.0006294593647995228,nan,nan,nan,nan,nan,10.446970462799072,11.646970462799072,0.006656169891357422,0.2011817722320557,-0.2598076211353316,0.0,-5.0,0.7279685132528937,0.010791717083428081,0.0032511695197020604,-0.0002475204971742571,nan,nan,nan,nan
20.550417184829712,0.25379887,-0.15717207,-2.4176164,0.0008349542972756474,nan,nan,nan,nan,nan,10.544649124145508,11.744649124145507,0.005191326141357422,0.19532105255126955,-0.2598076211353316,0.0,-5.0,0.7281275972771517,0.014011277075841442,0.004580130502103054,-0.00039953567617870994,nan,nan,nan,nan
20.664751529693604,0.25105587,-0.1539289,-2.4149292,0.0010312234707154921,nan,nan,nan,nan,nan,10.658982753753662,11.858982753753661,0.005568981170654297,0.1884610347747803,-0.2598076211353316,0.0,-5.0,0.7282030676002555,0.008415435297091078,0.005070035188059817,-0.0005300155437214747,nan,nan,nan,nan
20.757830381393433,0.24954166,-0.14853434,-2.4129207,0.0011360698187279361,nan,nan,nan,nan,nan,10.752227544784546,11.952227544784545,0.00558018684387207,0.18286634731292728,-0.2598076211353316,0.0,-5.0,0.7282629744641292,0.0011505024368949866,0.006830741827166498,-0.0005771686868519191,nan,nan,nan,nan
20.85128426551819,0.24939579,-0.1440331,-2.4155288,0.0011482627641608012,nan,nan,nan,nan,nan,10.845579862594604,12.045579862594604,0.0051403045654296875,0.17726520824432376,-0.2598076211353316,0.0,-5.0,0.7281156396683465,-0.0056575093097531145,0.00795378064136735,-0.0006167220573800527,nan,nan,nan,nan
20.96634554862976,0.24911866,-0.13901216,-2.4225364,0.0011150063510116937,nan,nan,nan,nan,nan,10.960592031478882,12.160592031478881,0.005229473114013672,0.17036447811126712,-0.2598076211353316,0.0,-5.0,0.7278040468516627,-0.010264715753043236,0.009322692211001156,-0.0006128167822254805,nan,nan,nan,nan
21.056811809539795,0.24638069,-0.13851202,-2.4303293,0.001073913486854483,nan,nan,nan,nan,nan,11.05133581161499,12.25133581161499,0.00533747673034668,0.16491985130310063,-0.2598076211353316,0.0,-5.0,0.727488353892129,-0.008384365807850262,0.007814063871533137,-0.0005978246221653599,nan,nan,nan,nan
21.14919352531433,0.24232359,-0.13939509,-2.436207,0.001024783124373041,nan,nan,nan,nan,nan,11.143480777740479,12.343480777740478,0.005847454071044922,0.15939115333557133,-0.2598076211353316,0.0,-5.0,0.7271964162853967,-0.004646146056622203,0.003710699909266852,-0.0005695238763010104,nan,nan,nan,nan
21.263412475585938,0.23001945,-0.13632992,-2.43888,0.0009457163396522361,nan,nan,nan,nan,nan,11.257688999176025,12.457688999176025,0.006434917449951172,0.1525386600494385,-0.2598076211353316,0.0,-5.0,0.7269403750633515,-0.0015761604684310273,-0.0054130892586839435,-0.0005456798830431848,nan,nan,nan,nan
21.359432220458984,0.21749292,-0.13292378,-2.4385326,0.0008706662119370989,nan,nan,nan,nan,nan,11.35367727279663,12.55367727279663,0.006292819976806641,0.1467793636322022,-0.2598076211353316,0.0,-5.0,0.7268863078528838,-0.001376756665833127,-0.015367251414447752,-0.0005225851154563187,nan,nan,nan,nan
21.45423197746277,0.20836613,-0.13098033,-2.4350872,0.0008906378776347701,nan,nan,nan,nan,nan,11.44852590560913,12.64852590560913,0.005465030670166016,0.14108844566345216,-0.2598076211353316,0.0,-5.0,0.7269415025797306,-0.0005631822592173683,-0.01791475860097638,-0.0005263097099240043,nan,nan,nan,nan
21.550172567367554,0.19777122,-0.12757899,-2.4301782,0.000986320611600533,nan,nan,nan,nan,nan,11.544418096542358,12.744418096542358,0.005406379699707031,0.13533491420745855,-0.2598076211353316,0.0,-5.0,0.7271541275373701,-6.833679656353878e-05,-0.018373223022022375,-0.000583701767079393,nan,nan,nan,nan
21.66438341140747,0.18519574,-0.116044156,-2.4199965,0.00097435029658266,nan,nan,nan,nan,nan,11.658615112304688,12.858615112304687,0.0065953731536865234,0.12848309326171878,-0.2598076211353316,0.0,-5.0,0.7275199378763157,-0.009423891685013166,-0.016816560143508054,-0.0006160462874641118,nan,nan,nan,nan
21.763373136520386,0.17710383,-0.1137311,-2.4147196,0.0009404546052946827,nan,nan,nan,nan,nan,11.757610559463501,12.9576105594635,0.006876230239868164,0.12254336643218997,-0.2598076211353316,0.0,-5.0,0.7277345717850388,-0.010822109171210058,-0.014428756045318255,-0.0006206985820069752,nan,nan,nan,nan
21.865299940109253,0.16876704,-0.112777345,-2.4049633,0.0008074566781925974,nan,nan,nan,nan,nan,11.859564781188965,13.059564781188964,0.005432844161987305,0.11642611312866213,-0.2598076211353316,0.0,-5.0,0.7279700345889035,-0.006663018790792599,-0.00935891435954678,-0.0005308365258521004,nan,nan,nan,nan
21.953367471694946,0.16585736,-0.111043245,-2.3992896,0.0006742432402093712,nan,nan,nan,nan,nan,11.947595357894897,13.147595357894897,0.005121469497680664,0.11114427852630619,-0.2598076211353316,0.0,-5.0,0.7281457719990195,-0.002567985486484389,-0.004462089761619009,-0.00046561579706498943,nan,nan,nan,nan
22.065051317214966,0.16398418,-0.10394341,-2.3894827,0.0005454657595875823,nan,nan,nan,nan,nan,12.059357166290283,13.259357166290282,0.005645275115966797,0.10443857002258304,-0.2598076211353316,0.0,-5.0,0.7282687126331046,-0.0018170455656021183,0.005994635089808242,-0.0003064143750309,nan,nan,nan,nan
22.157434701919556,0.16236797,-0.09584616,-2.3815808,0.0004258583707592578,nan,nan,nan,nan,nan,12.151739358901978,13.351739358901977,0.005316257476806641,0.09889563846588136,-0.2598076211353316,0.0,-5.0,0.7285924107345669,-0.007438900143995359,0.011469536248578192,-0.0002418967561513084,nan,nan,nan,nan
22.25287389755249,0.1631732,-0.09224184,-2.3782485,0.00034686860270882747,nan,nan,nan,nan,nan,12.247107744216919,13.447107744216918,0.005425453186035156,0.09317353534698489,-0.2598076211353316,0.0,-5.0,0.7286482273803622,-0.009463623765656235,0.015068026864248412,-0.00015625609540387018,nan,nan,nan,nan
22.36069631576538,0.1573283,-0.084482186,-2.3761368,0.00029747591282580643,nan,nan,nan,nan,nan,12.354953050613403,13.554953050613403,0.007279396057128906,0.08670281696319582,-0.2598076211353316,0.0,-5.0,0.7285345756045931,-0.009304328432353291,0.014238448690077595,-0.00010124636233892799,nan,nan,nan,nan
22.451477527618408,0.14272928,-0.0737568,-2.376103,0.0003524484502452907,nan,nan,nan,nan,nan,12.44570803642273,13.645708036422729,0.005234956741333008,0.08125751781463626,-0.2598076211353316,0.0,-5.0,0.7284184599879229,-0.012303277204893333,0.005149179863543055,-0.00017367664446996806,nan,nan,nan,nan
22.560718059539795,0.124839365,-0.06534399,-2.3796444,0.00041139518063459946,nan,nan,nan,nan,nan,12.554957866668701,13.7549578666687,0.005950927734375,0.07470252799987796,-0.2598076211353316,0.0,-5.0,0.728147105569897,-0.013239784358766325,-0.007966555760962077,-0.00025293491194824794,nan,nan,nan,nan
22.65288496017456,0.11295945,-0.061496686,-2.3818915,0.0004725167010621867,nan,nan,nan,nan,nan,12.647128820419312,13.84712882041931,0.0052530765533447266,0.06917227077484134,-0.2598076211353316,0.0,-5.0,0.7279679051545754,-0.011054876519532394,-0.014627027520792745,-0.00033188739888800623,nan,nan,nan,nan
22.761357307434082,0.099434085,-0.051622897,-2.380925,0.0005322878213505078,nan,nan,nan,nan,nan,12.755625009536743,13.955625009536742,0.006131649017333984,0.06266249942779542,-0.2598076211353316,0.0,-5.0,0.7278337040568318,-0.009552320654270587,-0.018301691122275723,-0.0004076041827920268,nan,nan,nan,nan
22.85290813446045,0.08662525,-0.042279378,-2.3793142,0.0004642626881095069,nan,nan,nan,nan,nan,12.847151756286621,14.04715175628662,0.005307197570800781,0.05717089462280277,-0.2598076211353316,0.0,-5.0,0.7277663430310355,-0.009078261034749466,-0.016061044851355094,-0.00036285487101364,nan,nan,nan,nan
22.96142077445984,0.07326353,-0.03753034,-2.377926,0.0004080986376497897,nan,nan,nan,nan,nan,12.955667972564697,14.155667972564697,0.0061855316162109375,0.0506599216461182,-0.2598076211353316,0.0,-5.0,0.7277012071535442,-0.0053403224199559465,-0.012856708937262663,-0.00029988234604601006,nan,nan,nan,nan
23.055227041244507,0.0570322,-0.036180615,-2.3767076,0.0003497847156133105,nan,nan,nan,nan,nan,13.049459457397461,14.24945945739746,0.006011962890625,0.04503243255615238,-0.2598076211353316,0.0,-5.0,0.7277444880957348,-0.0008719935731875047,-0.015679995821617023,-0.00031907860046111934,nan,nan,nan,nan
23.151246309280396,0.046275996,-0.034095857,-2.3665557,0.00047591044492545365,nan,nan,nan,nan,nan,13.14547872543335,14.345478725433349,0.005437135696411133,0.039271276473999035,-0.2598076211353316,0.0,-5.0,0.7279942407794033,0.006637744824918812,-0.012897981341258432,-0.00031068696640250464,nan,nan,nan,nan
23.24916386604309,0.038970836,-0.036564704,-2.354718,0.0006562064591348893,nan,nan,nan,nan,nan,13.243457555770874,14.443457555770873,0.005445718765258789,0.0333925466537476,-0.2598076211353316,0.0,-5.0,0.7282407884657768,0.010662751098137663,-0.007835603359490474,-0.00041644229475137933,nan,nan,nan,nan
23.35845422744751,0.028794006,-0.0443192,-2.3401794,0.0009144363978075276,nan,nan,nan,nan,nan,13.352762699127197,14.552762699127197,0.005435943603515625,0.026834238052368186,-0.2598076211353316,0.0,-5.0,0.7286812453515499,0.018262863603435767,0.00037268584964644124,-0.0005274103740224559,nan,nan,nan,nan
23.44896411895752,0.015333364,-0.058074243,-2.3314245,0.0011703869110046838,nan,nan,nan,nan,nan,13.443222522735596,14.643222522735595,0.0061969757080078125,0.0214066486358643,-0.2598076211353316,0.0,-5.0,0.7290194224791701,0.026703972699065725,0.002810823721317929,-0.0006815489001768373,nan,nan,nan,nan
23.56058168411255,-0.00247384,-0.076174065,-2.3301706,0.001198808100301374,nan,nan,nan,nan,nan,13.554853439331055,14.754853439331054,0.005301237106323242,0.01470879364013674,-0.2598076211353316,0.0,-5.0,0.7288980410075382,0.03740552905917471,-0.0021766693555242927,-0.0008105687316909196,nan,nan,nan,nan
23.65539860725403,-0.016780363,-0.084489904,-2.3293333,0.0010310838136593503,nan,nan,nan,nan,nan,13.649626970291138,14.849626970291137,0.004911899566650391,0.009022381782531773,-0.2598076211353316,0.0,-5.0,0.728760961211829,0.036876082255628634,-0.0068456299076195,-0.0007475693268864659,nan,nan,nan,nan
23.764361143112183,-0.034618482,-0.09765492,-2.3227363,0.0007746801337376041,nan,nan,nan,nan,nan,13.758837461471558,14.958837461471557,0.006106138229370117,0.0024697523117065854,-0.2598076211353316,0.0,-5.0,0.7286958388893197,0.0328069998131918,-0.011761434492328143,-0.0005965378216359494,nan,nan,nan,nan
23.854435920715332,-0.053266253,-0.11642146,-2.314165,0.0005479218096193783,nan,nan,nan,nan,nan,13.848664999008179,15.048664999008178,0.005330085754394531,-0.002919899940490667,-0.2598076211353316,0.0,-5.0,0.7288715648581992,0.0302182161224743,-0.015529424079946,-0.00043401058219916,nan,nan,nan,nan
23.948132276535034,-0.06328793,-0.12931831,-2.3107316,0.000484408904417144,nan,nan,nan,nan,nan,13.942399978637695,15.142399978637695,0.0076715946197509766,-0.008543998718261702,-0.2598076211353316,0.0,-5.0,0.7289717484399404,0.03141406370551435,-0.014442103584179897,-0.00036432654049152837,nan,nan,nan,nan
24.06440544128418,-0.073671035,-0.1433366,-2.3062468,0.0004835883456819623,nan,nan,nan,nan,nan,14.058666706085205,15.258666706085204,0.006366729736328125,-0.015520002365112261,-0.2598076211353316,0.0,-5.0,0.7289389837476612,0.024557152478608717,-0.0072159238059187605,-0.00033971501593768746,nan,nan,nan,nan
24.156062126159668,-0.0795962,-0.15620428,-2.3015132,0.000860915710682697,nan,nan,nan,nan,nan,14.15032410621643,15.35032410621643,0.005011796951293945,-0.021019446372985782,-0.2598076211353316,0.0,-5.0,0.7277035699263896,0.02278561397700963,-0.005295406538772698,-0.00047637363655541004,nan,nan,nan,nan
24.251385927200317,-0.08512583,-0.16949362,-2.3011427,0.001935670257096067,nan,nan,nan,nan,nan,14.24563479423523,15.445634794235229,0.005882978439331055,-0.02673808765411374,-0.2598076211353316,0.0,-5.0,0.72577650505388,0.06377928552298748,-0.038807182594445384,-0.0012602223435440288,nan,nan,nan,nan
24.35082745552063,-0.0881144,-0.1782647,-2.3035994,0.002290058526226879,nan,nan,nan,nan,nan,14.345064401626587,15.545064401626586,0.005777835845947266,-0.03270386409759516,-0.2598076211353316,0.0,-5.0,0.7250499856993011,0.05782265234239772,-0.029440500911422456,-0.0014094482542685582,nan,nan,nan,nan
24.46389627456665,-0.090097964,-0.18581368,-2.3084583,0.0013708873620661421,nan,nan,nan,nan,nan,14.458157300949097,15.658157300949096,0.006397247314453125,-0.039489438056945755,-0.2598076211353316,0.0,-5.0,0.7251733354338341,0.055233287064659735,-0.020307701270701972,-0.0010616291728865687,nan,nan,nan,nan
24.557573318481445,-0.09198959,-0.18870121,-2.3150895,0.0005855994580903356,nan,nan,nan,nan,nan,14.551843881607056,15.751843881607055,0.005001544952392578,-0.045110632896423294,-0.2598076211353316,0.0,-5.0,0.7248200086421359,0.056640936813092596,-0.01914401422007566,-0.0005659567306211971,nan,nan,nan,nan
24.651076555252075,-0.09393143,-0.19150794,-2.318637,-5.263674948885466e-05,nan,nan,nan,nan,nan,14.645309686660767,15.845309686660766,0.005811214447021484,-0.05071858119964594,-0.2598076211353316,0.0,-5.0,0.7243204390573509,0.051249564132920915,-0.016399339721492174,-2.5781904163810706e-05,nan,nan,nan,nan
24.74649214744568,-0.09770864,-0.19507602,-2.32165,-0.0006325454609701353,nan,nan,nan,nan,nan,14.74095869064331,15.94095869064331,0.008373260498046875,-0.056457521438598585,-0.2598076211353316,0.0,-5.0,0.7240101882902843,0.04354883023209062,-0.013269391591698942,0.00028636461041951745,nan,nan,nan,nan
24.86589765548706,-0.10517533,-0.20110296,-2.3295834,-0.002310149401178574,nan,nan,nan,nan,nan,14.8602294921875,16.0602294921875,0.006622791290283203,-0.06361376953124999,-0.2598076211353316,0.0,-5.0,0.7235147892908999,0.025449737943296944,-0.011546101388913599,0.0010606089118793643,nan,nan,nan,nan
24.96346139907837,-0.11065324,-0.20545167,-2.3388193,-0.004371843586711499,nan,nan,nan,nan,nan,14.957746982574463,16.157746982574462,0.007520914077758789,-0.06946481895446774,-0.2598076211353316,0.0,-5.0,0.7231566615665042,0.006813574941330616,-0.009281545174012008,0.002217546381471911,nan,nan,nan,nan
25.060477018356323,-0.11470893,-0.20928922,-2.3515916,-0.00693952483920679,nan,nan,nan,nan,nan,15.054813861846924,16.254813861846923,0.005448818206787109,-0.07528883171081543,-0.2598076211353316,0.0,-5.0,0.7227133990117403,-0.021780976365329434,0.00195836288516009,0.003975902500755125,nan,nan,nan,nan
25.153422832489014,-0.11769751,-0.20861177,-2.3571768,-0.007850250156703709,nan,nan,nan,nan,nan,15.147655487060547,16.347655487060546,0.005532026290893555,-0.08085932922363277,-0.2598076211353316,0.0,-5.0,0.7225837087837302,-0.03470696868477793,0.00974219250133461,0.004714642978232111,nan,nan,nan,nan
25.251109838485718,-0.11780513,-0.20001276,-2.3677611,-0.00843815827357064,nan,nan,nan,nan,nan,15.24536681175232,16.44536681175232,0.0059528350830078125,-0.08672200870513913,-0.2598076211353316,0.0,-5.0,0.7223915962590588,-0.053689789333863744,0.020330341495134272,0.005281185294343339,nan,nan,nan,nan
25.365387678146362,-0.11872893,-0.18537092,-2.3720315,-0.00812867645573423,nan,nan,nan,nan,nan,15.359627485275269,16.559627485275268,0.009376287460327148,-0.09357764911651607,-0.2598076211353316,0.0,-5.0,0.722240418627965,-0.06541734172556005,0.02838718767937448,0.005281727945747779,nan,nan,nan,nan
25.464592456817627,-0.12102003,-0.16983014,-2.3701324,-0.007337839425040293,nan,nan,nan,nan,nan,15.458843469619751,16.65884346961975,0.006776332855224609,-0.09953060817718504,-0.2598076211353316,0.0,-5.0,0.7223859473688119,-0.06983904933736683,0.02674660643077368,0.004910185344493046,nan,nan,nan,nan
25.548608541488647,-0.12162263,-0.15584616,-2.3670416,-0.006372740004461974,nan,nan,nan,nan,nan,15.542858839035034,16.742858839035033,0.006830930709838867,-0.10457153034210205,-0.2598076211353316,0.0,-5.0,0.7226774186160319,-0.06910269287866448,0.024824698220360986,0.004381079805746959,nan,nan,nan,nan
25.66267442703247,-0.12410547,-0.13361597,-2.3661184,-0.004729574842144313,nan,nan,nan,nan,nan,15.656940698623657,16.856940698623657,0.006745815277099609,-0.11141644191741941,-0.2598076211353316,0.0,-5.0,0.7227559810571417,-0.06171231395309492,0.019484961308048374,0.0033257519626309975,nan,nan,nan,nan
25.757769346237183,-0.12758842,-0.11727856,-2.3635123,-0.0072557059831450665,nan,nan,nan,nan,nan,15.752055168151855,16.952055168151855,0.005176544189453125,-0.1171233100891113,-0.2598076211353316,0.0,-5.0,0.7222143491009784,-0.05625700828487332,0.013382735266465946,0.0030718089897761847,nan,nan,nan,nan
25.852932691574097,-0.13216078,-0.09565709,-2.3612506,-0.01795444525033929,nan,nan,nan,nan,nan,15.84717607498169,17.04717607498169,0.005373716354370117,-0.12283056449890134,-0.2598076211353316,0.0,-5.0,0.7221730315507516,-0.06950194621988019,0.004580888329563406,0.009048407758969534,nan,nan,nan,nan
25.965680360794067,-0.1352501,-0.07745478,-2.3587182,-0.03189937388875386,nan,nan,nan,nan,nan,15.959913969039917,17.159913969039916,0.0075473785400390625,-0.12959483814239503,-0.2598076211353316,0.0,-5.0,0.7221944628614022,-0.08102788909838872,0.003423876861656494,0.017940608146520372,nan,nan,nan,nan
26.060901880264282,-0.1398431,-0.06399327,-2.3499494,-0.04770330605431283,nan,nan,nan,nan,nan,16.055301666259766,17.255301666259765,0.005359649658203125,-0.13531809997558594,-0.2598076211353316,0.0,-5.0,0.7226304604575587,-0.08490026526053145,0.0019180437166973507,0.02624768835632561,nan,nan,nan,nan
26.151437520980835,-0.14002481,-0.047883898,-2.34106,-0.06159061896302909,nan,nan,nan,nan,nan,16.145671606063843,17.345671606063842,0.0059239864349365234,-0.14074029636383056,-0.2598076211353316,0.0,-5.0,0.722956071696123,-0.08936303408771502,0.000799475963541637,0.03415624611747857,nan,nan,nan,nan
26.266059637069702,-0.13994531,-0.03615956,-2.3371744,-0.07553205435798027,nan,nan,nan,nan,nan,16.260356426239014,17.460356426239013,0.007787227630615234,-0.1476213855743408,-0.2598076211353316,0.0,-5.0,0.7232748578838413,-0.09528491929199485,0.0003450493697151548,0.04623425880438789,nan,nan,nan,nan
26.36153292655945,-0.1387268,-0.024864059,-2.3349335,-0.0940516066420507,nan,nan,nan,nan,nan,16.355852603912354,17.555852603912353,0.005387306213378906,-0.1533511562347412,-0.2598076211353316,0.0,-5.0,0.7233064530042506,-0.09526585416197476,0.0008181845141837391,0.05573198219295782,nan,nan,nan,nan
26.46444034576416,-0.1373425,-0.01911222,-2.33487,-0.10592612888560193,nan,nan,nan,nan,nan,16.458677530288696,17.658677530288696,0.006585836410522461,-0.15952065181732172,-0.2598076211353316,0.0,-5.0,0.7235088217059443,-0.0948088178634931,0.0022609475263795508,0.06342282001272727,nan,nan,nan,nan
26.559504508972168,-0.13363187,-0.01306396,-2.3358295,-0.12149948955931311,nan,nan,nan,nan,nan,16.55385732650757,17.753857326507568,0.005045175552368164,-0.16523143959045408,-0.2598076211353316,0.0,-5.0,0.7235583854987451,-0.09075223252507206,0.0040604489966437445,0.07433257890198346,nan,nan,nan,nan
26.656755685806274,-0.13002561,-0.011234669,-2.3340123,-0.13092303497312052,nan,nan,nan,nan,nan,16.651034355163574,17.851034355163574,0.005311250686645508,-0.17106206130981444,-0.2598076211353316,0.0,-5.0,0.7235334108285701,-0.0847032816160321,0.006611909585191493,0.08207979320618021,nan,nan,nan,nan
26.75512719154358,-0.121128306,-0.010639316,-2.3293087,-0.14009555188078693,nan,nan,nan,nan,nan,16.74935245513916,17.94935245513916,0.005417346954345703,-0.1769611473083496,-0.2598076211353316,0.0,-5.0,0.7236430371580823,-0.07627817212874063,0.013072757716823098,0.08736590718129891,nan,nan,nan,nan
26.849726915359497,-0.11513901,-0.01078791,-2.3287423,-0.14300465176064847,nan,nan,nan,nan,nan,16.84395933151245,18.04395933151245,0.007377147674560547,-0.18263755989074706,-0.2598076211353316,0.0,-5.0,0.7237690172766219,-0.0718631382598166,0.019710217094142,0.08999706600171879,nan,nan,nan,nan
26.961658239364624,-0.10770495,-0.007479753,-2.3373857,-0.14338712162775558,nan,nan,nan,nan,nan,16.95599627494812,18.15599627494812,0.00528717041015625,-0.18935977649688718,-0.2598076211353316,0.0,-5.0,0.7234714395096645,-0.0646760809044714,0.026660606263161385,0.09124968745137889,nan,nan,nan,nan
27.05523920059204,-0.11018226,-0.011671825,-2.3444602,-0.14241043858777047,nan,nan,nan,nan,nan,17.049487352371216,18.249487352371215,0.005191326141357422,-0.1949692411422729,-0.2598076211353316,0.0,-5.0,0.7228999437184984,-0.04295093874344803,0.02926906796532792,0.09074998635841497,nan,nan,nan,nan
27.149429082870483,-0.114107236,-0.019239044,-2.3528726,-0.14036738333352616,nan,nan,nan,nan,nan,17.143661737442017,18.343661737442016,0.006640911102294922,-0.20061970424652098,-0.2598076211353316,0.0,-5.0,0.7224406812665415,-0.014567800819256706,0.028487093734061168,0.08983842802486383,nan,nan,nan,nan
27.2491774559021,-0.116531394,-0.025215918,-2.3590257,-0.13826029445101717,nan,nan,nan,nan,nan,17.24341630935669,18.44341630935669,0.007540225982666016,-0.20660497856140136,-0.2598076211353316,0.0,-5.0,0.7220702393974473,0.017154969875214754,0.027794803666551602,0.08864500431368247,nan,nan,nan,nan
27.36508560180664,-0.120181024,-0.037164193,-2.3665793,-0.1321835698727849,nan,nan,nan,nan,nan,17.359341621398926,18.559341621398925,0.006257057189941406,-0.21356049728393556,-0.2598076211353316,0.0,-5.0,0.7221223230817768,0.0698802729662782,0.025003328329536795,0.08559765357968958,nan,nan,nan,nan
27.464843034744263,-0.12394701,-0.04672629,-2.3721275,-0.12586159601580338,nan,nan,nan,nan,nan,17.459083080291748,18.659083080291747,0.008380889892578125,-0.21954498481750484,-0.2598076211353316,0.0,-5.0,0.7222703684007195,0.10182517678538905,0.018565464374494387,0.08126735762843604,nan,nan,nan,nan
27.559859037399292,-0.124162845,-0.05648842,-2.3749208,-0.11489440108883375,nan,nan,nan,nan,nan,17.554145574569702,18.7541455745697,0.004994869232177734,-0.2252487344741821,-0.2598076211353316,0.0,-5.0,0.7224310602238724,0.11124484181573453,0.013534134763214353,0.07527109055325751,nan,nan,nan,nan
27.657405614852905,-0.12563202,-0.06795542,-2.3754756,-0.10556253356799417,nan,nan,nan,nan,nan,17.651671409606934,18.851671409606933,0.005087852478027344,-0.23110028457641602,-0.2598076211353316,0.0,-5.0,0.7224443570208482,0.11207449228517184,0.011134865702178514,0.07039348891462846,nan,nan,nan,nan
27.758849382400513,-0.13021024,-0.093449146,-2.379723,-0.09009849081987475,nan,nan,nan,nan,nan,17.75308132171631,18.953081321716308,0.005502462387084961,-0.2371848793029785,-0.2598076211353316,0.0,-5.0,0.7224488572309798,0.10835871898222929,0.005847383868588897,0.061496249422497,nan,nan,nan,nan
27.85666561126709,-0.13496077,-0.11374491,-2.3852181,-0.07912333906992686,nan,nan,nan,nan,nan,17.85090160369873,19.05090160369873,0.005332231521606445,-0.24305409622192378,-0.2598076211353316,0.0,-5.0,0.7223183826303753,0.11040587292741788,0.000592819502387287,0.054199204646380415,nan,nan,nan,nan
27.94832944869995,-0.14571632,-0.13893351,-2.3831115,-0.06608843423185817,nan,nan,nan,nan,nan,17.942565202713013,19.142565202713012,0.006696462631225586,-0.24855391216278072,-0.2598076211353316,0.0,-5.0,0.7221662984953002,0.09661800241664727,-0.008609011065122138,0.043504809042656835,nan,nan,nan,nan
28.062141180038452,-0.14641449,-0.15504256,-2.3767824,-0.06470371914878381,nan,nan,nan,nan,nan,18.056614637374878,19.256614637374877,0.0052373409271240234,-0.2553968782424927,-0.2598076211353316,0.0,-5.0,0.7219835445085264,0.10663913273741381,-0.008103008965413081,0.04153129479074705,nan,nan,nan,nan
28.156116008758545,-0.14381725,-0.169544,-2.378206,-0.07059233749673588,nan,nan,nan,nan,nan,18.150367736816406,19.350367736816406,0.005486965179443359,-0.2610220642089844,-0.2598076211353316,0.0,-5.0,0.7220406728390707,0.11018312395613097,-0.007799784491740879,0.04355092209465739,nan,nan,nan,nan
28.25351047515869,-0.14286001,-0.17752358,-2.3835042,-0.07877385332669107,nan,nan,nan,nan,nan,18.247748374938965,19.447748374938964,0.006094455718994141,-0.2668649024963379,-0.2598076211353316,0.0,-5.0,0.7218123187383103,0.11020416027325775,-0.007358472610315068,0.04776410874091964,nan,nan,nan,nan
28.350929737091064,-0.14374915,-0.1862106,-2.3917468,-0.09046144661916777,nan,nan,nan,nan,nan,18.345291137695312,19.545291137695312,0.007315874099731445,-0.2727174682617187,-0.2598076211353316,0.0,-5.0,0.7215286021756545,0.10884164992407654,-0.011612810190563537,0.05651761708188701,nan,nan,nan,nan
28.463708639144897,-0.13743302,-0.19736943,-2.4031572,-0.1081182220238146,nan,nan,nan,nan,nan,18.45796275138855,19.65796275138855,0.0052297115325927734,-0.27947776508331296,-0.2598076211353316,0.0,-5.0,0.7212065510539954,0.10814506108935674,-0.007940583990129417,0.06587409646264669,nan,nan,nan,nan
28.555716514587402,-0.13038075,-0.20723219,-2.4102805,-0.1293597400319637,nan,nan,nan,nan,nan,18.549952268600464,19.749952268600463,0.00551915168762207,-0.2849971361160278,-0.2598076211353316,0.0,-5.0,0.7208897964138247,0.10231894828642292,-0.00017615046002924283,0.07817605504483821,nan,nan,nan,nan
28.649391174316406,-0.12940806,-0.20870264,-2.4156306,-0.1427198230670914,nan,nan,nan,nan,nan,18.643707990646362,19.84370799064636,0.006078958511352539,-0.2906224794387817,-0.2598076211353316,0.0,-5.0,0.720628713913725,0.09871953293217531,0.002877112437931483,0.08645828134052246,nan,nan,nan,nan
28.756348133087158,-0.13041265,-0.20763952,-2.4239304,-0.16233308193939777,nan,nan,nan,nan,nan,18.750576734542847,19.950576734542846,0.005661725997924805,-0.29703460407257076,-0.2598076211353316,0.0,-5.0,0.7202085916584099,0.08484485289461448,0.002621994162110344,0.09880348674797704,nan,nan,nan,nan
28.849183797836304,-0.132579,-0.20475084,-2.4315808,-0.18083540698059508,nan,nan,nan,nan,nan,18.84346032142639,20.04346032142639,0.0068225860595703125,-0.29869619035720824,-0.2575493565906181,0.0,-5.0,0.7196918504790504,0.06681480768439749,0.001146226459336349,0.11181812070734784,nan,nan,nan,nan
28.962931394577026,-0.13612902,-0.19144091,-2.4419386,-0.19713509277312546,nan,nan,nan,nan,nan,18.957233667373657,20.157233667373657,0.0054149627685546875,-0.29528298997879027,-0.2516375201187849,0.0,-5.0,0.7191319261911239,0.0339608318414073,-0.004155572893273558,0.12196954998388183,nan,nan,nan,nan
29.056281566619873,-0.13536061,-0.18730038,-2.440637,-0.20161239129732955,nan,nan,nan,nan,nan,19.05053162574768,20.25053162574768,0.005274772644042969,-0.2924840512275696,-0.24678961599439725,0.0,-5.0,0.7188783668138371,0.004968515694440783,-0.005679497321336304,0.1272943666783964,nan,nan,nan,nan
29.16340470314026,-0.13258553,-0.18043484,-2.4426227,-0.19972702227760486,nan,nan,nan,nan,nan,19.157737970352173,20.357737970352172,0.005418539047241211,-0.28926786088943485,-0.2412190109219357,0.0,-5.0,0.718887478623398,-0.04054446744144398,-0.0024738374870548353,0.12844990551007696,nan,nan,nan,nan
29.255423545837402,-0.12733667,-0.17113943,-2.4450386,-0.18777413323715564,nan,nan,nan,nan,nan,19.24966287612915,20.44966287612915,0.007689476013183594,-0.2865101137161255,-0.2364424527033345,0.0,-5.0,0.7192100652319813,-0.08560217909288581,0.0011654823526507786,0.12267989951260064,nan,nan,nan,nan
29.351518392562866,-0.12287311,-0.16286828,-2.4468253,-0.1765143060933081,nan,nan,nan,nan,nan,19.345797538757324,20.545797538757324,0.005962371826171875,-0.2836260738372803,-0.23144714910211978,0.0,-5.0,0.7196012892030635,-0.10347011353418813,0.005384563266141188,0.11556803575248453,nan,nan,nan,nan
29.46283268928528,-0.11596368,-0.13666314,-2.4455662,-0.15068821599045013,nan,nan,nan,nan,nan,19.45737099647522,20.65737099647522,0.008602380752563477,-0.2802788701057434,-0.2256496221758138,0.0,-5.0,0.7200196619928553,-0.11572913326286663,0.008238205233920774,0.10183806104129589,nan,nan,nan,nan
29.55077886581421,-0.11228707,-0.12125198,-2.4440079,-0.1339966194390101,nan,nan,nan,nan,nan,19.545050859451294,20.745050859451293,0.009101152420043945,-0.2776484742164612,-0.22109364285155667,0.0,-5.0,0.7202146097740562,-0.11023935593428082,0.009775115052464176,0.0904418844216609,nan,nan,nan,nan
29.651129007339478,-0.109384455,-0.10631218,-2.4420593,-0.1168639988184701,nan,nan,nan,nan,nan,19.645432472229004,20.845432472229003,0.0066165924072265625,-0.2746370258331299,-0.2158776612472557,0.0,-5.0,0.7201953108843278,-0.09808327084155885,0.011276767548058344,0.07954838177988398,nan,nan,nan,nan
