time,x,y,z,yaw,platform,trajectory,traj_double,traj_short,traj_spin,traj_time,ref_time,comptime,x_ref,y_ref,yaw_ref,z_ref,throttle_input,p_input,q_input,r_input,cbf_term_pitch_cbf,cbf_term_roll_cbf,cbf_term_thrust_cbf,cbf_term_yaw_cbf
10.054834365844727,-0.013933721,-0.0020236673,-3.2284102,-0.0016759472572448033,SIM,FIG8_VERTICAL,NormSpd,Short,NoSpin,0.05424237251281738,1.2542423725128173,0.0061109066009521484,0.0,0.32776189695574026,0.0,-5.229936469990545,0.8785971096381059,0.4105155683355647,0.008486545646408267,0.002398114510581679,nan,nan,nan,nan
10.189855337142944,-0.00589453,0.0029874016,-3.2291698,-0.000576937023801589,nan,nan,nan,nan,nan,0.18926715850830078,1.3892671585083007,0.005888223648071289,0.0,0.3409524451120879,0.0,-5.154044236093971,0.8785971096381059,0.4135403607441708,0.010319357538337152,0.0022827830211108848,nan,nan,nan,nan
10.26738953590393,-0.0015951821,0.0074323225,-3.2296607,-0.00010536775810421312,nan,nan,nan,nan,nan,0.2667880058288574,1.4667880058288574,0.00791311264038086,0.0,0.3459148948490182,0.0,-5.105392789639321,0.8785971096381059,0.3454475262680494,0.01334659558284378,0.00037000227342578096,nan,nan,nan,nan
10.370773077011108,0.0015464642,0.01397549,-3.2380028,0.00038794561099671004,nan,nan,nan,nan,nan,0.3704662322998047,1.5704662322998046,0.005835056304931641,0.0,0.34951381505363044,0.0,-5.036831991333108,0.8785971096381059,0.2642469869406402,0.012245960946609265,-0.00021119072105079274,nan,nan,nan,nan
10.466288328170776,0.001328967,0.026277464,-3.2593267,0.0012605238476138866,nan,nan,nan,nan,nan,0.46572136878967285,1.6657213687896728,0.0071713924407958984,0.0,0.34972888113956646,0.0,-4.972474309975323,0.8785971096381059,0.17274723240327294,0.005102362090560057,-0.0014343715651880522,nan,nan,nan,nan
10.566017389297485,-0.002118023,0.033943158,-3.2767582,0.0019156813074332297,nan,nan,nan,nan,nan,0.565464973449707,1.765464973449707,0.007527828216552734,0.0,0.34677863580194024,0.0,-4.906118155847445,0.8785971096381059,0.14177602357408645,-0.0001416638041597174,-0.0021918585822355875,nan,nan,nan,nan
10.666478395462036,-0.008679695,0.043732762,-3.301653,0.0027468049771836355,nan,nan,nan,nan,nan,0.6658854484558105,1.8658854484558105,0.007523775100708008,0.0,0.3405544108123896,0.0,-4.842832791625778,0.8785971096381059,0.15139838490330165,-0.00697467769635429,-0.0036317072497910395,nan,nan,nan,nan
10.763740062713623,-0.012621072,0.05018062,-3.3384376,0.002922939513119512,nan,nan,nan,nan,nan,0.7631564140319824,1.9631564140319824,0.007693767547607422,0.0,0.3314674189976436,0.0,-4.787140371444086,0.8785971096381059,0.09600482083574054,-0.011017117031416937,-0.0038951965441729624,nan,nan,nan,nan
10.86475157737732,-0.016855907,0.060973,-3.4297116,0.0027315187536290277,nan,nan,nan,nan,nan,0.8641736507415771,2.0641736507415773,0.00644993782043457,0.0,0.31893213698570905,0.0,-4.737271639681424,0.8785971096381059,-0.04260016272575721,-0.014578849651313576,-0.0038527332030529374,nan,nan,nan,nan
10.959002494812012,-0.019456837,0.07129547,-3.5231974,0.002623264940320426,nan,nan,nan,nan,nan,0.9584090709686279,2.158409070968628,0.00639653205871582,0.0,0.30449609731236915,0.0,-4.699723368285758,0.8785971096381059,-0.13170079131276527,-0.013955775257780268,-0.003604806603622526,nan,nan,nan,nan
11.057311534881592,-0.028376032,0.090157226,-3.6908123,0.0029853738496172576,nan,nan,nan,nan,nan,1.056715965270996,2.2567159652709963,0.005727291107177734,0.0,0.28674754613850373,0.0,-4.671160491327648,0.8785971096381059,-0.18225623946621836,-0.017124803153586565,-0.0037396064414157663,nan,nan,nan,nan
11.170713901519775,-0.033662457,0.10633779,-3.8713782,0.0034594855581115327,nan,nan,nan,nan,nan,1.1701228618621826,2.370122861862183,0.005677461624145508,0.0,0.263070038291172,0.0,-4.65296511828109,0.8440824295604666,-0.17954281784667966,-0.017557260265061384,-0.004365589354514,nan,nan,nan,nan
11.265005588531494,-0.03780744,0.12238756,-4.1175504,0.003459672491286144,nan,nan,nan,nan,nan,1.2645137310028076,2.464513731002808,0.006736040115356445,0.0,0.24094118223272953,0.0,-4.6504772011615865,0.7565537002010867,-0.11908825783054913,-0.008989905987594233,-0.004857251584376894,nan,nan,nan,nan
11.360472202301025,-0.04077801,0.13027042,-4.303783,0.00282584931254138,nan,nan,nan,nan,nan,1.3599209785461426,2.5599209785461428,0.0052225589752197266,0.0,0.2165377896091527,0.0,-4.659756960737407,0.7072136614046135,-0.0858249983952011,-0.002906203988299472,-0.004088625950351852,nan,nan,nan,nan
11.471036672592163,-0.051952634,0.13227238,-4.5636606,0.0030672897428857954,nan,nan,nan,nan,nan,1.4705040454864502,2.6705040454864504,0.0056993961334228516,0.0,0.1859644591507701,0.0,-4.684914167518665,0.6547708299121106,-0.03199263023039063,-0.007795649124872294,-0.003957382364780004,nan,nan,nan,nan
11.560945272445679,-0.061545085,0.12225923,-4.8081264,0.002831806457858778,nan,nan,nan,nan,nan,1.5603959560394287,2.760395956039429,0.0066738128662109375,0.0,0.15953061010015454,0.0,-4.716009565322396,0.6211866187196157,0.026130625511035753,-0.014653132584061845,-0.004153940610237271,nan,nan,nan,nan
11.662953615188599,-0.06304452,0.11186185,-4.967909,0.0032243417982081024,nan,nan,nan,nan,nan,1.6626346111297607,2.862634611129761,0.0055539608001708984,0.0,0.1280144148746026,0.0,-4.761711155980729,0.6157202559194371,0.04892044666965651,-0.013163845007780494,-0.003710835378730995,nan,nan,nan,nan
11.756331443786621,-0.059432987,0.09806694,-5.125251,0.005968467471288763,nan,nan,nan,nan,nan,1.7558000087738037,2.955800008773804,0.0057010650634765625,0.0,0.09819906807849056,0.0,-4.811490405700648,0.6136619992269923,0.06920326174568674,0.00080255600797351,-0.006244859863420289,nan,nan,nan,nan
11.869465589523315,-0.04674111,0.0781369,-5.297673,0.008011867496293089,nan,nan,nan,nan,nan,1.8689017295837402,3.0689017295837404,0.005971431732177734,0.0,0.06095767850147444,0.0,-4.879947933968791,0.6168262516885404,0.08368739766629034,0.03497065882144466,-0.010228851008656156,nan,nan,nan,nan
11.96665334701538,-0.035656724,0.048720874,-5.448629,0.004418396272227076,nan,nan,nan,nan,nan,1.9660823345184326,3.166082334518433,0.006568193435668945,0.0,0.028360347871697385,0.0,-4.943465819016517,0.6252918148911787,0.09313163997906176,0.05004814298515703,-0.007874048101020378,nan,nan,nan,nan
12.062056064605713,-0.03609285,0.030742561,-5.519952,-8.94741247596878e-05,nan,nan,nan,nan,nan,2.0614988803863525,3.2614988803863527,0.005696535110473633,0.0,-0.003890282768474495,0.0,-5.007780084895927,0.6336891715846135,0.08784138284107008,0.0439379226192963,-0.003333848194982347,nan,nan,nan,nan
12.160387992858887,-0.031059531,-0.00918907,-5.624661,-0.00782840401839225,nan,nan,nan,nan,nan,2.159801959991455,3.3598019599914553,0.0053141117095947266,0.0,-0.037079076832440605,0.0,-5.073740828697326,0.6433388259970794,0.09601386081822542,0.017108310905121195,0.007189347829619518,nan,nan,nan,nan
12.25891661643982,-0.025081089,-0.03944783,-5.676736,-0.011435847972753436,nan,nan,nan,nan,nan,2.2583329677581787,3.458332967758179,0.005566120147705078,0.0,-0.07000887163782417,0.0,-5.1371880858787184,0.6513341629056948,0.09789622114474109,0.01037368594093233,0.013586856925998578,nan,nan,nan,nan
12.352708339691162,-0.01645525,-0.07919254,-5.7260485,-0.01250354242336175,nan,nan,nan,nan,nan,2.3521170616149902,3.5521170616149904,0.007151603698730469,0.0,-0.10076712637256963,0.0,-5.193001020608027,0.660748256040029,0.10579961357345306,0.010079889483477248,0.017117343789571533,nan,nan,nan,nan
12.463094711303711,0.00083735824,-0.12741764,-5.765067,-0.012012555600301292,nan,nan,nan,nan,nan,2.4626684188842773,3.6626684188842775,0.006958484649658203,0.0,-0.13594282780429257,0.0,-5.250539225868778,0.6652892462063569,0.10790434500625093,0.020961474779850515,0.017193500244058448,nan,nan,nan,nan
12.563405513763428,0.018534925,-0.17926438,-5.787405,-0.009685362352047953,nan,nan,nan,nan,nan,2.562994956970215,3.762994956970215,0.005042552947998047,0.0,-0.16653310364543855,0.0,-5.292947950750146,0.6742076349682593,0.10067763473860607,0.032913008473741207,0.014921760406978813,nan,nan,nan,nan
12.662611722946167,0.025846036,-0.21064876,-5.7939124,-0.008128644491993076,nan,nan,nan,nan,nan,2.6620750427246094,3.8620750427246096,0.005810976028442383,0.0,-0.19520846001590508,0.0,-5.324052585013093,0.6775690410657147,0.08649767164168931,0.03325887510032676,0.012391801980541694,nan,nan,nan,nan
12.757604598999023,0.031423435,-0.25273454,-5.7942657,-0.0072672593276791025,nan,nan,nan,nan,nan,2.7570035457611084,3.9570035457611086,0.0055942535400390625,0.0,-0.22100720323700868,0.0,-5.34274561169104,0.6860523433454055,0.05289304299137659,0.008248250659806854,0.010580093773539079,nan,nan,nan,nan
12.853532314300537,0.03479875,-0.28358912,-5.7868524,-0.00694943789198027,nan,nan,nan,nan,nan,2.852961301803589,4.052961301803589,0.006638288497924805,0.0,-0.2451949220189895,0.0,-5.3499404890378655,0.6828145475607301,0.04892112192819561,-0.0022601551929981568,0.010488757478197197,nan,nan,nan,nan
12.966722249984741,0.039021526,-0.31709614,-5.7694445,-0.007674623562633105,nan,nan,nan,nan,nan,2.966214179992676,4.166214179992676,0.006398916244506836,0.0,-0.27101489108979115,0.0,-5.34298783994831,0.6860935174800546,0.031733016517082886,-0.016116687595762395,0.010583221627278172,nan,nan,nan,nan
13.05748724937439,0.034752212,-0.33654174,-5.7504826,-0.009782658881976623,nan,nan,nan,nan,nan,3.056896448135376,4.256896448135376,0.006232261657714844,0.0,-0.2893633760512522,0.0,-5.325571888281125,0.6920482280055406,0.005811261751609293,-0.02985462288852116,0.013542962729827496,nan,nan,nan,nan
13.168626546859741,0.02687374,-0.3541936,-5.71534,-0.011435468451937058,nan,nan,nan,nan,nan,3.168050765991211,4.368050765991211,0.0060460567474365234,0.0,-0.3088100134192689,0.0,-5.290689434170578,0.692587718850045,-0.006655682819986707,-0.041701736345008136,0.015561844894130785,nan,nan,nan,nan
13.26047945022583,0.019063007,-0.36416742,-5.666549,-0.01069555243067316,nan,nan,nan,nan,nan,3.2598817348480225,4.459881734848023,0.00531458854675293,0.0,-0.32219778153042655,0.0,-5.2516939406594885,0.7039571401955858,-0.03203651241525717,-0.04447328773153127,0.015880726113154057,nan,nan,nan,nan
13.357520580291748,0.011332532,-0.36665857,-5.6128693,-0.008279887375253123,nan,nan,nan,nan,nan,3.3569209575653076,4.556920957565308,0.006076335906982422,0.0,-0.33358590038699104,0.0,-5.201917852193044,0.7105468254477693,-0.040164248929490096,-0.043248326271822415,0.013311615248237386,nan,nan,nan,nan
13.4689621925354,0.0011757814,-0.3609115,-5.548827,-0.00395652228274616,nan,nan,nan,nan,nan,3.468541383743286,4.668541383743286,0.007097482681274414,0.0,-0.3430530342217004,0.0,-5.136020394651479,0.7204172295850211,-0.0487647705174836,-0.037643376948751146,0.007645110618072053,nan,nan,nan,nan
13.564198732376099,-0.004966705,-0.35312453,-5.5089717,-0.0019110109202756468,nan,nan,nan,nan,nan,3.563751697540283,4.763751697540283,0.005335330963134766,0.0,-0.3479781948849505,0.0,-5.074697240008589,0.7263976070472394,-0.04656628411439636,-0.031216639470555002,0.003883059244119969,nan,nan,nan,nan
13.658124923706055,-0.012173107,-0.33860537,-5.4535646,-0.0009358669066360965,nan,nan,nan,nan,nan,3.657543182373047,4.857543182373047,0.006815195083618164,0.0,-0.3499501699966577,0.0,-5.011809926097557,0.7338983653769059,-0.04109914434292808,-0.02124776423572196,0.0009245537213158375,nan,nan,nan,nan
13.754655122756958,-0.019230187,-0.3135333,-5.3953767,-0.0029277232864325705,nan,nan,nan,nan,nan,3.7540910243988037,4.954091024398804,0.006109476089477539,0.0,-0.3489776162830829,0.0,-4.946691296623559,0.7426655674271576,-0.047826624535535316,-0.005631443450146852,0.0027870996943307642,nan,nan,nan,nan
13.862960577011108,-0.025416804,-0.28227618,-5.345422,-0.0051122586837634935,nan,nan,nan,nan,nan,3.8626058101654053,5.0626058101654055,0.005135774612426758,0.0,-0.3442605128135862,0.0,-4.875821348218373,0.7484050763048797,-0.051320146754986744,0.0046998974991511915,0.006055099080260668,nan,nan,nan,nan
13.959957122802734,-0.026292557,-0.25842503,-5.315832,-0.0070934322178905435,nan,nan,nan,nan,nan,3.9593653678894043,5.1593653678894045,0.005616664886474609,0.0,-0.3368602173108688,0.0,-4.817131059527021,0.7526432722034815,-0.0423108171229269,0.0126403535952591,0.008425980948559427,nan,nan,nan,nan
14.071013927459717,-0.030628273,-0.22851482,-5.28059,-0.008715257933750324,nan,nan,nan,nan,nan,4.070467233657837,5.270467233657837,0.006165027618408203,0.0,-0.3247363073660214,0.0,-4.757725194416999,0.7587740092402826,-0.02896035971676368,0.018840435955083834,0.011404701858581522,nan,nan,nan,nan
14.161824703216553,-0.03707694,-0.20018782,-5.2507234,-0.00890155732099559,nan,nan,nan,nan,nan,4.161235570907593,5.361235570907593,0.005118370056152344,0.0,-0.31204626236299887,0.0,-4.717347792943753,0.7634464682607057,-0.01565179340977363,0.012422818515727877,0.012580579596199123,nan,nan,nan,nan
14.268735408782959,-0.044154055,-0.1709175,-5.2259045,-0.00772413760536033,nan,nan,nan,nan,nan,4.26816987991333,5.46816987991333,0.005696296691894531,0.0,-0.2940245071486164,0.0,-4.6809963574996365,0.7676819177519928,0.00330300428111552,-1.7899444280121728e-05,0.011117620119884984,nan,nan,nan,nan
14.358816146850586,-0.047207523,-0.15428436,-5.21536,-0.007029636867226759,nan,nan,nan,nan,nan,4.358272314071655,5.5582723140716555,0.007618427276611328,0.0,-0.2763940286873996,0.0,-4.660866309463481,0.7712406210781106,0.01972174558828568,-0.004308754094941752,0.010092887693974727,nan,nan,nan,nan
14.457204818725586,-0.049270663,-0.122649655,-5.2076287,-0.007113462669188992,nan,nan,nan,nan,nan,4.456623554229736,5.6566235542297365,0.006410360336303711,0.0,-0.2547626909586667,0.0,-4.650623385513199,0.772469812493447,0.02289536934514289,-0.00040643979842939815,0.009624448338327186,nan,nan,nan,nan
14.568355321884155,-0.047056668,-0.10270086,-5.214746,-0.007878995098900563,nan,nan,nan,nan,nan,4.567774057388306,5.767774057388306,0.006460666656494141,0.0,-0.22755779123790484,0.0,-4.65420639118697,0.7742830139224628,0.02970849286570083,0.009382156167363405,0.01036836595739922,nan,nan,nan,nan
14.659926652908325,-0.04326935,-0.08084433,-5.2326417,-0.008257628668431265,nan,nan,nan,nan,nan,4.659341335296631,5.859341335296631,0.005837917327880859,0.0,-0.20315966015798548,0.0,-4.669137634785043,0.7701123748113472,0.030597504271745412,0.020963131593700775,0.011596123437100288,nan,nan,nan,nan
14.768593311309814,-0.03863101,-0.054638397,-5.2647696,-0.007426410883106028,nan,nan,nan,nan,nan,4.768003225326538,5.968003225326538,0.006650209426879883,0.0,-0.17215913370939415,0.0,-4.700215453234928,0.7626363879137444,0.012768231845438665,0.021719892170432506,0.010571942059128394,nan,nan,nan,nan
14.865099906921387,-0.034333218,-0.03919355,-5.2908797,-0.007068591318068638,nan,nan,nan,nan,nan,4.864675283432007,6.064675283432007,0.005494832992553711,0.0,-0.1429730489102168,0.0,-4.738999606868615,0.7602926142610832,0.015417624339007962,0.022000546788534227,0.009978622637696962,nan,nan,nan,nan
14.957277059555054,-0.02931039,-0.010121291,-5.3412704,-0.005965969075755122,nan,nan,nan,nan,nan,4.9566943645477295,6.15669436454773,0.0059659481048583984,0.0,-0.11402884951693974,0.0,-4.784385164211973,0.75035782327644,-0.0038804358739270546,0.017457074712711147,0.008862543748626814,nan,nan,nan,nan
15.055847883224487,-0.025021767,0.015354011,-5.3824725,-0.004289216063444756,nan,nan,nan,nan,nan,5.055285930633545,6.255285930633545,0.007437229156494141,0.0,-0.0820229988639113,0.0,-4.84052236379389,0.7468231797617052,-0.010808518588163922,0.011916561960634686,0.007476796723561311,nan,nan,nan,nan
15.170472145080566,-0.018887777,0.044148978,-5.4349575,-0.00238466458803243,nan,nan,nan,nan,nan,5.169893741607666,6.369893741607666,0.006195783615112305,0.0,-0.04390229794939805,0.0,-4.9128889003761484,0.7388871996167675,-0.030690461457327192,0.0060548052450797064,0.0038565272141960526,nan,nan,nan,nan
15.264494180679321,-0.010837156,0.07363439,-5.495896,-0.00205117718083747,nan,nan,nan,nan,nan,5.263943433761597,6.463943433761597,0.005235910415649414,0.0,-0.012196381156689253,0.0,-4.975622052247303,0.7271495439800538,-0.03284833024531752,0.008683115805681825,0.0027263066796559842,nan,nan,nan,nan
15.362845182418823,-0.0043410407,0.09896,-5.537781,-0.0029035858839441377,nan,nan,nan,nan,nan,5.362260103225708,6.562260103225708,0.0052225589752197266,0.0,0.02105145844494368,0.0,-5.042026690773163,0.720470529730955,-0.03248499711915421,0.013021008889158454,0.00319839060143071,nan,nan,nan,nan
15.459714651107788,-0.0037736304,0.12968881,-5.589369,-0.001974576898521746,nan,nan,nan,nan,nan,5.459121227264404,6.6591212272644045,0.005515098571777344,0.0,0.05362272199408088,0.0,-5.105979304026399,0.7087589640709991,-0.04522800951507916,0.005340115178836566,0.0031600095350844074,nan,nan,nan,nan
15.568887948989868,-0.0016487916,0.16720222,-5.6400537,0.00010740146851092713,nan,nan,nan,nan,nan,5.5683629512786865,6.768362951278687,0.006351470947265625,0.0,0.08977909431843079,0.0,-5.173550373875225,0.7022294587072034,-0.04720136424003705,-0.006227420135354894,0.0007760106112541625,nan,nan,nan,nan
15.663512468338013,0.0011098731,0.19503874,-5.673117,0.0013807958655992119,nan,nan,nan,nan,nan,5.66291880607605,6.86291880607605,0.005463600158691406,0.0,0.12028157283658127,0.0,-5.225911296397719,0.6963204171439559,-0.05534723226255822,-0.009016274538743145,-0.0013061711490799782,nan,nan,nan,nan
15.758006811141968,0.005596015,0.23196015,-5.7178345,0.0019858873514653087,nan,nan,nan,nan,nan,5.757417917251587,6.957417917251587,0.006350517272949219,0.0,0.1497625315259253,0.0,-5.270719564885929,0.6885286223898834,-0.06446089421999004,-0.0048220095279822295,-0.0027648611828658427,nan,nan,nan,nan
15.859026193618774,0.0060032094,0.25304484,-5.743199,0.0019210452650894848,nan,nan,nan,nan,nan,5.8584349155426025,7.058434915542603,0.005589723587036133,0.0,0.17988986596243783,0.0,-5.308621764392991,0.6812314304929679,-0.056918439844113926,-0.004543675407190535,-0.0029069198303871397,nan,nan,nan,nan
15.954055309295654,0.009562151,0.28100252,-5.7671375,0.0016401108462854985,nan,nan,nan,nan,nan,5.953458070755005,7.153458070755005,0.006317853927612305,0.0,0.20667019907089682,0.0,-5.333585407251522,0.6797917397968928,-0.03794304711104376,-0.0034466603373995465,-0.002538467811894989,nan,nan,nan,nan
16.062344074249268,0.009775726,0.30512223,-5.7777495,0.001169692921803047,nan,nan,nan,nan,nan,6.06176233291626,7.26176233291626,0.005712747573852539,0.0,0.23505655946480872,0.0,-5.348317543664684,0.6795330870007749,-0.021079456448226532,-0.0026320368371960897,-0.0019111694510247704,nan,nan,nan,nan
16.159554481506348,0.008434571,0.31873485,-5.772886,0.0009536033611606577,nan,nan,nan,nan,nan,6.158961534500122,7.358961534500122,0.00563502311706543,0.0,0.2583491730793888,0.0,-5.348589002831761,0.6777658052368556,-0.011563016955533289,-0.007006790260175616,-0.0015847256723201125,nan,nan,nan,nan
16.256853342056274,0.008806339,0.33483166,-5.751463,0.0008167181841743885,nan,nan,nan,nan,nan,6.256271600723267,7.456271600723267,0.00774693489074707,0.0,0.27938537217470516,0.0,-5.336566801127948,0.6851870584242116,0.00395567820585804,-0.007316521228335942,-0.0013357139526650739,nan,nan,nan,nan
16.36916947364807,0.0077251545,0.34627482,-5.7237587,0.0013520578670274674,nan,nan,nan,nan,nan,6.36865496635437,7.56865496635437,0.0058977603912353516,0.0,0.30059543218160434,0.0,-5.307952252649383,0.6882168868018402,0.004926072115282139,-0.007281629252073827,-0.001547028869872268,nan,nan,nan,nan
16.459503412246704,0.009595615,0.35143432,-5.696572,0.0021540732395855418,nan,nan,nan,nan,nan,6.458913803100586,7.658913803100586,0.005901813507080078,0.0,0.3150743264886918,0.0,-5.2743989558654,0.6929747491285789,0.005113669000845121,-0.004703196110649306,-0.0024651204336720734,nan,nan,nan,nan
16.55420446395874,0.011197311,0.35303646,-5.6555495,0.0033747674549332966,nan,nan,nan,nan,nan,6.553664445877075,7.753664445877075,0.008434057235717773,0.0,0.32769326120495174,0.0,-5.230231151866445,0.7013947751133481,0.009546082327024846,0.001288836593702123,-0.00393122425737209,nan,nan,nan,nan
16.665921688079834,0.011036322,0.349032,-5.60503,0.0050547640951376475,nan,nan,nan,nan,nan,6.665391445159912,7.865391445159912,0.005366325378417969,0.0,0.33903701757589966,0.0,-5.168381628876866,0.7101769515094277,0.01573873862603673,0.002670305775232413,-0.006067753378880205,nan,nan,nan,nan
16.762235164642334,0.010122862,0.3432141,-5.5667343,0.006336423020516371,nan,nan,nan,nan,nan,6.7616400718688965,7.961640071868897,0.0054569244384765625,0.0,0.34564528744421896,0.0,-5.108709190512152,0.7135790276707508,0.015166944129878545,0.0007663101358172161,-0.007898314907517658,nan,nan,nan,nan
16.85673499107361,0.011463625,0.33579275,-5.524959,0.007420195815839388,nan,nan,nan,nan,nan,6.856142282485962,8.056142282485961,0.006455183029174805,0.0,0.34922497453607176,0.0,-5.0464551318931115,0.7206414197820398,0.013442064624731033,0.00048771737515454635,-0.009588165248003752,nan,nan,nan,nan
16.969491243362427,0.010278822,0.32358012,-5.454271,0.008641166750074446,nan,nan,nan,nan,nan,6.96899938583374,8.16899938583374,0.006701469421386719,0.0,0.34968348169457664,0.0,-4.970263674946202,0.7347861911240124,0.012567527401251619,0.0013274062005471765,-0.011449147849649509,nan,nan,nan,nan
17.06624460220337,0.0079652965,0.31675336,-5.41165,0.008606306569379224,nan,nan,nan,nan,nan,7.06576943397522,8.265769433975219,0.0052034854888916016,0.0,0.34676467750772966,0.0,-4.905919708289524,0.7418290499749336,-0.004565756278313025,-0.0011310610282876034,-0.012083449616022259,nan,nan,nan,nan
17.16063904762268,0.0059480774,0.3073809,-5.3540688,0.007903336390986242,nan,nan,nan,nan,nan,7.160038471221924,8.360038471221923,0.005899190902709961,0.0,0.3410054380891613,0.0,-4.846377794271274,0.7523287772595102,-0.01457178083886596,-0.0073006951671355964,-0.011326202879254628,nan,nan,nan,nan
17.254918098449707,0.007459953,0.29787093,-5.3081865,0.007313738695455783,nan,nan,nan,nan,nan,7.254398584365845,8.454398584365844,0.006747722625732422,0.0,0.33240690876528295,0.0,-4.791874747436163,0.7597668303905654,-0.027091780432351678,-0.0043098631274937115,-0.010531935643640213,nan,nan,nan,nan
17.369263648986816,0.0059774574,0.27977225,-5.248175,0.005820991593513748,nan,nan,nan,nan,nan,7.368805408477783,8.568805408477782,0.0066564083099365234,0.0,0.31828349776905807,0.0,-4.735211520929552,0.7696079663462255,-0.015692318061392315,-0.0008700917022477364,-0.008777351751180653,nan,nan,nan,nan
17.464671850204468,0.006814095,0.270227,-5.227171,0.005510634344901823,nan,nan,nan,nan,nan,7.4640748500823975,8.664074850082397,0.005219697952270508,0.0,0.30354637822524905,0.0,-4.697771787420405,0.7756181026132619,-0.019685992214441762,3.614181197898786e-05,-0.007665882501444702,nan,nan,nan,nan
17.56161594390869,0.009736237,0.2505209,-5.1923456,0.005619202894080789,nan,nan,nan,nan,nan,7.561017036437988,8.761017036437988,0.005963325500488281,0.0,0.28591068719054685,0.0,-4.670175274195092,0.7788615380395719,-0.010831029973803462,0.0050183521481512216,-0.007285883691532411,nan,nan,nan,nan
17.655144691467285,0.012287681,0.23743117,-5.1754127,0.006246369762215043,nan,nan,nan,nan,nan,7.654592275619507,8.854592275619506,0.006494760513305664,0.0,0.26650598917642015,0.0,-4.65448632840841,0.7822873697255579,-0.010560351603483687,0.011698280291572601,-0.008091410687700638,nan,nan,nan,nan
17.751023054122925,0.008669338,0.21118894,-5.1698728,0.006212602607151379,nan,nan,nan,nan,nan,7.750549077987671,8.95054907798767,0.005784273147583008,0.0,0.24434600872856302,0.0,-4.65011136986249,0.7794992314091513,0.009343520119088412,0.006786781052904382,-0.008696291563060432,nan,nan,nan,nan
17.867157697677612,0.0051117875,0.19127244,-5.178897,0.006710977457669675,nan,nan,nan,nan,nan,7.866598606109619,9.066598606109618,0.0054662227630615234,0.0,0.21475835647711605,0.0,-4.6608447253007625,0.7763227027611582,0.016999744402923213,-0.005739458331169003,-0.00905242145123285,nan,nan,nan,nan
17.96709370613098,0.0049925796,0.1654013,-5.2012773,0.008455180074463988,nan,nan,nan,nan,nan,7.966588020324707,9.166588020324706,0.005164623260498047,0.0,0.18708552746603196,0.0,-4.68376953819342,0.7720228229039745,0.020482623732046575,-0.006863069579283314,-0.010842225682093545,nan,nan,nan,nan
18.058112859725952,0.007449747,0.1335636,-5.2414103,0.010815532589686446,nan,nan,nan,nan,nan,8.057557582855225,9.257557582855224,0.006674766540527344,0.0,0.1603847480013883,0.0,-4.714891283454564,0.7621062256084228,0.032258033582116596,0.0022874873005186,-0.014088053017292417,nan,nan,nan,nan
18.166374921798706,0.008314764,0.101562075,-5.286325,0.011838480912217831,nan,nan,nan,nan,nan,8.165801048278809,9.365801048278808,0.0059185028076171875,0.0,0.1270167591297726,0.0,-4.763284929041391,0.7555785229734328,0.03488861563665395,0.006786103891620624,-0.015889980896609413,nan,nan,nan,nan
18.26940655708313,0.006366503,0.075192995,-5.326216,0.011372605300945558,nan,nan,nan,nan,nan,8.268843650817871,9.46884365081787,0.0053844451904296875,0.0,0.09395563252839122,0.0,-4.81898599791788,0.7485543422071042,0.03151874736867428,0.002075709078685572,-0.01588438638352021,nan,nan,nan,nan
18.36094903945923,0.0024736384,0.04295082,-5.3689404,0.010024926965980896,nan,nan,nan,nan,nan,8.360378742218018,9.560378742218017,0.006070613861083984,0.0,0.06379504982925448,0.0,-4.874547260823514,0.7403453610174232,0.03359793399980439,-0.00683052977389572,-0.014385959402535328,nan,nan,nan,nan
18.469667196273804,0.00047143476,0.00865927,-5.417517,0.010038340071703183,nan,nan,nan,nan,nan,8.469154119491577,9.669154119491576,0.0054607391357421875,0.0,0.027324379013485136,0.0,-4.945518035070289,0.7348825857370225,0.030349763097002446,-0.010288352479775055,-0.01333184321339957,nan,nan,nan,nan
18.562711238861084,-0.00040048282,-0.015656037,-5.455342,0.010850803761326772,nan,nan,nan,nan,nan,8.562114953994751,9.76211495399475,0.006034135818481445,0.0,-0.004098702517443757,0.0,-5.008196842929177,0.7303693345461331,0.026230934030858296,-0.006704164378639651,-0.014267761296610965,nan,nan,nan,nan
18.655523538589478,-0.00015806203,-0.050303236,-5.5116787,0.01187048858494268,nan,nan,nan,nan,nan,8.654945611953735,9.854945611953735,0.007056474685668945,0.0,-0.03544489469285219,0.0,-5.070525335316663,0.7183458455822253,0.029696365182484648,-0.001100798787744314,-0.01587260810562252,nan,nan,nan,nan
18.768549919128418,0.0059607048,-0.08605254,-5.5611396,0.012596465991466365,nan,nan,nan,nan,nan,8.767983436584473,9.967983436584472,0.005502939224243164,0.0,-0.07320479420960233,0.0,-5.143171325818445,0.7085147412988105,0.035786766703206435,0.010822792270227527,-0.01699485609938759,nan,nan,nan,nan
18.86466646194458,0.009009304,-0.108759224,-5.5983233,0.012549522891636342,nan,nan,nan,nan,nan,8.864073514938354,10.064073514938354,0.005481243133544922,0.0,-0.1046342034162425,0.0,-5.19969798744335,0.7005605620260021,0.03726993079186843,0.017586271814453026,-0.017185501127485747,nan,nan,nan,nan
18.954712867736816,0.011903147,-0.13849926,-5.643261,0.012323931772181725,nan,nan,nan,nan,nan,8.954121589660645,10.154121589660644,0.005903720855712891,0.0,-0.1332736371011032,0.0,-5.246466912687703,0.6929872682096926,0.03492073612410545,0.01668847422613586,-0.016802895163105683,nan,nan,nan,nan
19.066893100738525,0.011055358,-0.17037605,-5.690016,0.011382176070134548,nan,nan,nan,nan,nan,9.06631588935852,10.26631588935852,0.005124092102050781,0.0,-0.16752046579627725,0.0,-5.294171550516383,0.6843310104070062,0.032867340607496555,0.00900644599899197,-0.016146395133332186,nan,nan,nan,nan
19.158900260925293,0.007048702,-0.19467203,-5.7198224,0.009899085093732284,nan,nan,nan,nan,nan,9.158310413360596,10.358310413360595,0.007077932357788086,0.0,-0.19415000270029456,0.0,-5.323081484421657,0.677027400527521,0.033521465973662914,-0.006704763308589296,-0.014234018085493029,nan,nan,nan,nan
19.268624305725098,-0.00017698521,-0.22489943,-5.7502503,0.0072299824832007765,nan,nan,nan,nan,nan,9.268151044845581,10.46815104484558,0.0063860416412353516,0.0,-0.22391878773575544,0.0,-5.344193682260158,0.6719132933154942,0.033738527545735544,-0.022559954655443918,-0.011012751743629427,nan,nan,nan,nan
19.351380825042725,-0.0020666856,-0.24190491,-5.756972,0.0053915974348574215,nan,nan,nan,nan,nan,9.350809812545776,10.550809812545776,0.0055201053619384766,0.0,-0.2446749628031074,0.0,-5.349910616876314,0.6722167560785314,0.031142347032917017,-0.02564779030946741,-0.008525389896560456,nan,nan,nan,nan
19.46722674369812,-0.006884074,-0.25674972,-5.7529483,0.0035071318781991455,nan,nan,nan,nan,nan,9.466683149337769,10.666683149337768,0.0052258968353271484,0.0,-0.27111526344049536,0.0,-5.342924497151851,0.6756158828617151,0.021889529549196266,-0.023560191377887018,-0.005316019825635847,nan,nan,nan,nan
19.56310224533081,-0.016069084,-0.26944008,-5.7348533,0.0010938175139482073,nan,nan,nan,nan,nan,9.562538623809814,10.762538623809814,0.0057220458984375,0.0,-0.2904329439592127,0.0,-5.324151270922334,0.6775501351798175,0.01245013353559904,-0.024694554786852226,-0.002983004627372391,nan,nan,nan,nan
19.66167116165161,-0.02938062,-0.27755907,-5.70488,-0.0019742086366606217,nan,nan,nan,nan,nan,9.661076784133911,10.86107678413391,0.006222963333129883,0.0,-0.3076924928089357,0.0,-5.293291186457077,0.6892388923130869,-0.01054257169695253,-0.03196045447215411,0.0016495295525911396,nan,nan,nan,nan
19.75439429283142,-0.03495473,-0.28050095,-5.6850142,-0.0036783573844662437,nan,nan,nan,nan,nan,9.754308462142944,10.954308462142944,0.006506681442260742,0.0,-0.3214566224372753,0.0,-5.254299783510269,0.688515764133253,-0.010740495777152212,-0.029908044124901355,0.00381464991987112,nan,nan,nan,nan
19.866788625717163,-0.042641353,-0.28205863,-5.643488,-0.004837094860716215,nan,nan,nan,nan,nan,9.866217136383057,11.066217136383056,0.005179405212402344,0.0,-0.3345242856952929,0.0,-5.196747573799245,0.6968469871313562,-0.014958235810441178,-0.01801745750394649,0.006079672620273409,nan,nan,nan,nan
19.961387157440186,-0.048678745,-0.28263736,-5.5895243,-0.00475645223521872,nan,nan,nan,nan,nan,9.960794687271118,11.160794687271117,0.006231784820556641,0.0,-0.342523827156327,0.0,-5.140834730208851,0.7099104561920492,-0.014841439439527294,-0.006085528706680383,0.006376656762484918,nan,nan,nan,nan
20.054948568344116,-0.050676282,-0.28143567,-5.5441675,-0.00412637731303704,nan,nan,nan,nan,nan,10.054439783096313,11.254439783096313,0.005489826202392578,0.0,-0.34762596272008484,0.0,-5.080840546464566,0.7171793884054036,-0.0007997155471906864,0.0012573385273797067,0.005759070505542219,nan,nan,nan,nan
20.16240167617798,-0.04800989,-0.27409518,-5.485229,-0.0032645384600610457,nan,nan,nan,nan,nan,10.161803722381592,11.361803722381591,0.005368709564208984,0.0,-0.3499715247156131,0.0,-5.008928302218357,0.7305884759725452,0.0019682555266690447,0.018155265482729336,0.004399993269160784,nan,nan,nan,nan
20.257668495178223,-0.045748148,-0.27023974,-5.4196906,-0.002628803500175441,nan,nan,nan,nan,nan,10.257090091705322,11.457090091705322,0.0077397823333740234,0.0,-0.3488986517758633,0.0,-4.9446865595805045,0.7408334669534443,0.007458818050426481,0.02719330740643692,0.0035025812054592653,nan,nan,nan,nan
20.35745596885681,-0.04738666,-0.2647219,-5.3781962,-0.00253715431036506,nan,nan,nan,nan,nan,10.356945514678955,11.556945514678954,0.006083250045776367,0.0,-0.344600742941394,0.0,-4.879409586358605,0.7478330310733096,0.023039179228649974,0.027327027659838108,0.0032044689961210175,nan,nan,nan,nan
20.46770691871643,-0.048851248,-0.25550976,-5.3172503,-0.0023465594765890597,nan,nan,nan,nan,nan,10.467115879058838,11.667115879058837,0.005173683166503906,0.0,-0.33613902390308287,0.0,-4.812680127544357,0.7583214124885327,0.017707480442843683,0.012901695265476007,0.003120907367526894,nan,nan,nan,nan
20.56378197669983,-0.047825936,-0.24920298,-5.2774997,-0.0021986092559467514,nan,nan,nan,nan,nan,10.5631844997406,11.7631844997406,0.005810260772705078,0.0,-0.32564738188872827,0.0,-4.761305495367905,0.7644571422708083,0.033758243047157105,0.009650795294745124,0.0029349028795839093,nan,nan,nan,nan
20.652382373809814,-0.045233913,-0.23956656,-5.230413,-0.001439949772434822,nan,nan,nan,nan,nan,10.651811838150024,11.851811838150024,0.006470441818237305,0.0,-0.31347727465368996,0.0,-4.72115514966559,0.7707791000615456,0.024674097081005042,0.007708640796446933,0.0022359883378834013,nan,nan,nan,nan
20.76417899131775,-0.04131511,-0.22577973,-5.20537,-0.0011274722634880812,nan,nan,nan,nan,nan,10.76360535621643,11.96360535621643,0.005828142166137695,0.0,-0.2948593879491131,0.0,-4.682279515902064,0.7768200046540913,0.02522763774132442,0.009124901033852632,0.0016536203310696888,nan,nan,nan,nan
20.854048013687134,-0.032273915,-0.20955369,-5.1876855,-0.001635804626154605,nan,nan,nan,nan,nan,10.85358452796936,12.05358452796936,0.0056493282318115234,0.0,-0.27736419166122933,0.0,-4.661664480607805,0.7802667978662371,0.012986543901982216,0.011834525248323862,0.0013219966021355042,nan,nan,nan,nan
20.96838879585266,-0.02208012,-0.19047152,-5.1775527,-0.003065042738918739,nan,nan,nan,nan,nan,10.96781611442566,12.167816114425658,0.00525975227355957,0.0,-0.2521513090874532,0.0,-4.650253396327239,0.7807547144266113,-0.0007576350610473441,0.03037554983499392,0.0032331649163397395,nan,nan,nan,nan
21.059940099716187,-0.016002344,-0.16556926,-5.177401,-0.004195501314320177,nan,nan,nan,nan,nan,11.0593900680542,12.259390068054199,0.006639242172241211,0.0,-0.22970545968869271,0.0,-4.653374967919924,0.776100540936692,-0.021231639297333363,0.026088607372271172,0.005525928426974407,nan,nan,nan,nan
21.157918214797974,-0.012756343,-0.14155965,-5.186145,-0.003714632463147474,nan,nan,nan,nan,nan,11.157378196716309,12.357378196716308,0.007286548614501953,0.0,-0.20370012980880337,0.0,-4.6687067860260525,0.7766316270677431,-0.024026393974961386,0.016782170159824056,0.005438322004379268,nan,nan,nan,nan
21.253633975982666,-0.012381043,-0.11532415,-5.204844,-0.0029094526841844937,nan,nan,nan,nan,nan,11.253171443939209,12.453171443939208,0.005110502243041992,0.0,-0.17651024034513163,0.0,-4.695159832557587,0.770285071275659,-0.042915744582583105,-0.0012459971723987977,0.004157176116537987,nan,nan,nan,nan
21.35399317741394,-0.013348223,-0.071225256,-5.253563,-0.002495136682115354,nan,nan,nan,nan,nan,11.353790760040283,12.553790760040282,0.006852149963378906,0.0,-0.14632632445516042,0.0,-4.734150700322321,0.7610511178402861,-0.052032299265735237,-0.015950688241082037,0.0033408678771910554,nan,nan,nan,nan
21.468417167663574,-0.008336744,-0.03495529,-5.307786,-0.0034472376491410336,nan,nan,nan,nan,nan,11.46782398223877,12.667823982238769,0.005339860916137695,0.0,-0.11046232985767351,0.0,-4.79036677564739,0.75235284538294,-0.049378979095322816,-0.016717875951201003,0.0038240611917430504,nan,nan,nan,nan
21.559813737869263,-0.0024806098,-0.009080743,-5.3466525,-0.004468807594505864,nan,nan,nan,nan,nan,11.55925989151001,12.759259891510009,0.005723237991333008,0.0,-0.08071534661925178,0.0,-4.842920669237551,0.7445628490974873,-0.04457709343427882,-0.001040514149172366,0.005470469995248202,nan,nan,nan,nan
21.669604778289795,0.005196893,0.03476013,-5.4180355,-0.005772272483008092,nan,nan,nan,nan,nan,11.669042348861694,12.869042348861694,0.0052204132080078125,0.0,-0.044188055756492386,0.0,-4.9123310516562,0.7333795808312422,-0.04356554978114038,0.013662546364458983,0.007271973278407292,nan,nan,nan,nan
21.761491298675537,0.009926553,0.076338604,-5.4868093,-0.00501311092252026,nan,nan,nan,nan,nan,11.760932207107544,12.960932207107543,0.006630897521972656,0.0,-0.013214483664370084,0.0,-4.973589876509174,0.7203853167795042,-0.04891233092182127,0.0146850976469371,0.007391508268697748,nan,nan,nan,nan
21.856937408447266,0.009399714,0.09949962,-5.525778,-0.003879211768351528,nan,nan,nan,nan,nan,11.856375694274902,13.056375694274902,0.0056722164154052734,0.0,0.019063888178664463,0.0,-5.038071175783879,0.7145604421682716,-0.042610937842096144,0.007193485081040294,0.005797754256701705,nan,nan,nan,nan
21.96750283241272,0.0067888997,0.1413833,-5.5928173,-0.0014867457888775356,nan,nan,nan,nan,nan,11.966904163360596,13.166904163360595,0.005828142166137695,0.0,0.05622325744875453,0.0,-5.110986218139819,0.7059839086337473,-0.0375468000100565,-0.011174782130485691,0.002711832365278859,nan,nan,nan,nan
22.05602765083313,0.0060890596,0.17609598,-5.6449356,-0.0002665481270884163,nan,nan,nan,nan,nan,12.055466175079346,13.255466175079345,0.0055806636810302734,0.0,0.08555491193526783,0.0,-5.1659189956411655,0.6978616660786684,-0.033807594119331486,-0.016325782136917717,0.0007050961119939924,nan,nan,nan,nan
22.1648907661438,0.0032264933,0.21471018,-5.694595,0.001593152654510167,nan,nan,nan,nan,nan,12.164305925369263,13.364305925369262,0.008277654647827148,0.0,0.12072217895944704,0.0,-5.226627376054762,0.6902906519362773,-0.03359761900475591,-0.018570521790691866,-0.0015314288703020783,nan,nan,nan,nan
22.26196575164795,0.0056595793,0.235573,-5.719475,0.002030059837278506,nan,nan,nan,nan,nan,12.261377096176147,13.461377096176147,0.007120370864868164,0.0,0.15097210285682136,0.0,-5.272409597185102,0.6852745041151518,-0.03327349147641675,-0.013149033801291008,-0.00280764858745521,nan,nan,nan,nan
22.353249073028564,0.0070722215,0.2751426,-5.753859,0.0021228480156033,nan,nan,nan,nan,nan,12.352697134017944,13.552697134017944,0.005321979522705078,0.0,0.17822189984408246,0.0,-5.306771577283896,0.6832075249793754,-0.031391096223375076,-0.0007360473301395345,-0.0030852781909640054,nan,nan,nan,nan
22.466436862945557,0.007827912,0.30495647,-5.7685084,0.0016693539302646103,nan,nan,nan,nan,nan,12.465848684310913,13.665848684310912,0.005846977233886719,0.0,0.21003848564907943,0.0,-5.336026928645979,0.6810594266395513,-0.02875959368948854,0.0031614129581246015,-0.0025948117944678056,nan,nan,nan,nan
22.558534860610962,0.00930541,0.32391343,-5.768443,0.0012529186152140277,nan,nan,nan,nan,nan,12.557979345321655,13.757979345321655,0.00563359260559082,0.0,0.2341066971719299,0.0,-5.348057544558381,0.6784847678122485,-0.028788292075462914,0.006403852644062004,-0.0020587155368273695,nan,nan,nan,nan
22.666702032089233,0.0032711814,0.3445281,-5.7634144,0.0014889161352635606,nan,nan,nan,nan,nan,12.666107892990112,13.866107892990112,0.005548715591430664,0.0,0.25997415364255333,0.0,-5.34812198191671,0.6808551076883428,-0.017349127853583952,-0.00035286872353107744,-0.001826661459599976,nan,nan,nan,nan
22.763144731521606,-0.0018591841,0.35485718,-5.7472568,0.0025156284281254195,nan,nan,nan,nan,nan,12.762564659118652,13.962564659118652,0.008819103240966797,0.0,0.28066262577983025,0.0,-5.335373526975593,0.6853170556806112,0.0034104645129497363,-0.010296828961651166,-0.002892174855827824,nan,nan,nan,nan
22.856566905975342,-0.0047336966,0.35988316,-5.728085,0.003353828012524235,nan,nan,nan,nan,nan,12.855969667434692,14.055969667434692,0.005461931228637695,0.0,0.2983744909140653,0.0,-5.311938353864399,0.6866021459103874,0.014469336881631921,-0.014330678176409269,-0.0041566143460310765,nan,nan,nan,nan
22.964204788208008,-0.0064330488,0.3630393,-5.6924276,0.0036487382911319054,nan,nan,nan,nan,nan,12.963610649108887,14.163610649108886,0.007604122161865234,0.0,0.31576303570236347,0.0,-5.272414803560609,0.6933238600051931,0.029408195829166636,-0.011332428501303324,-0.005109484646022932,nan,nan,nan,nan
23.05828595161438,-0.0039806603,0.3585142,-5.641019,0.003110620751825135,nan,nan,nan,nan,nan,13.0578293800354,14.2578293800354,0.006175041198730469,0.0,0.3281856087710597,0.0,-5.22810106761018,0.7051720691246116,0.044337245158184206,0.0013670355709719233,-0.004445934054675699,nan,nan,nan,nan
23.1705801486969,-0.0048737032,0.35121164,-5.5923753,0.002309886951696191,nan,nan,nan,nan,nan,13.170013904571533,14.370013904571532,0.005123138427734375,0.0,0.33942198351397296,0.0,-5.165632898521784,0.7136324974681924,0.04320087325574839,0.006552615334099918,-0.0032696094301395955,nan,nan,nan,nan
23.26051354408264,-0.0027539833,0.34934586,-5.5469403,0.0016532574756291888,nan,nan,nan,nan,nan,13.259983777999878,14.459983777999877,0.006058931350708008,0.0,0.3455567238505712,0.0,-5.1097739340357995,0.7185271829560346,0.0260793772937118,0.008386829359096216,-0.0025631769532016343,nan,nan,nan,nan
23.35210371017456,0.00074687,0.34465194,-5.489252,0.0009034664119150927,nan,nan,nan,nan,nan,13.351515054702759,14.551515054702758,0.005186319351196289,0.0,0.3491173567559016,0.0,-5.049556546654316,0.7285140842723109,-4.872470744915213e-05,0.011420190824588434,-0.0016081424860472542,nan,nan,nan,nan
23.463358163833618,0.0053031896,0.33363613,-5.4310417,0.00017407842302015301,nan,nan,nan,nan,nan,13.462787628173828,14.662787628173827,0.005976676940917969,0.0,0.34976653485579623,0.0,-4.974453711308142,0.7370467864380358,-0.015477136246297924,0.013863330775224593,-0.000493164550841141,nan,nan,nan,nan
23.5542094707489,0.009879893,0.32083046,-5.376651,0.0001196580897341263,nan,nan,nan,nan,nan,13.553657531738281,14.75365753173828,0.005045413970947266,0.0,0.3472967783030089,0.0,-4.913838675287635,0.746011415345706,-0.01321559710391522,0.014859160016092391,-0.00013966144689580106,nan,nan,nan,nan
23.662370920181274,0.0075837523,0.3032553,-5.3280654,-0.001059083474852519,nan,nan,nan,nan,nan,13.661789655685425,14.861789655685424,0.008318185806274414,0.0,0.3408714963337028,0.0,-4.8453139772622436,0.7522435666695828,-0.00847791807664874,0.0037372411892314804,0.0007066583296737727,nan,nan,nan,nan
23.755465507507324,0.0016938059,0.28924426,-5.3048205,-0.0022036024827390126,nan,nan,nan,nan,nan,13.75497817993164,14.95497817993164,0.005275249481201172,0.0,0.33234546847573976,0.0,-4.791559566560416,0.7567115710431627,-0.013892909479462059,-0.009414006989048327,0.0019600094755767173,nan,nan,nan,nan
23.8634672164917,-0.008514589,0.2647692,-5.273721,-0.0037771227420110333,nan,nan,nan,nan,nan,13.862869024276733,15.062869024276733,0.007103919982910156,0.0,0.319113685641642,0.0,-4.73785572273661,0.7620627881390638,-0.006498880305583131,-0.03143158373892819,0.004101550080056453,nan,nan,nan,nan
23.95314383506775,-0.015257493,0.24588484,-5.2538357,-0.004327440855692645,nan,nan,nan,nan,nan,13.952590465545654,15.152590465545654,0.005536079406738281,0.0,0.30546192717889237,0.0,-4.701765085930368,0.7639226895381533,0.013291430374055741,-0.04036886485902186,0.005648687483187601,nan,nan,nan,nan
24.05280613899231,-0.01735591,0.22625747,-5.238012,-0.004582511114129455,nan,nan,nan,nan,nan,14.05221438407898,15.252214384078979,0.0051915645599365234,0.0,0.2876181094513567,0.0,-4.672215988130627,0.7664770777230385,0.009353847304621942,-0.02829342392407439,0.006141955250756422,nan,nan,nan,nan
24.167876720428467,-0.017131768,0.2076183,-5.229904,-0.004322614698414757,nan,nan,nan,nan,nan,14.167292594909668,15.367292594909667,0.005437135696411133,0.0,0.26370064072942484,0.0,-4.653219067295397,0.7688067393872509,-0.007651843153017375,-0.006062105571391845,0.006126739677991407,nan,nan,nan,nan
24.262247800827026,-0.016869744,0.19662216,-5.234749,-0.00425015543452445,nan,nan,nan,nan,nan,14.261707305908203,15.461707305908202,0.007475852966308594,0.0,0.24162898275822167,0.0,-4.650383216952125,0.7719244023989733,-0.024133165452195023,0.00764105827771914,0.005852685364570839,nan,nan,nan,nan
24.359378337860107,-0.016729504,0.18006764,-5.2484083,-0.004526208544436101,nan,nan,nan,nan,nan,14.358840703964233,15.558840703964233,0.005960941314697266,0.0,0.2168248118744159,0.0,-4.659586311515806,0.7683511072718955,-0.023213884337504886,0.017018278898464835,0.005960054365430432,nan,nan,nan,nan
24.453417778015137,-0.016991103,0.1686226,-5.2625217,-0.005008042414417815,nan,nan,nan,nan,nan,14.4528329372406,15.6528329372406,0.005185127258300781,0.0,0.1910019408160376,0.0,-4.679893085936856,0.7691024981453596,-0.03374832521358034,0.016137088668537112,0.006713744789168258,nan,nan,nan,nan
24.566229104995728,-0.016050607,0.14975122,-5.307051,-0.005267560678716251,nan,nan,nan,nan,nan,14.565632343292236,15.765632343292236,0.006190776824951172,0.0,0.15795170275888104,0.0,-4.718095048481562,0.7585247554075416,-0.019207797279149064,0.011571572591332168,0.007220870265399707,nan,nan,nan,nan
24.660014152526855,-0.011741541,0.13957044,-5.342667,-0.004773893945636782,nan,nan,nan,nan,nan,14.659688472747803,15.859688472747802,0.006559848785400391,0.0,0.12894158377900883,0.0,-4.760254893343188,0.7560671225503687,-0.02152233365727493,0.013043752901091492,0.006991160650312304,nan,nan,nan,nan
24.75913643836975,-0.009177288,0.12127838,-5.398957,-0.003374543916332559,nan,nan,nan,nan,nan,14.758634090423584,15.958634090423583,0.0063037872314453125,0.0,0.09727837193559272,0.0,-4.813108994991206,0.745537587492577,-0.005528462907659841,0.018037909497717327,0.00557871550237926,nan,nan,nan,nan
24.852428913116455,-0.009322358,0.10674826,-5.43673,-0.0019975918848543044,nan,nan,nan,nan,nan,14.851839303970337,16.051839303970336,0.00504302978515625,0.0,0.06663355498640243,0.0,-4.869170323223543,0.7414308606863825,-0.0025285287000539926,0.013173877598458486,0.0038436982741565187,nan,nan,nan,nan
24.94803524017334,-0.0082114665,0.07838629,-5.496133,1.7285258368568424e-05,nan,nan,nan,nan,nan,14.947469234466553,16.147469234466552,0.006638765335083008,0.0,0.034631995399338596,0.0,-4.931075918781736,0.73152274350101,0.024792550539158627,0.006364461014470215,0.0010340737791794295,nan,nan,nan,nan
25.062897205352783,-0.0058811246,0.05871783,-5.545486,0.0008986068887637741,nan,nan,nan,nan,nan,15.06238055229187,16.26238055229187,0.0077724456787109375,0.0,-0.0041885548598642915,0.0,-5.008376509829088,0.7244048962294922,0.034057825391203174,0.004883143752464656,-0.0006127115696695506,nan,nan,nan,nan
25.157774209976196,-0.0041507552,0.023294708,-5.6253705,0.0010894844188806957,nan,nan,nan,nan,nan,15.157569408416748,16.357569408416747,0.00623631477355957,0.0,-0.03632791286218859,0.0,-5.072263397990651,0.708140528356382,0.055938736998699286,0.00334319966177296,-0.0015160623694141966,nan,nan,nan,nan
25.27091932296753,-0.0070926016,-0.005790989,-5.677418,0.0011487408861361199,nan,nan,nan,nan,nan,15.27033019065857,16.47033019065857,0.005446910858154297,0.0,-0.07398101079628425,0.0,-5.1446188472869965,0.6960689026121832,0.06893675268886117,-0.003657416899610131,-0.0015292606544915035,nan,nan,nan,nan
25.36697006225586,-0.010002011,-0.044218406,-5.732085,0.00122654661241413,nan,nan,nan,nan,nan,15.366380214691162,16.56638021469116,0.005466938018798828,0.0,-0.10537866719446275,0.0,-5.200977832244524,0.6899274095550537,0.0750358914317833,-0.013040105828217291,-0.0015573104926978293,nan,nan,nan,nan
25.461564540863037,-0.009516706,-0.07840482,-5.770758,0.0015146297396389724,nan,nan,nan,nan,nan,15.460971355438232,16.66097135543823,0.007002830505371094,0.0,-0.13541356423941076,0.0,-5.249736032439539,0.6844794466047426,0.07362974508410457,-0.009228494242526438,-0.001917908801305204,nan,nan,nan,nan
25.554696321487427,-0.011468694,-0.11136552,-5.800366,0.0013495962100567793,nan,nan,nan,nan,nan,15.554110527038574,16.754110527038574,0.00527501106262207,0.0,-0.1638832227460465,0.0,-5.289615251404813,0.6791549881177175,0.07839298607226936,-0.00787898216363868,-0.001960952837721396,nan,nan,nan,nan
25.6664559841156,-0.012821145,-0.14865181,-5.825553,0.0007757095328291262,nan,nan,nan,nan,nan,15.665865898132324,16.865865898132324,0.006104707717895508,0.0,-0.1962716788064012,0.0,-5.3250131055204655,0.6754331493218396,0.07606532020770042,-0.007641430684948007,-0.0014306314664003705,nan,nan,nan,nan
25.766079902648926,-0.010423366,-0.18653259,-5.8352375,-4.869195273247626e-05,nan,nan,nan,nan,nan,15.765508651733398,16.965508651733398,0.006451606750488281,0.0,-0.22323096689532976,0.0,-5.343864864333417,0.6786180495628676,0.05487163245317812,-0.002049276046866808,-0.00014766546502344825,nan,nan,nan,nan
25.867573261260986,-0.0077627236,-0.20856552,-5.830611,-0.0003687021183413734,nan,nan,nan,nan,nan,15.866989612579346,17.066989612579345,0.005711793899536133,0.0,-0.2485590991217473,0.0,-5.349986816034154,0.6763770490008687,0.043653030634282844,0.0049233025267165584,0.0002320206975877612,nan,nan,nan,nan
25.963685989379883,-0.0053784833,-0.23611256,-5.809282,-0.001035166918031261,nan,nan,nan,nan,nan,15.96311616897583,17.16311616897583,0.008252859115600586,0.0,-0.27035043321242497,0.0,-5.343399196843435,0.6852111984710716,0.015192741194919193,0.010507054849063705,0.0010498075528231536,nan,nan,nan,nan
26.066128730773926,-0.0060571693,-0.25254536,-5.7877073,-0.0016768347663368103,nan,nan,nan,nan,nan,16.065529346466064,17.265529346466064,0.005934476852416992,0.0,-0.29099638368883607,0.0,-5.323382599664939,0.686241088118659,0.006546252296051657,0.008167823642946825,0.0018396889524791092,nan,nan,nan,nan
26.157321453094482,-0.002163641,-0.27061328,-5.757214,-0.002224082056822384,nan,nan,nan,nan,nan,16.156789779663086,17.356789779663085,0.005441427230834961,0.0,-0.30699859412378694,0.0,-5.294864090069081,0.6961536808505613,-0.0022287011338134022,0.006970592451951697,0.0029678305089803486,nan,nan,nan,nan
26.250853776931763,0.0011854101,-0.28867003,-5.706753,-0.0024302075962345064,nan,nan,nan,nan,nan,16.250264167785645,17.450264167785644,0.006680727005004883,0.0,-0.32091295097335676,0.0,-5.256172268766056,0.7040012707266423,-0.00034028901155960686,0.00912630623005496,0.0033016225032605497,nan,nan,nan,nan
26.36764931678772,-7.719675e-06,-0.29954338,-5.6541715,-0.002823242476438009,nan,nan,nan,nan,nan,16.367071628570557,17.567071628570556,0.005660295486450195,0.0,-0.3346091863407363,0.0,-5.1962691142017965,0.7094572531423223,0.003646535371759798,0.0030110583402248163,0.003612993648723091,nan,nan,nan,nan
26.464271306991577,-0.008376784,-0.31179512,-5.5814276,-0.004033669919435358,nan,nan,nan,nan,nan,16.463702917099,17.663702917099,0.00693511962890625,0.0,-0.34272475309497363,0.0,-5.139030999596409,0.7223464345362758,0.003467214604706631,-0.01410122585524994,0.005032252753508194,nan,nan,nan,nan
26.558918476104736,-0.010872385,-0.31690487,-5.5417175,-0.004804005036736865,nan,nan,nan,nan,nan,16.558454275131226,17.758454275131225,0.0051136016845703125,0.0,-0.34778127036568957,0.0,-5.078195180574108,0.7272641062715668,0.01194670877720823,-0.018115028085430782,0.006241157957228407,nan,nan,nan,nan
26.654070377349854,-0.014182166,-0.32165268,-5.4831314,-0.005123303721430612,nan,nan,nan,nan,nan,16.653510332107544,17.853510332107543,0.0051882266998291016,0.0,-0.34992448819304783,0.0,-5.014536816655939,0.7364912023019271,0.0074806004691791135,-0.0142682568497131,0.0071550199369001515,nan,nan,nan,nan
26.752419471740723,-0.015094493,-0.3220736,-5.441109,-0.004667051658836309,nan,nan,nan,nan,nan,16.751824855804443,17.951824855804443,0.005854368209838867,0.0,-0.34903533842420803,0.0,-4.948207317293412,0.7400907591566572,0.015883830744288664,-0.010736429007518509,0.006796689919520912,nan,nan,nan,nan
26.869590997695923,-0.014232056,-0.316933,-5.381159,-0.0036405264073866867,nan,nan,nan,nan,nan,16.868995189666748,18.068995189666747,0.005364894866943359,0.0,-0.343864076378722,0.0,-4.871788809545283,0.7491301317028276,0.009768261216733564,0.00225924461747289,0.005431264512585939,nan,nan,nan,nan
26.966736316680908,-0.016385475,-0.3049937,-5.330474,-0.0032168312539445926,nan,nan,nan,nan,nan,16.966137170791626,18.166137170791625,0.005951642990112305,0.0,-0.33623113543405975,0.0,-4.813239876702151,0.7565773653932638,-0.012587667343364167,0.005306369139607133,0.004434732861369922,nan,nan,nan,nan
27.061956882476807,-0.019342067,-0.29128277,-5.2967615,-0.003630128504840924,nan,nan,nan,nan,nan,17.061395406723022,18.26139540672302,0.006242036819458008,0.0,-0.3258687309378882,0.0,-4.7621923075605865,0.7612115086960843,-0.017444567473020256,0.0033077568248999437,0.004631517722065126,nan,nan,nan,nan
27.15491795539856,-0.025868695,-0.27143615,-5.2700386,-0.0034127476168828927,nan,nan,nan,nan,nan,17.154329299926758,18.354329299926757,0.005575418472290039,0.0,-0.3130975345950065,0.0,-4.7201289374091475,0.7659082882397336,-0.024486024070034723,-0.002130490243383455,0.00500674154557062,nan,nan,nan,nan
27.265642881393433,-0.035704575,-0.24065329,-5.2384176,-0.0020084150906261016,nan,nan,nan,nan,nan,17.265119075775146,18.465119075775146,0.00629878044128418,0.0,-0.2945831542649431,0.0,-4.6818512389172104,0.7707616047506386,-0.04336765402037015,-0.0170926263258266,0.0037107538938256864,nan,nan,nan,nan
27.36096215248108,-0.042825263,-0.21430089,-5.2189536,-0.00010207743122379528,nan,nan,nan,nan,nan,17.360462427139282,18.56046242713928,0.005964756011962891,0.0,-0.27593882644137613,0.0,-4.660502950208648,0.7763425321192716,-0.041124054724342926,-0.02509251594850818,0.0017750994538208093,nan,nan,nan,nan
27.455687999725342,-0.04612881,-0.18491878,-5.2118177,0.0017822820355630088,nan,nan,nan,nan,nan,17.45510697364807,18.65510697364807,0.005385637283325195,0.0,-0.25511424317425113,0.0,-4.650686107504053,0.7756506101652129,-0.04393445739681793,-0.01999866299630802,-0.0013479925156358783,nan,nan,nan,nan
27.569840908050537,-0.047806725,-0.14537975,-5.2213235,0.0047403817452471965,nan,nan,nan,nan,nan,17.569257020950317,18.769257020950317,0.005587100982666016,0.0,-0.22717635106629727,0.0,-4.65436291578274,0.7724143999831367,-0.041282553956852874,-0.006167902670459821,-0.005279541215301919,nan,nan,nan,nan
27.66464376449585,-0.05219429,-0.11330191,-5.236434,0.006339549057278562,nan,nan,nan,nan,nan,17.664129972457886,18.864129972457885,0.006918191909790039,0.0,-0.20183824052749355,0.0,-4.670208572497365,0.7736700722087128,-0.03139400514710253,0.00013580592570016774,-0.007382495992221035,nan,nan,nan,nan
27.760420560836792,-0.055323705,-0.072159596,-5.262708,0.007457213182109191,nan,nan,nan,nan,nan,17.75995707511902,18.959957075119018,0.005266904830932617,0.0,-0.17452403095361324,0.0,-4.697441954267527,0.768617051235401,-0.03856025249041838,0.0016327291109445884,-0.00945459958293567,nan,nan,nan,nan
27.870244026184082,-0.05422947,-0.028982105,-5.3036876,0.007773109293015951,nan,nan,nan,nan,nan,17.869670152664185,19.069670152664184,0.0058405399322509766,0.0,-0.1414289221710645,0.0,-4.741263569766595,0.7594695236535214,-0.0359023472022745,0.011274602753675766,-0.010067708060229141,nan,nan,nan,nan
27.96425223350525,-0.052628893,-0.00031197496,-5.335074,0.008098907743952354,nan,nan,nan,nan,nan,17.963692903518677,19.163692903518676,0.00634455680847168,0.0,-0.11178766063406548,0.0,-4.788135053264182,0.7554451831730221,-0.02725698815373927,0.015844587222530602,-0.010528504776243784,nan,nan,nan,nan
28.05315899848938,-0.040626492,0.037949357,-5.386394,0.008163964620497,nan,nan,nan,nan,nan,18.052567720413208,19.252567720413207,0.005534172058105469,0.0,-0.08291674398399797,0.0,-4.838887323034508,0.744118345845562,-0.0256728931164904,0.028938703575772908,-0.010847952451270336,nan,nan,nan,nan
28.16253137588501,-0.025792448,0.07196315,-5.4388776,0.007760566706784464,nan,nan,nan,nan,nan,18.162003993988037,19.362003993988036,0.005861043930053711,0.0,-0.046549214608682075,0.0,-4.907728625692816,0.737899170271613,-0.01022519182605713,0.04385133666441959,-0.010594750327301432,nan,nan,nan,nan
28.25449013710022,-0.010598161,0.10300334,-5.4892707,0.007132079337773296,nan,nan,nan,nan,nan,18.253897428512573,19.453897428512573,0.0052220821380615234,0.0,-0.015592506855273842,0.0,-4.9688459481741765,0.7320617889579393,-0.0007798032141529422,0.050917165879574004,-0.010208131514188496,nan,nan,nan,nan
28.365578413009644,0.005893499,0.13603899,-5.5444036,0.006387414216148481,nan,nan,nan,nan,nan,18.364985466003418,19.564985466003417,0.007009744644165039,0.0,0.0219717743164346,0.0,-5.04385687483835,0.7187858905347965,-0.006810188847749116,0.052731526220857125,-0.009106545887914378,nan,nan,nan,nan
28.457707166671753,0.01805669,0.16346444,-5.5918474,0.005886950801176627,nan,nan,nan,nan,nan,18.457130670547485,19.657130670547485,0.005203962326049805,0.0,0.05295711813646549,0.0,-5.104694841894515,0.7120267558447628,-0.006460581309113929,0.04651144873646331,-0.008788833325256814,nan,nan,nan,nan
28.568915605545044,0.028325507,0.20160356,-5.649505,0.005590742145383141,nan,nan,nan,nan,nan,18.568328857421875,19.768328857421874,0.0062713623046875,0.0,0.08976794539517205,0.0,-5.173530339748304,0.7011522375705275,-0.02115499956137453,0.025037546449830726,-0.008351005807456416,nan,nan,nan,nan
28.662086725234985,0.032594018,0.22913367,-5.685922,0.005460961324202233,nan,nan,nan,nan,nan,18.661802291870117,19.861802291870116,0.006630897521972656,0.0,0.1199267648928471,0.0,-5.225333732193441,0.6940579020987261,-0.0355579454436657,0.005452187935402229,-0.008285795105294239,nan,nan,nan,nan
28.756457328796387,0.03648104,0.26051593,-5.7212324,0.0052738963196602255,nan,nan,nan,nan,nan,18.75586748123169,19.95586748123169,0.0057735443115234375,0.0,0.14928825813144472,0.0,-5.270053411825045,0.6877421812945487,-0.05226733214497378,-0.01739171186286214,-0.008191566964695004,nan,nan,nan,nan
28.85544228553772,0.043456838,0.28699076,-5.750978,0.004484941809106231,nan,nan,nan,nan,nan,18.854846239089966,20.054846239089965,0.005385398864746094,0.0,0.17884728701226546,0.0,-5.307469004772066,0.6812890527122842,-0.050830453768387046,-0.018924313498786573,-0.007582388726509826,nan,nan,nan,nan
28.96565842628479,0.04674075,0.31811523,-5.777145,0.00385460635359507,nan,nan,nan,nan,nan,18.965081453323364,20.165081453323364,0.006540060043334961,0.0,0.20983079035273366,0.0,-5.3358813347936245,0.676634570065701,-0.04474369273863044,-0.018370725171416018,-0.006537965630370814,nan,nan,nan,nan
29.05779266357422,0.04269552,0.34528443,-5.786471,0.0034455801842877692,nan,nan,nan,nan,nan,19.05719757080078,20.25719757080078,0.005150556564331055,0.0,0.23391001233830977,0.0,-5.348001492686685,0.6784321852720601,-0.03475259425288838,-0.025270699029086362,-0.00573269960476625,nan,nan,nan,nan
29.153565883636475,0.033877168,0.36590928,-5.7825236,0.003255023421722767,nan,nan,nan,nan,nan,19.152970790863037,20.352970790863036,0.00555872917175293,0.0,0.25697746046939374,0.0,-5.348929238171272,0.6780536292103873,-0.029452926023346863,-0.03390568688364054,-0.005423788515167049,nan,nan,nan,nan
29.267729997634888,0.017851159,0.39007792,-5.7625394,0.0032475490655245742,nan,nan,nan,nan,nan,19.26713252067566,20.46713252067566,0.008594274520874023,0.0,0.2815832268798689,0.0,-5.334476276739486,0.6858679505155147,-0.021546741707893627,-0.05013180595142747,-0.005138472838168552,nan,nan,nan,nan
29.365583896636963,0.0063956655,0.40256038,-5.7395773,0.0031033095257465247,nan,nan,nan,nan,nan,19.365049362182617,20.565049362182616,0.006285667419433594,0.0,0.2999687464144291,0.0,-5.30910418775475,0.6862656782604376,-0.02010115764111825,-0.056183009796811935,-0.005082540195836014,nan,nan,nan,nan
29.456586360931396,-0.0050856834,0.41510603,-5.709544,0.0026889042574702628,nan,nan,nan,nan,nan,19.455983638763428,20.655983638763427,0.0056705474853515625,0.0,0.31464137917950363,0.0,-5.275625335094002,0.6954783036174808,-0.006836819184506269,-0.04885664157770811,-0.004169163949788936,nan,nan,nan,nan
29.56962537765503,-0.01552816,0.41956896,-5.673447,0.0024428232208889705,nan,nan,nan,nan,nan,19.56903576850891,20.76903576850891,0.006034135818481445,0.0,0.329483910839826,0.0,-5.222296713147459,0.6996197366237669,0.0036270975657757753,-0.03300165633325204,-0.0034346709934793677,nan,nan,nan,nan
29.662644386291504,-0.02154048,0.42117447,-5.6461673,0.0023279446418142218,nan,nan,nan,nan,nan,19.662065744400024,20.862065744400024,0.005323648452758789,0.0,0.33875586039380823,0.0,-5.170350940874322,0.7038695856878565,0.009232478369030808,-0.018956356707260372,-0.0031215818319616437,nan,nan,nan,nan
29.768963098526,-0.027565893,0.42067814,-5.5977654,0.002366979791196846,nan,nan,nan,nan,nan,19.7684063911438,20.968406391143798,0.00644683837890625,0.0,0.34599788344854165,0.0,-5.10434802149742,0.7118244714015087,0.012549484112789411,-0.003657646563576179,-0.002847919631873919,nan,nan,nan,nan
