time,x,y,z,yaw,platform,trajectory,traj_double,traj_short,traj_spin,traj_time,ref_time,comptime,x_ref,y_ref,yaw_ref,z_ref,throttle_input,p_input,q_input,r_input,cbf_term_pitch_cbf,cbf_term_roll_cbf,cbf_term_thrust_cbf,cbf_term_yaw_cbf
10.003809452056885,0.0389996,-0.0026384152,-3.096211,0.0006521115391878241,SIM,HELIX,NormSpd,Not Short,NoSpin,5.4836273193359375e-06,1.2000054836273193,0.006080150604248047,-0.5952698571270989,0.07519173622069951,0.0,-2.4800021934509275,0.7378013835355421,0.0,0.0,0.0,nan,nan,nan,nan
10.12362289428711,0.036501367,-0.00020615828,-3.1006756,0.0004449811204901358,nan,nan,nan,nan,nan,0.1197967529296875,1.3197967529296875,0.006402254104614258,-0.5907921663492977,-0.104712063203357,0.0,-2.527918701171875,0.6903426139249906,-0.047204105906332075,-0.17093069645552947,0.0018563756089082818,nan,nan,nan,nan
10.203799724578857,0.035936743,-0.0005699942,-3.1008651,-0.00020205284060260086,nan,nan,nan,nan,nan,0.19997930526733398,1.399979305267334,0.007040500640869141,-0.5578773788124506,-0.2208457158501143,0.0,-2.5599917221069335,0.6918629759243441,0.013216187466884514,-0.21759826902313653,-0.00020647390136957058,nan,nan,nan,nan
10.299491167068481,0.035055295,-0.0020071943,-3.097986,-0.0012195080170631428,nan,nan,nan,nan,nan,0.29582810401916504,1.495828104019165,0.007422447204589844,-0.4890812453860844,-0.34756227558755093,0.0,-2.598331241607666,0.6927697637116488,0.06429296160149389,-0.21034301885442072,0.00025403720817596874,nan,nan,nan,nan
10.402808904647827,0.039855145,-0.0037589825,-3.0963852,-0.002380434608163183,nan,nan,nan,nan,nan,0.39898037910461426,1.5989803791046142,0.005994081497192383,-0.3836378410371505,-0.46132635619955,0.0,-2.6395921516418457,0.6935124947211241,0.11549607812694856,-0.18667477273691266,0.0010100209167401893,nan,nan,nan,nan
10.512414455413818,0.0453899,-0.002243646,-3.0951128,-0.003094233650487232,nan,nan,nan,nan,nan,0.5086407661437988,1.7086407661437988,0.00527501106262207,-0.2436183954157301,-0.548315673143733,0.0,-2.6834563064575194,0.6941651782698626,0.15883188553923502,-0.14839073682812187,0.0016767254147829103,nan,nan,nan,nan
10.609023809432983,0.045050353,0.0044199764,-3.0959454,-0.0031124027524978446,nan,nan,nan,nan,nan,0.6051914691925049,1.8051914691925048,0.0055315494537353516,-0.10472955121737816,-0.5907890665049638,0.0,-2.722076587677002,0.6943507157106416,0.18276282502377109,-0.11539483876855015,0.0018371227542551506,nan,nan,nan,nan
10.710690021514893,0.04163403,0.008341068,-3.0935912,-0.002318079669147987,nan,nan,nan,nan,nan,0.7068922519683838,1.9068922519683837,0.005705595016479492,0.048040903300296575,-0.5980736339365677,0.0,-2.7627569007873536,0.6959690109713323,0.1949118508370415,-0.06935245023383485,0.0016504594759855092,nan,nan,nan,nan
10.804967164993286,0.03579508,0.010345044,-3.0806077,-0.0010660077198101116,nan,nan,nan,nan,nan,0.8012137413024902,2.0012137413024904,0.007272243499755859,0.18715002981963783,-0.5700656684440036,0.0,-2.8004854965209964,0.701030115483372,0.13599017736591795,0.011084311851835801,0.0010117320115048845,nan,nan,nan,nan
10.899868965148926,0.029321589,0.013210106,-3.0726092,-0.00034832882050900293,nan,nan,nan,nan,nan,0.8963336944580078,2.096333694458008,0.0054111480712890625,0.3168144939417316,-0.5095376104159971,0.0,-2.838533477783203,0.7046604576367318,0.0788524099292994,0.06658704151827988,-0.0004497889521121854,nan,nan,nan,nan
11.00307035446167,0.020266755,0.021640124,-3.059227,7.336110264023754e-07,nan,nan,nan,nan,nan,0.9995169639587402,2.1995169639587404,0.006620168685913086,0.43688222934260157,-0.4112589423765014,0.0,-2.8798067855834963,0.7087074101195412,-0.012135482565994124,0.10897797118509457,-0.001218584276700669,nan,nan,nan,nan
11.10126543045044,0.015510967,0.030530347,-3.0486999,-0.0009368896116466081,nan,nan,nan,nan,nan,1.0975611209869385,2.2975611209869387,0.005938291549682617,0.5240023757083198,-0.2922695848904516,0.0,-2.9190244483947754,0.7118228367646628,-0.08806920117034328,0.12885733021900872,-0.0013095818625521428,nan,nan,nan,nan
11.206210136413574,0.010732358,0.052110072,-3.024363,-0.004720104733733285,nan,nan,nan,nan,nan,1.2024195194244385,2.4024195194244387,0.006299257278442383,0.5820465036958529,-0.1456772718560913,0.0,-2.9609678077697756,0.7152962468475276,-0.158020103894851,0.1098101566758244,0.001574864117898553,nan,nan,nan,nan
11.300352811813354,0.0100286845,0.0690763,-3.0023844,-0.009384787469892235,nan,nan,nan,nan,nan,1.2967069149017334,2.4967069149017336,0.005486965179443359,0.5999794503512789,-0.004965798644457187,0.0,-2.9986827659606936,0.7179970951136303,-0.20630314000448355,0.09974486974806325,0.002485367707384997,nan,nan,nan,nan
11.393774509429932,0.0049745706,0.10130204,-2.9617877,-0.015266141523501899,nan,nan,nan,nan,nan,1.3899731636047363,2.5899731636047365,0.006552696228027344,0.5847251982052769,0.13452301878786233,0.0,-3.0359892654418945,0.7205564026058494,-0.23150413632480046,0.06921388338115517,0.005475930590318454,nan,nan,nan,nan
11.502884149551392,-0.00047490088,0.1274652,-2.9358158,-0.016979145966686496,nan,nan,nan,nan,nan,1.499128818511963,2.699128818511963,0.0070037841796875,0.5264156321927516,0.2879002990326785,0.0,-3.0796515274047853,0.7240021330057957,-0.22830432525482072,0.006196280831699579,0.007604697104887986,nan,nan,nan,nan
11.600247383117676,-0.013913592,0.16879989,-2.8963914,-0.016154697985361288,nan,nan,nan,nan,nan,1.5965056419372559,2.796505641937256,0.0093231201171875,0.44097139341879654,0.4068712697970759,0.0,-3.1186022567749023,0.7267687554048151,-0.18753022461408314,-0.05512601076374267,0.00879282021750393,nan,nan,nan,nan
11.704501628875732,-0.026649134,0.19468814,-2.868207,-0.014748537588140417,nan,nan,nan,nan,nan,1.700709342956543,2.900709342956543,0.007134199142456055,0.32059241939590805,0.5071691045656056,0.0,-3.1602837371826173,0.7287049555696313,-0.16913890657279185,-0.09761305020047095,0.0053945325957400645,nan,nan,nan,nan
11.799452543258667,-0.04923509,0.22720064,-2.8283346,-0.012177262347191423,nan,nan,nan,nan,nan,1.7956836223602295,2.9956836223602297,0.00497746467590332,0.19158953911296736,0.5685889978732271,0.0,-3.198273448944092,0.7308294706374246,-0.10100257162683081,-0.13485071557934877,0.005023650911089123,nan,nan,nan,nan
11.91354489326477,-0.07094279,0.237652,-2.7936409,-0.008380085638985575,nan,nan,nan,nan,nan,1.9097096920013428,3.109709692001343,0.005196094512939453,0.02305156664173303,0.5995570242065067,0.0,-3.2438838768005374,0.7326544685722876,-0.02690510757695647,-0.15768551071390877,0.003780002388104423,nan,nan,nan,nan
12.01153564453125,-0.08695095,0.23704109,-2.7694163,-0.004360150984144412,nan,nan,nan,nan,nan,2.0076992511749268,3.207699251174927,0.0053653717041015625,-0.12381157779472605,0.5870866147375364,0.0,-3.2830797004699708,0.733839619646605,0.027218947436977406,-0.16901207777115085,-0.00038227532133905054,nan,nan,nan,nan
12.108307123184204,-0.103401184,0.2270161,-2.7428546,-0.0016198979191522772,nan,nan,nan,nan,nan,2.1044740676879883,3.3044740676879885,0.006094217300415039,-0.26155592425089935,0.5399893503480024,0.0,-3.3217896270751957,0.7348564508172243,0.09384416342122356,-0.15857079121537793,-0.0024403587039351325,nan,nan,nan,nan
12.199722290039062,-0.1217527,0.20235342,-2.7099764,0.00012355339219052158,nan,nan,nan,nan,nan,2.1959331035614014,3.3959331035614015,0.005614042282104492,-0.37770914433641917,0.4661928809888135,0.0,-3.3583732414245606,0.735804348228212,0.16040823459266693,-0.12216942172263963,-0.0006924780254838998,nan,nan,nan,nan
12.309788942337036,-0.13276936,0.16579174,-2.6749535,0.002360625760296685,nan,nan,nan,nan,nan,2.305960178375244,3.5059601783752443,0.0055599212646484375,-0.4906383995461322,0.34536062440702453,0.0,-3.402384071350098,0.7366736762818761,0.1997606591075436,-0.09851672519897517,-0.0018800188407824584,nan,nan,nan,nan
12.398687839508057,-0.13350415,0.14114694,-2.648654,0.004607950794983811,nan,nan,nan,nan,nan,2.3949525356292725,3.5949525356292726,0.005078315734863281,-0.5550191376204041,0.22793366770861848,0.0,-3.4379810142517093,0.7374758619827421,0.21865778945690972,-0.0683626489289923,-0.004882667749495132,nan,nan,nan,nan
12.509386539459229,-0.13161159,0.09936773,-2.6089349,0.009667923574296263,nan,nan,nan,nan,nan,2.5055742263793945,3.7055742263793947,0.007106304168701172,-0.5962638892408813,0.06685337977498272,0.0,-3.482229690551758,0.7385168421715723,0.22486486764777,-0.020537230718933576,-0.007288187526608342,nan,nan,nan,nan
12.601906061172485,-0.12192804,0.05658669,-2.571836,0.01688484407095771,nan,nan,nan,nan,nan,2.5982160568237305,3.7982160568237306,0.005251169204711914,-0.5955999983938313,-0.07253028273258118,0.0,-3.5192864227294924,0.7392266297444343,0.19442423176362053,0.03978281702168438,-0.0096637854118015,nan,nan,nan,nan
12.702261209487915,-0.11000297,0.030159244,-2.5479643,0.022122240524447296,nan,nan,nan,nan,nan,2.6985931396484375,3.8985931396484377,0.008130311965942383,-0.5586433772279485,-0.21890083846196665,0.0,-3.559437255859375,0.7398654892618455,0.1929650233784348,0.06378678445072179,-0.015651253910933718,nan,nan,nan,nan
12.801022052764893,-0.08015645,-0.010211481,-2.5156744,0.03197697235387852,nan,nan,nan,nan,nan,2.7972779273986816,3.997277927398682,0.005295753479003906,-0.4878115526869389,-0.34934208029545744,0.0,-3.598911170959473,0.7402727733548187,0.14232844427067642,0.11318525916188157,-0.019770992788100926,nan,nan,nan,nan
12.911507844924927,-0.036894184,-0.04001478,-2.5018635,0.04469368765189784,nan,nan,nan,nan,nan,2.9076743125915527,4.107674312591553,0.005364894866943359,-0.3734669753862509,-0.4695981455413186,0.0,-3.643069725036621,0.740257619928385,0.09241245217338978,0.15285646903429206,-0.027331084359477703,nan,nan,nan,nan
13.001563310623169,-0.007044357,-0.054704893,-2.493948,0.051709137865640846,nan,nan,nan,nan,nan,2.997769594192505,4.197769594192505,0.0051043033599853516,-0.2585068158583664,-0.5414556548368191,0.0,-3.679107837677002,0.7402530294294832,0.06873980115604642,0.17568004218410554,-0.034898286011212636,nan,nan,nan,nan
13.110212326049805,0.042241048,-0.06868877,-2.4802504,0.059246706707607774,nan,nan,nan,nan,nan,3.1064252853393555,4.306425285339356,0.011000633239746094,-0.10289706206481797,-0.5911109833342881,0.0,-3.7225701141357423,0.7400870677726533,0.018606813279546903,0.18905169104541714,-0.04065448555355209,nan,nan,nan,nan
13.207487344741821,0.09100654,-0.070909396,-2.4685674,0.062432654915181816,nan,nan,nan,nan,nan,3.203674554824829,4.403674554824829,0.0067441463470458984,0.04320279057286484,-0.5984425777689261,0.0,-3.7614698219299316,0.7398112562579049,-0.034790883212369596,0.18302228161110995,-0.04133574282731441,nan,nan,nan,nan
13.302209854125977,0.12609084,-0.06500191,-2.4615614,0.0635242134978263,nan,nan,nan,nan,nan,3.298408269882202,4.498408269882202,0.005367279052734375,0.18312592432449312,-0.5713710666811017,0.0,-3.799363307952881,0.7399309573235983,-0.053494043124894274,0.19275337369891343,-0.043908497218682084,nan,nan,nan,nan
13.412229299545288,0.16385917,-0.046413686,-2.457307,0.06436388678537364,nan,nan,nan,nan,nan,3.4084086418151855,4.608408641815186,0.005497455596923828,0.332129512229183,-0.499689890938775,0.0,-3.8433634567260744,0.7396704382964495,-0.09873902139216496,0.168201105710025,-0.044075631348373286,nan,nan,nan,nan
13.50501537322998,0.1876929,-0.026626762,-2.4520018,0.06441004353258657,nan,nan,nan,nan,nan,3.5012898445129395,4.70128984451294,0.005846738815307617,0.43871034723923685,-0.40930823498340246,0.0,-3.880515937805176,0.7394461685932447,-0.13214428830530323,0.13846385451718204,-0.04433608117042679,nan,nan,nan,nan
13.613684892654419,0.21245967,0.010747294,-2.4441447,0.06361512890841685,nan,nan,nan,nan,nan,3.609853982925415,4.809853982925415,0.00525355339050293,0.5327806391792744,-0.2759434552869913,0.0,-3.923941593170166,0.7391468417228326,-0.1619112141287559,0.06936976343824204,-0.04122427535457554,nan,nan,nan,nan
13.706810474395752,0.21966699,0.037021156,-2.4415731,0.06403989899809051,nan,nan,nan,nan,nan,3.703136444091797,4.903136444091797,0.006237506866455078,0.5823080441410237,-0.14462828813429138,0.0,-3.9612545776367187,0.7391108221896787,-0.1818910519441801,0.04681966875041161,-0.0442209648765393,nan,nan,nan,nan
13.798712253570557,0.22588497,0.08268131,-2.436964,0.06421226157377224,nan,nan,nan,nan,nan,3.7948739528656006,4.994873952865601,0.005203962326049805,0.5999502079327325,-0.007729683141703933,0.0,-3.99794958114624,0.7388642352207925,-0.19023861676186524,-0.004631554617190215,-0.04292656340141081,nan,nan,nan,nan
13.909109354019165,0.22503096,0.11949668,-2.4376993,0.06324714066498814,nan,nan,nan,nan,nan,3.9053425788879395,5.10534257888794,0.007608652114868164,0.5790940187364979,0.15700355876098016,0.0,-4.042137031555176,0.7389183086233775,-0.20063966813610531,-0.03623483027970946,-0.04575006475903973,nan,nan,nan,nan
14.002371072769165,0.21424921,0.15653963,-2.4394603,0.062162605320774014,nan,nan,nan,nan,nan,3.9985623359680176,5.198562335968018,0.0053234100341796875,0.5268249896510611,0.2871505359200282,0.0,-4.079424934387207,0.7386338334526461,-0.18822670563762067,-0.07537329487712782,-0.04580705881891869,nan,nan,nan,nan
14.110418558120728,0.19062904,0.19041006,-2.442032,0.06206182679349194,nan,nan,nan,nan,nan,4.106580972671509,5.306580972671509,0.006035566329956055,0.4305283030110332,0.4179059467229917,0.0,-4.122632389068603,0.7383485228624707,-0.16377219089724646,-0.12077185139911158,-0.04621441663810714,nan,nan,nan,nan
14.202532529830933,0.16048533,0.21520174,-2.449241,0.0631645241097988,nan,nan,nan,nan,nan,4.198780059814453,5.398780059814453,0.005135297775268555,0.32304781141530325,0.5056086545340998,0.0,-4.159512023925782,0.7378987476790106,-0.12617560419689597,-0.15716235233719295,-0.04712617543799419,nan,nan,nan,nan
14.29917573928833,0.10696724,0.23370022,-2.4667268,0.06634432182063026,nan,nan,nan,nan,nan,4.295359134674072,5.495359134674072,0.006834983825683594,0.1920531747481619,0.5684325624637913,0.0,-4.1981436538696295,0.7369270300079964,-0.058861510556616925,-0.19018417657603154,-0.04596721560467925,nan,nan,nan,nan
14.41116976737976,0.04170923,0.2435492,-2.4832327,0.07050288393501064,nan,nan,nan,nan,nan,4.407357215881348,5.607357215881348,0.008066177368164062,0.02659597444371145,0.5994102552871359,0.0,-4.242942886352539,0.7363319322034393,-0.008025850675167564,-0.2171715783736427,-0.047743868797780614,nan,nan,nan,nan
14.506232500076294,0.009484961,0.2433406,-2.4908223,0.07207767494753604,nan,nan,nan,nan,nan,4.5023980140686035,5.702398014068604,0.006340980529785156,-0.11597879396727102,0.5886840573260815,0.0,-4.2809592056274415,0.7360418468993158,0.02488340760120499,-0.2313593968198317,-0.05234534133716176,nan,nan,nan,nan
14.596071720123291,-0.040037155,0.23245965,-2.504394,0.07208456543003938,nan,nan,nan,nan,nan,4.592242479324341,5.792242479324341,0.005261659622192383,-0.24483496613535655,0.5477735292595826,0.0,-4.316896991729736,0.735322655809589,0.07614770384581379,-0.2030469930054171,-0.04874538778077277,nan,nan,nan,nan
14.710908889770508,-0.073741004,0.21247244,-2.518037,0.07218311703385273,nan,nan,nan,nan,nan,4.707091808319092,5.907091808319092,0.006337881088256836,-0.3906332284564053,0.4554181384461162,0.0,-4.362836723327637,0.7345299371751033,0.11203851084579984,-0.17615250689767253,-0.04835681173926094,nan,nan,nan,nan
14.804956912994385,-0.10976737,0.17968105,-2.541614,0.07063171743236861,nan,nan,nan,nan,nan,4.801259756088257,6.001259756088257,0.005376338958740234,-0.4865243583182846,0.35113252307779946,0.0,-4.400503902435303,0.733631180928211,0.1319620695250847,-0.13539649534077194,-0.04663860700633536,nan,nan,nan,nan
14.913459777832031,-0.1298549,0.14127886,-2.5601313,0.06816748420399285,nan,nan,nan,nan,nan,4.909621953964233,6.109621953964234,0.005748748779296875,-0.5630435863537034,0.2073208138754035,0.0,-4.443848781585694,0.73264314980939,0.14508965191146558,-0.07856251640152283,-0.04493908106335992,nan,nan,nan,nan
15.007486820220947,-0.1366464,0.10303007,-2.573102,0.06551177024290304,nan,nan,nan,nan,nan,5.0036561489105225,6.203656148910523,0.006036043167114258,-0.5959346852569343,0.06972697403242645,0.0,-4.481462459564209,0.732034159723925,0.14677636441855266,-0.0321978533342988,-0.04271669995907084,nan,nan,nan,nan
15.101484775543213,-0.13499938,0.07366399,-2.5798461,0.06372256759743694,nan,nan,nan,nan,nan,5.097708225250244,6.297708225250244,0.005181789398193359,-0.5956920851017692,-0.07177004770171533,0.0,-4.519083290100098,0.7316082207082804,0.14342099683073806,0.009343002301018085,-0.043421135510964964,nan,nan,nan,nan
15.210354328155518,-0.120932035,0.02282352,-2.594517,0.06291205298665793,nan,nan,nan,nan,nan,5.2065815925598145,6.406581592559815,0.0064847469329833984,-0.5541361739109565,-0.2300719469281862,0.0,-4.562632637023926,0.7309215452854642,0.11966244553848304,0.08225050951373244,-0.041507148873454094,nan,nan,nan,nan
15.304619550704956,-0.098198965,-0.010531804,-2.6095462,0.06540428844371204,nan,nan,nan,nan,nan,5.300801753997803,6.500801753997803,0.005344390869140625,-0.48469856954679513,-0.3536485496637736,0.0,-4.600320701599121,0.7302603176365146,0.10136282797816003,0.12781375430548433,-0.04266446938793828,nan,nan,nan,nan
15.394139766693115,-0.056028783,-0.04951938,-2.6319356,0.07097690531521847,nan,nan,nan,nan,nan,5.3903679847717285,6.590367984771729,0.005682468414306641,-0.3935327449329888,-0.45291497951106363,0.0,-4.636147193908692,0.7293138328337453,0.07007092521618732,0.18416120530732588,-0.044052063401302605,nan,nan,nan,nan
15.490523099899292,-0.016866298,-0.07569903,-2.6493642,0.07482162570695539,nan,nan,nan,nan,nan,5.486931800842285,6.686931800842285,0.006062507629394531,-0.2731574577398318,-0.5342143795154825,0.0,-4.6747727203369145,0.7284407585536153,0.047871702660582105,0.22527527857935764,-0.047899813537075564,nan,nan,nan,nan
15.614404916763306,0.058681954,-0.11219289,-2.682885,0.07902861251931192,nan,nan,nan,nan,nan,5.610623836517334,6.810623836517334,0.005865812301635742,-0.09665398109473082,-0.5921638353855624,0.0,-4.724249534606934,0.7271204292628577,0.008166289325634266,0.2622812397600664,-0.05009601410838155,nan,nan,nan,nan
15.712894201278687,0.10453008,-0.12969726,-2.7013037,0.07924539682132897,nan,nan,nan,nan,nan,5.709130048751831,6.909130048751831,0.005329608917236328,0.05140380955126209,-0.597793984884105,0.0,-4.763652019500733,0.7262614158335048,-0.008825264975511216,0.2817450925131573,-0.05071323855352941,nan,nan,nan,nan
15.806808710098267,0.16968887,-0.1563225,-2.7299469,0.07651244491323864,nan,nan,nan,nan,nan,5.802995204925537,7.002995204925537,0.005681276321411133,0.1897005041447478,-0.5692220293762607,0.0,-4.801198081970215,0.7252876748908451,-0.01799269451675523,0.25452906831266536,-0.04890987188052069,nan,nan,nan,nan
15.903244256973267,0.21144319,-0.17364863,-2.7505267,0.07331674115253989,nan,nan,nan,nan,nan,5.8994574546813965,7.099457454681397,0.0055539608001708984,0.3208050006608703,-0.5070346650387713,0.0,-4.839782981872559,0.7247044823928338,-0.011902873283264084,0.2533440275028828,-0.046763057110524975,nan,nan,nan,nan
15.99825930595398,0.2630559,-0.19065893,-2.775914,0.06888583986818789,nan,nan,nan,nan,nan,5.994444370269775,7.194444370269776,0.0052492618560791016,0.43160380250372266,-0.4167951027355378,0.0,-4.877777748107911,0.7238244047296994,-0.0037462580081742336,0.19328314803718166,-0.04320196641201041,nan,nan,nan,nan
16.1136577129364,0.30526185,-0.19780786,-2.7942743,0.0654503867376822,nan,nan,nan,nan,nan,6.10990047454834,7.30990047454834,0.0057909488677978516,0.5328128784843518,-0.27588120001409905,0.0,-4.923960189819336,0.7232863616304623,0.007392525237161601,0.12657530604972728,-0.04051607577847119,nan,nan,nan,nan
16.19836115837097,0.31931266,-0.19994234,-2.8005874,0.06116734850171602,nan,nan,nan,nan,nan,6.194539546966553,7.394539546966553,0.006361246109008789,0.5790474810148402,-0.15717510849485147,0.0,-4.957815818786622,0.723097647996696,0.019721142034294238,0.08159402191610425,-0.038384925391350216,nan,nan,nan,nan
16.305407524108887,0.31303677,-0.20601188,-2.8052504,0.0538627836310966,nan,nan,nan,nan,nan,6.3016040325164795,7.50160403251648,0.007818222045898438,0.5999951244151176,-0.0024188174977789146,0.0,-4.999358386993408,0.7229591174491057,0.04644415038686061,0.028078256736389254,-0.03424683234318345,nan,nan,nan,nan
16.413992881774902,0.2969672,-0.20742144,-2.810622,0.0482799310567796,nan,nan,nan,nan,nan,6.410243272781372,7.610243272781372,0.006302356719970703,0.5771163635492823,-0.16412404736555977,0.0,-4.955902690887451,0.7230982266776429,0.0710002843493227,-0.07795386326834111,-0.02810810815516509,nan,nan,nan,nan
16.502121686935425,0.26970306,-0.20591034,-2.8158488,0.042294106275690774,nan,nan,nan,nan,nan,6.498456954956055,7.698456954956055,0.006760597229003906,0.5269010233857253,-0.2870109955299192,0.0,-4.920617218017578,0.7229619399742471,0.07754300062872264,-0.16187113645219747,-0.023644260181275148,nan,nan,nan,nan
16.613495349884033,0.22315513,-0.19849701,-2.8248534,0.03472634717493569,nan,nan,nan,nan,nan,6.609687805175781,7.809687805175781,0.00566864013671875,0.42725206751739964,-0.4212548762947526,0.0,-4.876124877929687,0.7226846918232538,0.07702412249345549,-0.2342000103364128,-0.01852148338553246,nan,nan,nan,nan
16.69953441619873,0.15327092,-0.18564788,-2.8310058,0.02796650236016446,nan,nan,nan,nan,nan,6.6957197189331055,7.895719718933106,0.005909919738769531,0.3269270941605003,-0.5031090091657784,0.0,-4.841712112426758,0.7226685636724627,0.04242477770053741,-0.28657165937397105,-0.016580607156037,nan,nan,nan,nan
16.80420684814453,0.09684234,-0.17020689,-2.834168,0.022951731616149385,nan,nan,nan,nan,nan,6.800441265106201,8.0004412651062,0.00586390495300293,0.18477723821712502,-0.570839182464599,0.0,-4.79982349395752,0.722618662360154,0.02989078047432456,-0.3253303029519939,-0.01079226885200329,nan,nan,nan,nan
16.90395736694336,0.0057536066,-0.13747881,-2.836391,0.015161901235172411,nan,nan,nan,nan,nan,6.900255441665649,8.100255441665649,0.005760669708251953,0.0372898671214182,-0.5988401003690943,0.0,-4.75989782333374,0.7229429896797753,-0.02631612747891891,-0.32816490923202446,-0.010065873900010468,nan,nan,nan,nan
17.008713245391846,-0.056911852,-0.10848947,-2.837271,0.009551545527947049,nan,nan,nan,nan,nan,7.00494647026062,8.20494647026062,0.008090496063232422,-0.11974689239842037,-0.5879291468883994,0.0,-4.718021411895752,0.7230594880104786,-0.0591535876110525,-0.34023425451398775,-0.0031495430563032514,nan,nan,nan,nan
17.094520092010498,-0.12479776,-0.06822671,-2.8399446,0.0009390213245695153,nan,nan,nan,nan,nan,7.090779781341553,8.290779781341552,0.007737874984741211,-0.24281961262392987,-0.5486698786384802,0.0,-4.683688087463379,0.7232315790217753,-0.10320192989079,-0.3216478855621061,0.0011214155008346088,nan,nan,nan,nan
17.20635175704956,-0.2132191,-0.0017746126,-2.8424547,-0.0088526122364437,nan,nan,nan,nan,nan,7.2027223110198975,8.402722311019897,0.007935047149658203,-0.3856084886517161,-0.4596804253823947,0.0,-4.638911075592041,0.7237149679854744,-0.1666014976425367,-0.2199876380092124,0.0030074605532363807,nan,nan,nan,nan
17.305636405944824,-0.26160917,0.04900325,-2.8431213,-0.013502668363607306,nan,nan,nan,nan,nan,7.301853895187378,8.501853895187377,0.0074367523193359375,-0.48704813888049026,-0.35040563695958243,0.0,-4.599258441925049,0.7239624982719933,-0.1933645287155268,-0.16287238897899292,0.007296557247910762,nan,nan,nan,nan
17.40874433517456,-0.29566643,0.101299584,-2.8409257,-0.016937875393374106,nan,nan,nan,nan,nan,7.405057191848755,8.605057191848754,0.008289337158203125,-0.560628097810719,-0.21376654543013726,0.0,-4.557977123260498,0.7243796394619498,-0.21040449347257065,-0.0869100342083147,0.010509012186100763,nan,nan,nan,nan
17.507261037826538,-0.3150945,0.15859182,-2.834208,-0.01937296949250865,nan,nan,nan,nan,nan,7.503581762313843,8.703581762313842,0.0077168941497802734,-0.5959216391122013,-0.0698383851318696,0.0,-4.5185672950744635,0.7248637447313967,-0.20908208439543277,0.009421957119312815,0.012953839163236116,nan,nan,nan,nan
17.597862720489502,-0.31751755,0.20243534,-2.8253863,-0.020666077147981923,nan,nan,nan,nan,nan,7.594093561172485,8.794093561172485,0.006543636322021484,-0.5963195000231256,0.0663555113925698,0.0,-4.482362575531006,0.7253602709534596,-0.20463920804871752,0.08417782379492238,0.01738499342832182,nan,nan,nan,nan
17.694779634475708,-0.30440027,0.24181575,-2.8220088,-0.022509529135134505,nan,nan,nan,nan,nan,7.691013336181641,8.89101333618164,0.0070819854736328125,-0.5627118483110692,0.20821953743666835,0.0,-4.443594665527344,0.7257036086133998,-0.20261358281133968,0.13688783361343948,0.023930191581085728,nan,nan,nan,nan
17.810474157333374,-0.2589414,0.2915816,-2.8093147,-0.026317683119544133,nan,nan,nan,nan,nan,7.806659698486328,9.006659698486327,0.007363080978393555,-0.4794395947209145,0.3607459979179883,0.0,-4.397336120605469,0.7262308697241066,-0.13916410209260974,0.2370707084955345,0.02247384704305561,nan,nan,nan,nan
17.897735834121704,-0.22334777,0.31120288,-2.7988677,-0.029598163520551855,nan,nan,nan,nan,nan,7.893986225128174,9.093986225128173,0.0066432952880859375,-0.3893978892096703,0.45647484473851707,0.0,-4.362405509948731,0.7266168554422068,-0.1114499625035947,0.2810874407893667,0.030033242569352896,nan,nan,nan,nan
17.99255061149597,-0.17391698,0.32521766,-2.7862678,-0.035713803024692244,nan,nan,nan,nan,nan,7.988807201385498,9.188807201385497,0.008121967315673828,-0.2706364690867598,0.5354959398541237,0.0,-4.324477119445801,0.7269422971287471,-0.06530746787308055,0.31496480969443946,0.03294453172911692,nan,nan,nan,nan
18.102754831314087,-0.0786157,0.32436612,-2.7715673,-0.0469990832107085,nan,nan,nan,nan,nan,8.098982572555542,9.298982572555541,0.006947040557861328,-0.11393548829800747,0.589082935168126,0.0,-4.280406970977784,0.7274044980535059,0.043714829995526686,0.3235426783156066,0.033301062216456276,nan,nan,nan,nan
18.19276738166809,-0.020668134,0.3063493,-2.7596686,-0.056033483348325974,nan,nan,nan,nan,nan,8.189030408859253,9.389030408859252,0.0070230960845947266,0.02115297377829231,0.599627010482629,0.0,-4.2443878364562995,0.727568041952605,0.10046128022721651,0.31054761578983636,0.03602557574438161,nan,nan,nan,nan
18.29686999320984,0.036308482,0.27452326,-2.7405715,-0.06469877055932377,nan,nan,nan,nan,nan,8.293082237243652,9.493082237243652,0.006039142608642578,0.1754614993971447,0.5737710887011525,0.0,-4.20276710510254,0.7278552138030571,0.14860008517925716,0.2922459678870143,0.04658140324332417,nan,nan,nan,nan
18.412445545196533,0.1004013,0.2193815,-2.7123926,-0.0717639075328866,nan,nan,nan,nan,nan,8.408663511276245,9.608663511276244,0.006136655807495117,0.3324495238368828,0.4994770406141106,0.0,-4.156534595489502,0.7285053853939246,0.21146158096490872,0.20838375404211243,0.04407118529485515,nan,nan,nan,nan
18.503567218780518,0.14488302,0.16558313,-2.6882334,-0.07571088017991465,nan,nan,nan,nan,nan,8.499791860580444,9.699791860580444,0.0061016082763671875,0.4371662599749391,0.4109570064368339,0.0,-4.120083255767822,0.7289331862468668,0.2400266325301256,0.1452478953041959,0.04588758097403123,nan,nan,nan,nan
18.592936515808105,0.17548676,0.110587895,-2.6649015,-0.0766390415606564,nan,nan,nan,nan,nan,8.58918809890747,9.78918809890747,0.008317708969116211,0.5177363766394868,0.3032310081509069,0.0,-4.084324760437012,0.7292505087106652,0.2538888893100159,0.09860223516746186,0.04923627254249405,nan,nan,nan,nan
18.705753326416016,0.20194155,0.03010154,-2.6326156,-0.07591653575339222,nan,nan,nan,nan,nan,8.702293634414673,9.902293634414672,0.012987613677978516,0.5820003846750148,0.14586141449380893,0.0,-4.039082546234131,0.7295506810901483,0.25495121375097285,0.03770656137267641,0.04854607098316033,nan,nan,nan,nan
18.812655448913574,0.2063247,-0.023104202,-2.6167643,-0.07484478063172369,nan,nan,nan,nan,nan,8.808976650238037,10.008976650238036,0.007136821746826172,0.5998473098011002,-0.01353532136238024,0.0,-3.996409339904785,0.7298221453261033,0.23387116325220356,-0.04276672909804726,0.04970592665465831,nan,nan,nan,nan
18.899822235107422,0.20020604,-0.06890666,-2.603233,-0.07376580135954172,nan,nan,nan,nan,nan,8.896021366119385,10.096021366119384,0.007378339767456055,0.5826128674939537,-0.14339542053522072,0.0,-3.9615914535522463,0.7297559280002954,0.20606788880077395,-0.09870759416729362,0.0499969316076674,nan,nan,nan,nan
19.01189136505127,0.17866737,-0.12008112,-2.5902188,-0.07402107573391675,nan,nan,nan,nan,nan,9.008332252502441,10.20833225250244,0.007497549057006836,0.5196160571960402,-0.2999985885034151,0.0,-3.9166670989990235,0.7294140761600204,0.19548497898125483,-0.13990092427612671,0.05449395622011777,nan,nan,nan,nan
19.113433122634888,0.14468086,-0.16083781,-2.5792112,-0.0740880639152996,nan,nan,nan,nan,nan,9.109645366668701,10.3096453666687,0.0061931610107421875,0.42729699596434884,-0.42120930336335544,0.0,-3.87614185333252,0.72913216167766,0.13650367840939923,-0.2053241892109014,0.055358138479838566,nan,nan,nan,nan
19.203372955322266,0.10486399,-0.18277436,-2.5673869,-0.07444668558900717,nan,nan,nan,nan,nan,9.199635028839111,10.39963502883911,0.007043123245239258,0.321960628980461,-0.5063016426859643,0.0,-3.8401459884643554,0.728993854548838,0.09799460920332395,-0.23869741762300672,0.05532623877893414,nan,nan,nan,nan
19.293267965316772,0.05699278,-0.192917,-2.5509,-0.07528391511061484,nan,nan,nan,nan,nan,9.289513349533081,10.48951334953308,0.00814676284790039,0.20038359230582733,-0.5655496582393202,0.0,-3.8041946601867678,0.728904387166115,0.021185394265211183,-0.2638196478729095,0.055549989726965954,nan,nan,nan,nan
19.400331735610962,-0.0033982652,-0.18902805,-2.522983,-0.07601390249862702,nan,nan,nan,nan,nan,9.396511554718018,10.596511554718017,0.006066560745239258,0.04292286775355083,-0.5984627201620926,0.0,-3.761395378112793,0.7291190756650824,-0.06490612228865958,-0.26008817542546303,0.051187738123783515,nan,nan,nan,nan
19.507675409317017,-0.05593656,-0.17096289,-2.4921935,-0.07553580263599022,nan,nan,nan,nan,nan,9.503962755203247,10.703962755203246,0.007584333419799805,-0.11829296386518635,-0.588223405433675,0.0,-3.7184148979187013,0.729613697491675,-0.12918788445647217,-0.23805058990398456,0.049192156777984684,nan,nan,nan,nan
19.59300136566162,-0.10072395,-0.13930427,-2.4678657,-0.07497512098036928,nan,nan,nan,nan,nan,9.589288711547852,10.78928871154785,0.008351802825927734,-0.2407617900843686,-0.5495759824040443,0.0,-3.6842845153808597,0.7298489088032167,-0.16367647329308185,-0.22103827465311965,0.04905926857438184,nan,nan,nan,nan
19.70767617225647,-0.13821462,-0.09960048,-2.444186,-0.07355446293883147,nan,nan,nan,nan,nan,9.703929424285889,10.903929424285888,0.007174491882324219,-0.38700129342542405,-0.4585084501806361,0.0,-3.638428230285645,0.7301164862138374,-0.20508644538872828,-0.194725352927702,0.05147792976553453,nan,nan,nan,nan
19.804515600204468,-0.16693398,-0.052012775,-2.4200213,-0.07140162122384217,nan,nan,nan,nan,nan,9.80091643333435,11.00091643333435,0.009377002716064453,-0.48622119755755205,-0.3515521967584614,0.0,-3.59963342666626,0.730457027285281,-0.23905551766252797,-0.1486142992980293,0.049864720022289116,nan,nan,nan,nan
19.89217209815979,-0.1825242,0.0035736691,-2.3978784,-0.06911525846653435,nan,nan,nan,nan,nan,9.888478994369507,11.088478994369506,0.013573646545410156,-0.5512374129573282,-0.23693314364206616,0.0,-3.5646084022521975,0.7306368544184212,-0.26114083389473663,-0.09371598980148277,0.04879809609933446,nan,nan,nan,nan
19.99689245223999,-0.1920281,0.067756325,-2.3724005,-0.06562886276019793,nan,nan,nan,nan,nan,9.993121147155762,11.193121147155761,0.0069158077239990234,-0.5938798378750544,-0.08547946048905004,0.0,-3.5227515411376955,0.7308816101666464,-0.2672510683227189,-0.022069856870422757,0.04749905868057189,nan,nan,nan,nan
20.10649275779724,-0.18451643,0.14486693,-2.3363073,-0.0613023083686462,nan,nan,nan,nan,nan,10.10322618484497,11.30322618484497,0.006082057952880859,-0.5946395171177687,0.08002402565446702,0.0,-3.478709526062012,0.7313631101956966,-0.23040752693460967,0.07007807041370241,0.043087797307919465,nan,nan,nan,nan
20.19072675704956,-0.16767333,0.1942139,-2.3084822,-0.05865977851187159,nan,nan,nan,nan,nan,10.186963319778442,11.386963319778442,0.011339426040649414,-0.5648020865645978,0.20248111766847907,0.0,-3.445214672088623,0.731690389677537,-0.20509950388197976,0.11490135925743546,0.04173232139831671,nan,nan,nan,nan
20.303351163864136,-0.13217847,0.24772918,-2.2738833,-0.056355425305480836,nan,nan,nan,nan,nan,10.299513816833496,11.499513816833495,0.005250692367553711,-0.4858407671033368,0.3520777599060202,0.0,-3.400194473266602,0.7323292096610923,-0.14588618889139934,0.17346470390553315,0.04206253108743442,nan,nan,nan,nan
20.402806520462036,-0.09871636,0.2776177,-2.249759,-0.055800624807173536,nan,nan,nan,nan,nan,10.39897894859314,11.598978948593139,0.006064176559448242,-0.38363949962631333,0.46132497691591756,0.0,-3.3604084205627442,0.7324422737886176,-0.11067982521826736,0.20890724317722936,0.0445163974827253,nan,nan,nan,nan
20.50461220741272,-0.03728313,0.3047333,-2.2158701,-0.05655923623335501,nan,nan,nan,nan,nan,10.500949621200562,11.70094962120056,0.007060050964355469,-0.25417114073445524,0.5435043985265857,0.0,-3.319620151519776,0.7327327337433882,-0.027079174774615883,0.23495524759573816,0.04063733864148949,nan,nan,nan,nan
20.58672285079956,-0.00045660674,0.31168234,-2.2012825,-0.0577448903425472,nan,nan,nan,nan,nan,10.582963705062866,11.782963705062866,0.01632094383239746,-0.13755312241117262,0.5840198100363865,0.0,-3.286814517974854,0.7327364753103963,-0.014973304603293882,0.24914996576622558,0.04448690742316598,nan,nan,nan,nan
20.710346937179565,0.0768123,0.31021807,-2.1674218,-0.05996332062189875,nan,nan,nan,nan,nan,10.706618309020996,11.906618309020995,0.008013725280761719,0.04762912200501808,0.598106568043715,0.0,-3.237352676391602,0.7327437163814959,0.08761277320391991,0.2363482292735806,0.040773946218153535,nan,nan,nan,nan
20.8079617023468,0.13435255,0.29268488,-2.1425533,-0.06056726947933809,nan,nan,nan,nan,nan,10.804449319839478,12.004449319839477,0.0071566104888916016,0.1917795054794652,0.5685249522035526,0.0,-3.1982202720642094,0.7327704332254347,0.14178561773422077,0.20871464222390232,0.03802939816971904,nan,nan,nan,nan
20.895788431167603,0.17918059,0.26733482,-2.1216385,-0.060772405578486816,nan,nan,nan,nan,nan,10.892042398452759,12.092042398452758,0.009425878524780273,0.31130070796355624,0.5129248182934695,0.0,-3.1631830406188968,0.7325700025503804,0.1716430012648541,0.19715809116053193,0.04096925997501202,nan,nan,nan,nan
20.99266028404236,0.21399161,0.23325682,-2.0983734,-0.060463831272219146,nan,nan,nan,nan,nan,10.988924026489258,12.188924026489257,0.008239269256591797,0.4257797761882938,0.4227429268350287,0.0,-3.124430389404297,0.7325045638704382,0.20503207031672072,0.147628966374434,0.038582443657594445,nan,nan,nan,nan
21.100579261779785,0.24406235,0.18397953,-2.0673487,-0.05911920195113768,nan,nan,nan,nan,nan,11.096794128417969,12.296794128417968,0.00703120231628418,0.5234380053508749,0.2932791410146611,0.0,-3.0812823486328127,0.732390390462034,0.22894934884177676,0.11597453715378482,0.042227390226169184,nan,nan,nan,nan
21.2138671875,0.25551838,0.14178415,-2.047508,-0.0569036127708195,nan,nan,nan,nan,nan,11.210233449935913,12.410233449935912,0.013197660446166992,0.5847949740048127,0.13421936663056663,0.0,-3.035906620025635,0.732374788186648,0.23697698814184148,0.032197825505752065,0.04089794529881512,nan,nan,nan,nan
21.311503648757935,0.2575456,0.09717097,-2.0310607,-0.05404179153617168,nan,nan,nan,nan,nan,11.30799412727356,12.507994127273559,0.00599217414855957,0.5998789043670463,-0.01205404892109574,0.0,-2.996802349090576,0.7319322928213952,0.23401820060961911,-0.022318968275879116,0.03959662194439238,nan,nan,nan,nan
21.404706478118896,0.25052595,0.039743956,-2.0152962,-0.05079651352522848,nan,nan,nan,nan,nan,11.400867462158203,12.600867462158202,0.005264997482299805,0.5808232040235765,-0.15048058236126974,0.0,-2.959653015136719,0.7314030391186013,0.2166601680324646,-0.0844248912328225,0.03823935267536332,nan,nan,nan,nan
21.507785081863403,0.2181722,-0.022973636,-2.001995,-0.04813056968822871,nan,nan,nan,nan,nan,11.504029512405396,12.704029512405395,0.00670933723449707,0.5228297861710771,-0.2943620469630991,0.0,-2.918388195037842,0.7307874849249816,0.17518443888874036,-0.15120283558658987,0.03373617665300125,nan,nan,nan,nan
21.607691049575806,0.18484837,-0.06336338,-1.9954916,-0.04672835142610699,nan,nan,nan,nan,nan,11.604049921035767,12.804049921035766,0.005533695220947266,0.43317796882011433,-0.4151588218126649,0.0,-2.8783800315856936,0.7302829086368886,0.16049614088430944,-0.18835762869082168,0.03672875716350719,nan,nan,nan,nan
21.695128917694092,0.14648937,-0.097070046,-1.9889768,-0.04570291334065772,nan,nan,nan,nan,nan,11.691362380981445,12.891362380981445,0.007681608200073242,0.33241701999361856,-0.49949867349029287,0.0,-2.843455047607422,0.7298659293617789,0.13163628174982864,-0.21986360402956645,0.03613777668688678,nan,nan,nan,nan
21.800522327423096,0.07579047,-0.13205168,-1.980355,-0.0459408284808861,nan,nan,nan,nan,nan,11.796730756759644,12.996730756759643,0.0066530704498291016,0.19009250134785635,-0.5690912413060978,0.0,-2.8013076972961426,0.7291930771217837,0.055801601379244184,-0.2450383049357705,0.032265908825853305,nan,nan,nan,nan
21.90271520614624,0.028007377,-0.1427987,-1.969716,-0.04660926346212653,nan,nan,nan,nan,nan,11.898876428604126,13.098876428604125,0.005692243576049805,0.03936512168452222,-0.5987072633556092,0.0,-2.7604494285583496,0.7289104872394531,0.011515767196816858,-0.2629955011306425,0.03576038302830367,nan,nan,nan,nan
22.001192092895508,-0.035800632,-0.14194842,-1.952287,-0.047988405451992386,nan,nan,nan,nan,nan,11.99742341041565,13.197423410415649,0.006537675857543945,-0.10860987377613601,-0.5900880403112164,0.0,-2.7210306358337406,0.7290053591375054,-0.07307147187524748,-0.2379019306117784,0.031831268622074194,nan,nan,nan,nan
22.110350608825684,-0.07442221,-0.13077793,-1.9443601,-0.04894594794617427,nan,nan,nan,nan,nan,12.106836080551147,13.306836080551147,0.007957220077514648,-0.2647568818480507,-0.5384271478241948,0.0,-2.6772655677795414,0.7290277028705481,-0.1122127350843293,-0.2276575696671618,0.035350754196672815,nan,nan,nan,nan
22.212170600891113,-0.12271956,-0.098150596,-1.9270988,-0.04995420995276403,nan,nan,nan,nan,nan,12.208393573760986,13.408393573760986,0.006325721740722656,-0.39212112365286794,-0.4541376711804607,0.0,-2.6366425704956056,0.7290495215254891,-0.16562690998438928,-0.16471796729007881,0.032426029135625686,nan,nan,nan,nan
22.294355869293213,-0.14476356,-0.07038596,-1.9118793,-0.0500741725437337,nan,nan,nan,nan,nan,12.29056715965271,13.49056715965271,0.0068051815032958984,-0.47691369143713747,-0.36407874274640484,0.0,-2.603773136138916,0.7293209386279303,-0.1906075346040728,-0.11711148722579767,0.031768874913025574,nan,nan,nan,nan
22.411920309066772,-0.1640085,-0.010538816,-1.8856725,-0.04876170203675469,nan,nan,nan,nan,nan,12.408179759979248,13.608179759979247,0.006822109222412109,-0.5622884283909224,-0.20936027153609257,0.0,-2.556728096008301,0.7298490446235192,-0.20374430308826114,-0.0394650928183333,0.03248308467825643,nan,nan,nan,nan
22.513050079345703,-0.16660473,0.03416647,-1.8722744,-0.047416781052197515,nan,nan,nan,nan,nan,12.509297847747803,13.709297847747802,0.007286548614501953,-0.5968634156539163,-0.06127040928490966,0.0,-2.516280860900879,0.7301876357116259,-0.19956575309108476,0.007044684697577218,0.03372770660121622,nan,nan,nan,nan
22.610390663146973,-0.15314928,0.10398549,-1.8408954,-0.045598356282975996,nan,nan,nan,nan,nan,12.606654405593872,13.806654405593871,0.0065765380859375,-0.5939279621315323,0.08514444079495236,0.0,-2.477338237762451,0.7308234544366548,-0.17344101820468602,0.0868400150245185,0.03023150228437218,nan,nan,nan,nan
22.710130214691162,-0.13425608,0.15057354,-1.8182809,-0.04458861088158339,nan,nan,nan,nan,nan,12.706422805786133,13.906422805786132,0.005403041839599609,-0.5542279456732364,0.22985078689189653,0.0,-2.437430877685547,0.7315569854296196,-0.15119708160656578,0.13178845954475035,0.03252429514193362,nan,nan,nan,nan
22.79533314704895,-0.10956609,0.19515947,-1.7971374,-0.04361766148835081,nan,nan,nan,nan,nan,12.791507482528687,13.991507482528686,0.00711369514465332,-0.49282648242877025,0.3422310012504492,0.0,-2.4033970069885253,0.7320905307784972,-0.1218723612280416,0.17198221835749153,0.03213993308244191,nan,nan,nan,nan
22.901736974716187,-0.06662244,0.25129315,-1.7667568,-0.04209268595410295,nan,nan,nan,nan,nan,12.898026943206787,14.098026943206786,0.006754159927368164,-0.38474218988626396,0.4604057420596771,0.0,-2.360789222717285,0.7328030040915487,-0.06055218606694361,0.2057007926541195,0.028820788890141568,nan,nan,nan,nan
23.0047869682312,-0.030292528,0.28151205,-1.749574,-0.04131150910955715,nan,nan,nan,nan,nan,13.001028537750244,14.201028537750243,0.0059430599212646484,-0.2540633376592219,0.5435547998660817,0.0,-2.3195885848999023,0.733318804631349,-0.024600169794572302,0.22275002980188227,0.030156335963365602,nan,nan,nan,nan
23.110325574874878,0.0325363,0.3238492,-1.7254196,-0.04026702401288136,nan,nan,nan,nan,nan,13.10655951499939,14.306559514999389,0.006919145584106445,-0.10269764141713528,0.5911456626309268,0.0,-2.277376194000244,0.7337973733031963,0.02930418247965445,0.21417597305162697,0.0268715219097667,nan,nan,nan,nan
23.202813148498535,0.07489214,0.3446574,-1.7136573,-0.0394906250667554,nan,nan,nan,nan,nan,13.199079036712646,14.399079036712646,0.011153221130371094,0.036288172555689654,0.59890163510594,0.0,-2.2403683853149414,0.7341050785650451,0.04894147885877619,0.20489159164198267,0.026564401666652453,nan,nan,nan,nan
23.302873373031616,0.108539455,0.35661852,-1.7051889,-0.0385801602824133,nan,nan,nan,nan,nan,13.299108266830444,14.499108266830444,0.006020545959472656,0.184130844510406,0.5710480120794439,0.0,-2.2003566932678225,0.734207288401134,0.06536971873849115,0.1839833696053722,0.025259247901415906,nan,nan,nan,nan
23.392038106918335,0.15746108,0.37068793,-1.6939692,-0.0369492764415117,nan,nan,nan,nan,nan,13.388603687286377,14.588603687286376,0.015506505966186523,0.30685622381014444,0.5155960220065497,0.0,-2.1645585250854493,0.7342982648449536,0.0668537367000178,0.15605591607608668,0.023922325806043636,nan,nan,nan,nan
23.51112198829651,0.18393934,0.3726232,-1.6796192,-0.035727332606234403,nan,nan,nan,nan,nan,13.507338523864746,14.707338523864745,0.006955146789550781,0.4448817148754905,0.40259192710416186,0.0,-2.1170645904541017,0.7346756839553273,0.05584540572995692,0.10513814081028558,0.022051984430544902,nan,nan,nan,nan
23.60101819038391,0.20354566,0.37122056,-1.6669846,-0.034360032921368196,nan,nan,nan,nan,nan,13.597201824188232,14.797201824188232,0.0064013004302978516,0.5237382393492792,0.2927426457544528,0.0,-2.0811192703247072,0.7350950692653256,0.040203295499492635,0.05196465350839881,0.02076161840315529,nan,nan,nan,nan
23.702234506607056,0.21553066,0.3693546,-1.6551256,-0.03276605592074617,nan,nan,nan,nan,nan,13.698484897613525,14.898484897613525,0.005982160568237305,0.5805774978590499,0.151425787036835,0.0,-2.04060604095459,0.7355506471245163,0.01568904794856193,0.01304343473363009,0.019475499284229338,nan,nan,nan,nan
23.79617404937744,0.22005907,0.3709565,-1.6416703,-0.030439610760055184,nan,nan,nan,nan,nan,13.792478561401367,14.992478561401366,0.008777379989624023,0.5998928012131709,0.011341386714811788,0.0,-2.0030085754394533,0.7360827863488414,-0.019225607448479013,-0.022318754759871436,0.017551129657998914,nan,nan,nan,nan
23.90587019920349,0.21584748,0.3616938,-1.6208795,-0.027408610721327702,nan,nan,nan,nan,nan,13.902045726776123,15.102045726776122,0.005295515060424805,0.5803750395219334,0.15219991294318883,0.0,-2.040818290710449,0.7364113962788977,-0.050535164821479156,-0.08369379778401165,0.015498966753275086,nan,nan,nan,nan
23.99474811553955,0.20385107,0.3508743,-1.6126945,-0.025933208494896207,nan,nan,nan,nan,nan,13.990970849990845,15.190970849990844,0.006592750549316406,0.5322074553891689,0.2770473324689948,0.0,-2.0763883399963374,0.7366627599529424,-0.06289940964993668,-0.11600080089381844,0.014375783482556867,nan,nan,nan,nan
24.101508378982544,0.16875179,0.32722643,-1.60076,-0.023513519163022696,nan,nan,nan,nan,nan,14.09777045249939,15.297770452499389,0.006591320037841797,0.43967579885734936,0.4082709785169057,0.0,-2.1191081809997554,0.7365938367853354,-0.05411588058385455,-0.15977852175439658,0.013103336855198542,nan,nan,nan,nan
24.2106294631958,0.1406641,0.3109646,-1.5939713,-0.021835471736437892,nan,nan,nan,nan,nan,14.207007646560669,15.407007646560668,0.006220579147338867,0.3125244261826688,0.512180127532486,0.0,-2.1628030586242675,0.7367093302128883,-0.049382653882598965,-0.1918488845327196,0.010318794662738422,nan,nan,nan,nan
24.310728073120117,0.091207735,0.28323165,-1.5937886,-0.01922560308491936,nan,nan,nan,nan,nan,14.307029485702515,15.507029485702514,0.0068013668060302734,0.1753003830747877,0.5738203339842818,0.0,-2.2028117942810055,0.7362450107444395,-0.014154517755939426,-0.2078408365002807,0.010572707394243945,nan,nan,nan,nan
24.403085231781006,0.046842594,0.2542628,-1.594543,-0.016228175700101165,nan,nan,nan,nan,nan,14.399309635162354,15.599309635162353,0.007364749908447266,0.038713245870535117,0.5987497679282786,0.0,-2.239723854064941,0.7359697056788063,0.010597448037178842,-0.2111443148754847,0.010000092334133603,nan,nan,nan,nan
24.491060733795166,0.011811179,0.23140298,-1.5956942,-0.014180297892643929,nan,nan,nan,nan,nan,14.487284421920776,15.687284421920776,0.008395910263061523,-0.09353958350297627,0.5926637717273511,0.0,-2.27491376876831,0.7356595569297936,0.04265456773801534,-0.19927954950855323,0.008127750623851654,nan,nan,nan,nan
24.602965831756592,-0.024019815,0.2021797,-1.5960146,-0.012228512427545971,nan,nan,nan,nan,nan,14.599207639694214,15.799207639694213,0.005769968032836914,-0.25438593541199656,0.5434038975426689,0.0,-2.319683055877685,0.7355934624789428,0.0677123157722007,-0.19491560968081448,0.005174344159591715,nan,nan,nan,nan
24.705648183822632,-0.06436825,0.1514627,-1.5967143,-0.008295470684899633,nan,nan,nan,nan,nan,14.701846837997437,15.901846837997436,0.0070383548736572266,-0.3845961195006197,0.46052776774594706,0.0,-2.360738735198974,0.7352326796101721,0.1103335343453536,-0.14533127726816727,0.005454228407383825,nan,nan,nan,nan
24.81151270866394,-0.09051727,0.10497806,-1.5981486,-0.0045615446495111175,nan,nan,nan,nan,nan,14.80779504776001,16.00779504776001,0.006750345230102539,-0.492225817693414,0.34309436660494724,0.0,-2.403118019104004,0.7350832476617546,0.14048497797556828,-0.10354139389542176,0.004523265754293044,nan,nan,nan,nan
24.894581079483032,-0.10460537,0.068436265,-1.6033868,-0.0019512612987289402,nan,nan,nan,nan,nan,14.891077041625977,16.091077041625976,0.009042739868164062,-0.5527727306230282,0.23332875579225335,0.0,-2.4364308166503905,0.734806023576387,0.1581693040844724,-0.05144383460025195,0.0017330903590163662,nan,nan,nan,nan
25.00853991508484,-0.11380943,0.027016606,-1.6114146,0.0003019919309072711,nan,nan,nan,nan,nan,15.004809856414795,16.204809856414794,0.006031513214111328,-0.5961343589538672,0.06799872112519258,0.0,-2.481923942565918,0.7347965228394222,0.17706800454918,-0.016209903562588286,-0.002945960665737128,nan,nan,nan,nan
25.101276397705078,-0.11488807,-0.008427156,-1.6216623,0.0016210414102142447,nan,nan,nan,nan,nan,15.097511291503906,16.297511291503906,0.007098197937011719,-0.5957275346124181,-0.07147520202566837,0.0,-2.519004516601562,0.7343985844441919,0.17398133622716902,0.02946722111313306,-0.004413040845957338,nan,nan,nan,nan
25.205442667007446,-0.10839144,-0.047980316,-1.6392001,0.003511061397803241,nan,nan,nan,nan,nan,15.201674461364746,16.401674461364745,0.006852626800537109,-0.5569314293562896,-0.22322048068033587,0.0,-2.5606697845458983,0.7338052090160452,0.16110431496507094,0.07930307064756227,-0.006091338603289125,nan,nan,nan,nan
25.29698872566223,-0.09108536,-0.0762082,-1.6561842,0.005440266262473844,nan,nan,nan,nan,nan,15.293274402618408,16.493274402618407,0.007584333419799805,-0.4913018642164498,-0.34441614105242097,0.0,-2.597309761047363,0.7333380214466547,0.1397323502294143,0.1207304547133941,-0.007678707403710849,nan,nan,nan,nan
25.396072149276733,-0.06405276,-0.093748815,-1.6706148,0.007381047553925692,nan,nan,nan,nan,nan,15.392601013183594,16.592601013183593,0.00658726692199707,-0.39098470563618326,-0.4551164246196649,0.0,-2.6370404052734373,0.7329682826659859,0.10822953423694837,0.15903617095358558,-0.009149477055245707,nan,nan,nan,nan
25.501330614089966,-0.010462803,-0.10486799,-1.6890526,0.011031853684249648,nan,nan,nan,nan,nan,15.497580528259277,16.697580528259277,0.007372379302978516,-0.25876407259398604,-0.5413327578620882,0.0,-2.679032211303711,0.7323533500608794,0.028915055779294097,0.20552144556523338,-0.00879301014028893,nan,nan,nan,nan
25.60823941230774,0.020352703,-0.103522606,-1.6972591,0.013320130202150345,nan,nan,nan,nan,nan,15.60441279411316,16.80441279411316,0.006870746612548828,-0.10588553826431972,-0.5905829770544316,0.0,-2.7217651176452633,0.7324931623514795,-0.001372625913473508,0.23100233958242455,-0.013061298890496283,nan,nan,nan,nan
25.697348833084106,0.061663248,-0.09313573,-1.7123821,0.016580407746781777,nan,nan,nan,nan,nan,15.69360899925232,16.89360899925232,0.00755000114440918,0.028051480576619617,-0.599343903312163,0.0,-2.7574435997009275,0.7323178795066946,-0.04654553077434522,0.23461630694206556,-0.01455359682276679,nan,nan,nan,nan
25.80950903892517,0.121733144,-0.061408523,-1.7379185,0.019693966831125953,nan,nan,nan,nan,nan,15.80577564239502,17.00577564239502,0.007585763931274414,0.19367356446617837,-0.5678825146339382,0.0,-2.8023102569580076,0.7318355207729693,-0.11271724551974352,0.20968902423270655,-0.013166697419075652,nan,nan,nan,nan
25.888249397277832,0.14627156,-0.044219036,-1.7472049,0.020562443201253007,nan,nan,nan,nan,nan,15.884747505187988,17.084747505187988,0.00824427604675293,0.3018449185492896,-0.5185457020803207,0.0,-2.8338990020751953,0.7319372990969408,-0.13236237687053853,0.213211357988991,-0.01647665187723146,nan,nan,nan,nan
25.99398183822632,0.18373176,-0.010092408,-1.7615459,0.021751006478215214,nan,nan,nan,nan,nan,15.990741968154907,17.190741968154907,0.008767127990722656,0.42770683167168366,-0.42079313937060575,0.0,-2.8762967872619627,0.7318400120575063,-0.1758046768256375,0.17725094719721873,-0.017129039781164573,nan,nan,nan,nan
26.101449251174927,0.21810275,0.04812732,-1.7839046,0.023810401015129105,nan,nan,nan,nan,nan,16.097721576690674,17.297721576690673,0.007314920425415039,0.5241201964092638,-0.29205824712874434,0.0,-2.9190886306762693,0.7315289507153308,-0.20807492708699163,0.10582077650236722,-0.01670822537350305,nan,nan,nan,nan
26.195863962173462,0.2274372,0.10269797,-1.7991405,0.024628091534934043,nan,nan,nan,nan,nan,16.192158937454224,17.392158937454223,0.01015615463256836,0.5780967241418995,-0.16063678761854197,0.0,-2.956863574981689,0.7314026342882607,-0.22297266634928734,0.041686684070421476,-0.015276446719565986,nan,nan,nan,nan
26.297569751739502,0.22643472,0.15679975,-1.8217282,0.02502912723852661,nan,nan,nan,nan,nan,16.293802738189697,17.493802738189697,0.0072727203369140625,0.5999272233799425,-0.009344872799156792,0.0,-2.9975210952758786,0.731296289269954,-0.22915422171975824,-0.018608063495468216,-0.017239583358082497,nan,nan,nan,nan
26.411705493927002,0.20991868,0.20479181,-1.8411332,0.02534824637222713,nan,nan,nan,nan,nan,16.408403158187866,17.608403158187866,0.007177591323852539,0.5778692156979168,0.16145330454553872,0.0,-3.043361263275146,0.7313268117688477,-0.23468660254264473,-0.06797453733393766,-0.02300837091960487,nan,nan,nan,nan
26.509275913238525,0.18344265,0.24282612,-1.8562802,0.025703170685035064,nan,nan,nan,nan,nan,16.505532026290894,17.705532026290893,0.007688760757446289,0.5217144824881146,0.2963342686260885,0.0,-3.0822128105163573,0.7311606134291689,-0.200930891752583,-0.1351616267552576,-0.02452358330840698,nan,nan,nan,nan
26.60355043411255,0.1441339,0.2766222,-1.8703061,0.026221367243648416,nan,nan,nan,nan,nan,16.59978175163269,17.79978175163269,0.006571531295776367,0.4376064024786421,0.4104882903441957,0.0,-3.119912700653076,0.7311894677869727,-0.161712819473137,-0.18745589466478968,-0.025708977667763987,nan,nan,nan,nan
26.700568914413452,0.09514771,0.30244198,-1.8895091,0.02732105992293641,nan,nan,nan,nan,nan,16.696797609329224,17.896797609329223,0.00817418098449707,0.32556295675974356,0.5039928185855959,0.0,-3.1587190437316894,0.7311555811802326,-0.10509650497372486,-0.23220674346828435,-0.02669780091689634,nan,nan,nan,nan
26.809414625167847,0.041726075,0.31643263,-1.9035798,0.029130574638065745,nan,nan,nan,nan,nan,16.805590867996216,18.005590867996215,0.007300853729248047,0.17737396084476642,0.5731827614419673,0.0,-3.202236347198486,0.7311731563274807,-0.036823785469360285,-0.25714804720271506,-0.027623095875969055,nan,nan,nan,nan
26.906309366226196,-0.011084958,0.31533027,-1.923176,0.03168233429989989,nan,nan,nan,nan,nan,16.90248131752014,18.10248131752014,0.006716728210449219,0.03393924813537668,0.5990393371357221,0.0,-3.2409925270080566,0.7314746618948019,0.009328168224446057,-0.2663889238447217,-0.02805509834081545,nan,nan,nan,nan
27.011106729507446,-0.044011496,0.30469847,-1.9378597,0.03310592056365903,nan,nan,nan,nan,nan,17.00740337371826,18.20740337371826,0.005676746368408203,-0.12337497357600978,0.5871785213162338,0.0,-3.2829613494873047,0.7312027121689295,0.08067298403358227,-0.23782574778314555,-0.028037203634362257,nan,nan,nan,nan
27.111971855163574,-0.08121874,0.27881905,-1.9551257,0.034660610201014894,nan,nan,nan,nan,nan,17.108261585235596,18.308261585235595,0.0064013004302978516,-0.2666841929099408,0.5374751540787476,0.0,-3.3233046340942383,0.7309607757034737,0.1447786062609837,-0.18124432522775408,-0.023768921602225716,nan,nan,nan,nan
27.201496839523315,-0.11096288,0.24302857,-1.9719224,0.036102054885136174,nan,nan,nan,nan,nan,17.197728633880615,18.397728633880615,0.007259368896484375,-0.37980906126362857,0.46448366707780075,0.0,-3.359091453552246,0.7306684824157009,0.18587721414337519,-0.13633697935309774,-0.022122604459898953,nan,nan,nan,nan
27.31172513961792,-0.13727556,0.19230838,-1.9902679,0.037325461810731556,nan,nan,nan,nan,nan,17.30805993080139,18.50805993080139,0.00666499137878418,-0.4924541146512026,0.3427666042121084,0.0,-3.4032239723205566,0.7307693633066796,0.2203974100488251,-0.11956712202410019,-0.027608255607372775,nan,nan,nan,nan
27.403775215148926,-0.1484805,0.15229133,-2.0012686,0.03775799579857298,nan,nan,nan,nan,nan,17.400041818618774,18.600041818618774,0.006592273712158203,-0.5578891027509847,0.22081609776395655,0.0,-3.4400167274475097,0.7305432429934238,0.2431824912851027,-0.06256194515587359,-0.024504715395818482,nan,nan,nan,nan
27.496228218078613,-0.15394777,0.10178184,-2.0134528,0.03767655615805566,nan,nan,nan,nan,nan,17.49252152442932,18.69252152442932,0.006567955017089844,-0.5937503446055433,0.08637434966932336,0.0,-3.4770086097717283,0.7307190684289954,0.2628359967592338,-0.03395100827393306,-0.02839746622570921,nan,nan,nan,nan
27.610803604125977,-0.13319641,0.028511401,-2.0366113,0.0375411257026758,nan,nan,nan,nan,nan,17.607065200805664,18.807065200805663,0.006153583526611328,-0.5938397389935434,-0.08575759087148077,0.0,-3.5228260803222655,0.7303740441841149,0.23260619833782206,0.06904035607422251,-0.02345475146022472,nan,nan,nan,nan
27.695163011550903,-0.121114686,-0.0015801182,-2.0456462,0.03733362086789742,nan,nan,nan,nan,nan,17.691858530044556,18.891858530044555,0.006560802459716797,-0.562268278352059,-0.2094143814522094,0.0,-3.556743412017822,0.7304268868095286,0.21660734300025136,0.11214951844883497,-0.025974184794448445,nan,nan,nan,nan
27.801806211471558,-0.077917255,-0.06881715,-2.0657542,0.03694529356289065,nan,nan,nan,nan,nan,17.798059463500977,18.998059463500976,0.0072553157806396484,-0.48712442933992117,-0.35029957228100644,0.0,-3.5992237854003903,0.7305000956641512,0.18247682267068943,0.1636266384590852,-0.026558837690891363,nan,nan,nan,nan
27.90032458305359,-0.028224494,-0.11729413,-2.0860984,0.037045040204141115,nan,nan,nan,nan,nan,17.89698553085327,19.09698553085327,0.00619196891784668,-0.38594591580595217,-0.4593971594086155,0.0,-3.6387942123413084,0.7305139486776057,0.13509810472035957,0.20196149477463904,-0.02550519239297696,nan,nan,nan,nan
28.002047777175903,0.014762739,-0.14429623,-2.100379,0.03753276436420629,nan,nan,nan,nan,nan,17.998304843902588,19.198304843902587,0.006669521331787109,-0.25777820019363185,-0.5418029157405226,0.0,-3.679321937561035,0.7305791566881137,0.09029895048241654,0.23227586883701729,-0.02743127009839525,nan,nan,nan,nan
28.09423542022705,0.06410257,-0.16072255,-2.1103117,0.038728220828923014,nan,nan,nan,nan,nan,18.09043264389038,19.29043264389038,0.005603313446044922,-0.12656660980357812,-0.5864988433772301,0.0,-3.7161730575561522,0.7307823101062295,0.018080468515780244,0.2421652920431173,-0.026087989242896764,nan,nan,nan,nan
28.203429698944092,0.11179572,-0.1618803,-2.1238065,0.039948925734794,nan,nan,nan,nan,nan,18.19971203804016,19.39971203804016,0.00722956657409668,0.03724092235000345,-0.5988431461597611,0.0,-3.7598848152160644,0.7312589471872899,-0.02561547651905915,0.25696792204711694,-0.0320004606229941,nan,nan,nan,nan
28.296974897384644,0.17426434,-0.14455543,-2.1360266,0.04153520862795984,nan,nan,nan,nan,nan,18.293325424194336,19.493325424194335,0.012456417083740234,0.17581215289295127,-0.5736637402652756,0.0,-3.797330169677734,0.7313006927180232,-0.1137843709029914,0.22355747773641915,-0.028558169317154915,nan,nan,nan,nan
28.411587715148926,0.22424191,-0.111006625,-2.1468935,0.0425767100142022,nan,nan,nan,nan,nan,18.40785574913025,19.60785574913025,0.008346319198608398,0.3314348372766842,-0.5001509258607624,0.0,-3.8431422996520994,0.7317646365407445,-0.1755444245613714,0.1952164904012708,-0.026270249929628633,nan,nan,nan,nan
28.509817361831665,0.24800538,-0.086359225,-2.1537075,0.042571472573737376,nan,nan,nan,nan,nan,18.506049871444702,19.7060498714447,0.006951808929443359,0.4435754946004452,-0.4040306678829843,0.0,-3.8824199485778808,0.7320950203586248,-0.21999389985630474,0.15500913240544495,-0.028016194431959865,nan,nan,nan,nan
28.600573539733887,0.2756995,-0.0435019,-2.1681976,0.04146453208121609,nan,nan,nan,nan,nan,18.596845865249634,19.796845865249633,0.008628129959106445,0.5234761356723205,-0.2932110764987813,0.0,-3.9187383460998535,0.732278853205838,-0.24858430366131803,0.12241691696693432,-0.031929677836273464,nan,nan,nan,nan
28.709323167800903,0.299853,0.0131228315,-2.1866915,0.03901456991766751,nan,nan,nan,nan,nan,18.705561637878418,19.905561637878417,0.006591081619262695,0.583178756985237,-0.14107635308992758,0.0,-3.962224655151367,0.7321716933136332,-0.261427119528996,0.04716009458403894,-0.027284713860724594,nan,nan,nan,nan
28.79759383201599,0.30863082,0.0576229,-2.198394,0.036990282424573626,nan,nan,nan,nan,nan,18.79380965232849,19.99380965232849,0.0052759647369384766,0.5999273856763974,-0.009334447786727694,0.0,-3.997523860931396,0.7323132087524734,-0.2646903575248836,0.0082318955663668,-0.030789576877412253,nan,nan,nan,nan
28.895459175109863,0.307863,0.10200412,-2.2092566,0.03515994696308501,nan,nan,nan,nan,nan,18.89172649383545,20.09172649383545,0.006917238235473633,0.5841267339341379,0.13709835412373433,0.0,-4.03669059753418,0.7324986563201834,-0.2542667721703884,-0.038572035939783575,-0.030585069181292734,nan,nan,nan,nan
28.992016792297363,0.29707268,0.15212373,-2.2242374,0.033899477507254326,nan,nan,nan,nan,nan,18.988216876983643,20.188216876983642,0.006715059280395508,0.5341122719851245,0.27335705755456247,0.0,-4.075286750793457,0.7325129051770014,-0.23052883941815244,-0.09345547911630928,-0.030799480461641396,nan,nan,nan,nan
