time,x,y,z,yaw,platform,trajectory,traj_double,traj_short,traj_spin,traj_time,ref_time,comptime,x_ref,y_ref,yaw_ref,z_ref,throttle_input,p_input,q_input,r_input,cbf_term_pitch_cbf,cbf_term_roll_cbf,cbf_term_thrust_cbf,cbf_term_yaw_cbf
10.057023048400879,-0.02529646,-0.03255092,-2.8583891,-0.00010884907983791135,SIM,SAWTOOTH,DblSpd,Not Short,NoSpin,0.054451704025268555,1.2544517040252685,0.0068590641021728516,0.0,0.18398624992370607,0.0,-5.0,0.8785971096381054,0.4015472471745741,0.03570923648346026,-0.0020267609585060513,nan,nan,nan,nan
10.16053581237793,-0.02529646,-0.03255092,-2.8583891,-0.00010884907983791135,nan,nan,nan,nan,nan,0.1579132080078125,1.3579132080078125,0.0077898502349853516,0.0,0.19916060384114587,0.0,-5.0,0.8785971096381053,0.41486249726842683,0.03234188365614898,-0.0020765132081774517,nan,nan,nan,nan
10.260506868362427,-0.03184302,-0.030249828,-2.8804648,0.001339197806276299,nan,nan,nan,nan,nan,0.2578907012939453,1.4578907012939453,0.0071675777435302734,0.0,0.213823969523112,0.0,-5.0,0.8785971096381059,0.41810398173812624,0.022850358178952552,-0.0012561334816195994,nan,nan,nan,nan
10.362518072128296,-0.034788344,-0.02572818,-2.8985326,0.0017125453786681812,nan,nan,nan,nan,nan,0.3598964214324951,1.559896421432495,0.0064122676849365234,0.0,0.22878480847676597,0.0,-5.0,0.8785971096381059,0.36890876963634317,0.016432688260600955,-0.0027918581066735037,nan,nan,nan,nan
10.459703207015991,-0.033101734,-0.019004036,-2.9236887,0.001862336378763845,nan,nan,nan,nan,nan,0.4571211338043213,1.6571211338043212,0.009473562240600586,0.0,0.24304443295796713,0.0,-5.0,0.8785971096381059,0.31996154520999964,0.00979734883473347,-0.0021113067826766326,nan,nan,nan,nan
10.559394359588623,-0.031403832,-0.013069739,-2.9447017,0.0019060921696939246,nan,nan,nan,nan,nan,0.5568127632141113,1.7568127632141113,0.007064104080200195,0.0,0.2576658719380697,0.0,-5.0,0.8785971096381059,0.3013153726588369,0.0069422464354826794,-0.002880916329698742,nan,nan,nan,nan
10.657882690429688,-0.03163848,-0.0033442993,-2.9812596,0.002059393497498329,nan,nan,nan,nan,nan,0.6552958488464355,1.8552958488464355,0.0074269771575927734,0.0,0.2721100578308106,0.0,-5.0,0.8785971096381059,0.30327435908069666,-0.000806375474363374,-0.00319273096236706,nan,nan,nan,nan
10.75840163230896,-0.034152534,0.0043058214,-3.0118763,0.002178334588552016,nan,nan,nan,nan,nan,0.7557835578918457,1.9557835578918457,0.0070154666900634766,0.0,0.2868482551574707,0.0,-5.0,0.8785971096381059,0.29839236213718007,-0.014617643170327613,-0.003115357992478126,nan,nan,nan,nan
10.86022400856018,-0.037339278,0.012352484,-3.0988705,0.0027541545414314014,nan,nan,nan,nan,nan,0.8576550483703613,2.0576550483703615,0.009528160095214844,0.0,0.30178940709431973,0.0,-5.0,0.8785971096381059,0.11341380184623755,-0.02727004101595304,-0.004913665708895806,nan,nan,nan,nan
10.961834192276001,-0.038294245,0.018812304,-3.1855242,0.003338888489373547,nan,nan,nan,nan,nan,0.9592440128326416,2.159244012832642,0.0067615509033203125,0.0,0.31668912188212084,0.0,-5.0,0.8785971096379058,-0.05889147945077664,-0.036131300143559246,-0.0027824500792487036,nan,nan,nan,nan
11.065144777297974,-0.035265945,0.03547883,-3.3450098,0.00482772463620721,nan,nan,nan,nan,nan,1.0625150203704834,2.2625150203704836,0.005822181701660156,0.0,0.3318355363210043,0.0,-5.0,0.8785971096380911,-0.21952933511897085,-0.031955880527965136,-0.009789974916042348,nan,nan,nan,nan
11.165629863739014,-0.026565338,0.06010491,-3.5165088,0.006234777379731299,nan,nan,nan,nan,nan,1.1630077362060547,2.363007736206055,0.00535130500793457,0.0,0.34657446797688807,0.0,-5.0,0.8785971096366906,-0.2779781659514168,-0.016783763943725813,-0.004459321413718663,nan,nan,nan,nan
11.268632888793945,-0.021779709,0.09623294,-3.7721777,0.009224761913133782,nan,nan,nan,nan,nan,1.2660298347473145,2.4660298347473146,0.005162954330444336,0.0,0.36168437576293955,0.0,-5.0,0.8198115283587012,-0.25382780990113435,-0.0022191161787592176,-0.017084496304621593,nan,nan,nan,nan
11.36794137954712,-0.01007859,0.124802746,-3.9681342,0.008683366369224843,nan,nan,nan,nan,nan,1.3653817176818848,2.565381717681885,0.0050623416900634766,0.0,0.3762559852600098,0.0,-5.0,0.7399162531613491,-0.2254506894843307,0.0034063668646494164,-0.009253332943390369,nan,nan,nan,nan
11.462677955627441,0.00044975555,0.16127352,-4.2152915,0.007214525947290596,nan,nan,nan,nan,nan,1.4600567817687988,2.660056781768799,0.005774736404418945,0.0,0.39014166132609057,0.0,-5.0,0.6549091124123927,-0.17353712055365286,0.019358251035745372,-0.006749733719088208,nan,nan,nan,nan
11.5562584400177,0.0058966475,0.19820131,-4.4766808,0.006270942872350617,nan,nan,nan,nan,nan,1.5537652969360352,2.7537652969360353,0.005946159362792969,0.0038855768839518787,0.39222884623209625,0.0,-5.0,0.5904371480415417,-0.12526220496146148,0.014015841932902286,-0.008825618726037387,nan,nan,nan,nan
11.673506736755371,0.0070241196,0.22923309,-4.765171,0.006476086506545596,nan,nan,nan,nan,nan,1.6710431575775146,2.871043157577515,0.005434274673461914,0.02108632977803554,0.35782734044392894,0.0,-5.0,0.5510849683261352,-0.05357849883566733,-0.015565016030605174,-0.0099152713413684,nan,nan,nan,nan
11.769649028778076,0.013699942,0.24135865,-4.9331036,0.005204968262930168,nan,nan,nan,nan,nan,1.7670838832855225,2.9670838832855226,0.0051403045654296875,0.03517230288187669,0.3296553942362466,0.0,-5.0,0.5464940065431293,-0.026167286802638377,-0.027281811727322643,-0.00763421843743531,nan,nan,nan,nan
11.868902683258057,0.019987352,0.24299343,-5.0545425,0.0020319928357941247,nan,nan,nan,nan,nan,1.8662772178649902,3.0662772178649904,0.005165576934814453,0.04972065862019863,0.3005586827596028,0.0,-5.0,0.5562955393280106,0.03918361092946245,-0.02583512736446655,-0.005094903587690574,nan,nan,nan,nan
11.964962720870972,0.031060096,0.23428275,-5.1930356,-0.005280138991985303,nan,nan,nan,nan,nan,1.962338924407959,3.162338924407959,0.0061914920806884766,0.06380970891316738,0.2723805821736653,0.0,-5.0,0.5802996742577612,0.11335263119433932,-0.015516060352682062,0.00684197518985345,nan,nan,nan,nan
12.065414190292358,0.03925964,0.22048794,-5.257762,-0.007724164891859349,nan,nan,nan,nan,nan,2.0627939701080322,3.2627939701080324,0.005791664123535156,0.0785431156158448,0.24291376876831042,0.0,-5.0,0.6009351094851889,0.1418246345401833,-0.01317381411874914,0.007947063284483177,nan,nan,nan,nan
12.165848016738892,0.05002787,0.19549148,-5.3087816,-0.009891655408911043,nan,nan,nan,nan,nan,2.1632440090179443,3.3632440090179445,0.005471229553222656,0.09327578798929857,0.21344842402140288,0.0,-5.0,0.6287827186173149,0.17714643794826923,-0.001628401993993086,0.017200615144129107,nan,nan,nan,nan
12.260178565979004,0.060308915,0.15203503,-5.3411636,-0.013015732752146694,nan,nan,nan,nan,nan,2.2576024532318115,3.4576024532318117,0.01046895980834961,0.10711502647399909,0.18576994705200184,0.0,-5.0,0.6552355251441322,0.195978697831482,0.006129866676174048,0.020065730748712107,nan,nan,nan,nan
12.359131336212158,0.07114043,0.11681213,-5.348091,-0.014792198200763596,nan,nan,nan,nan,nan,2.3565452098846436,3.5565452098846437,0.006066083908081055,0.12162663078308111,0.1567467384338378,0.0,-5.0,0.6735426078965089,0.18432534835497222,0.005249390944776341,0.016109240612923143,nan,nan,nan,nan
12.45831561088562,0.09477344,0.059872877,-5.341791,-0.01600949745095875,nan,nan,nan,nan,nan,2.455702543258667,3.655702543258667,0.006460666656494141,0.13616970634460457,0.12766058731079086,0.0,-5.0,0.6975896601664398,0.1607893577946392,0.023427629887848765,0.024765818228036352,nan,nan,nan,nan
12.568803787231445,0.11667852,0.013626864,-5.3284073,-0.015537902949633952,nan,nan,nan,nan,nan,2.5661849975585938,3.766184997558594,0.005262851715087891,0.15237379964192715,0.09525240071614571,0.0,-5.0,0.7150545667253416,0.11393452169358287,0.045089980324703134,0.023281812772028225,nan,nan,nan,nan
12.661131381988525,0.13247183,-0.023504416,-5.314618,-0.015201641559848426,nan,nan,nan,nan,nan,2.658529043197632,3.858529043197632,0.006132841110229492,0.16591759300231942,0.06816481399536119,0.0,-5.0,0.7228885898906351,0.07519728923425585,0.04054951003924506,0.017324307099471012,nan,nan,nan,nan
12.764600038528442,0.15320434,-0.07635051,-5.30165,-0.014292526917678372,nan,nan,nan,nan,nan,2.7619788646698,3.9619788646698,0.0055084228515625,0.18109023348490405,0.0378195330301919,0.0,-5.0,0.730822495635347,0.03241917774092086,0.034662010587276706,0.018323434846528413,nan,nan,nan,nan
12.857261657714844,0.16381961,-0.104738966,-5.292933,-0.012950462751837918,nan,nan,nan,nan,nan,2.8547041416168213,4.0547041416168215,0.005279541015625,0.1946899407704672,0.01062011845906561,0.0,-5.0,0.7332475573506074,0.004449824805034584,0.02219474366874674,0.01507257167068476,nan,nan,nan,nan
12.967757225036621,0.18185464,-0.14704306,-5.2796445,-0.010016561737301463,nan,nan,nan,nan,nan,2.9651384353637695,4.16513843536377,0.005278825759887695,0.2108869705200196,-0.021773941040039182,0.0,-5.0,0.7355585085341788,-0.01974752277591195,0.006256319921760723,0.011231953455956775,nan,nan,nan,nan
13.062988519668579,0.20411204,-0.19474123,-5.268555,-0.007268130722694167,nan,nan,nan,nan,nan,3.0604071617126465,4.260407161712647,0.007723808288574219,0.22485971705118823,-0.04971943410237643,0.0,-5.0,0.7365321830091213,-0.007941653913800424,0.008388603013906848,0.007356945474667659,nan,nan,nan,nan
13.163700103759766,0.21778198,-0.22517157,-5.264551,-0.007082883861222541,nan,nan,nan,nan,nan,3.161083221435547,4.361083221435547,0.006406307220458984,0.2396255391438803,-0.07925107828776055,0.0,-5.0,0.7358446155923306,0.008223772675948832,0.0049578512743581145,0.006554911339792529,nan,nan,nan,nan
13.255709648132324,0.23290923,-0.2637396,-5.2563505,-0.00908044264406489,nan,nan,nan,nan,nan,3.253232479095459,4.453232479095459,0.005751371383666992,0.2531407636006674,-0.10628152720133476,0.0,-5.0,0.7350096522141403,0.03407830981365309,0.0041252763366637565,0.008790671242424495,nan,nan,nan,nan
13.368582010269165,0.2461634,-0.2937583,-5.2480664,-0.012208970267046603,nan,nan,nan,nan,nan,3.3659861087799072,4.565986108779907,0.005485057830810547,0.26967796262105315,-0.13935592524210624,0.0,-5.0,0.7349358540109956,0.04821567264117132,-0.0006252107406888999,0.012683942010014642,nan,nan,nan,nan
13.463592052459717,0.25692153,-0.31226882,-5.243316,-0.014591587861964826,nan,nan,nan,nan,nan,3.4609715938568115,4.660971593856812,0.006927013397216797,0.2836091670989991,-0.16721833419799817,0.0,-5.0,0.7350217304135155,0.053088219985601946,-0.0017693794455542983,0.016213040904173314,nan,nan,nan,nan
13.557194232940674,0.27309176,-0.3318355,-5.2408323,-0.016373402846843865,nan,nan,nan,nan,nan,3.55474853515625,4.75474853515625,0.0053920745849609375,0.29736311848958347,-0.19472623697916688,0.0,-5.0,0.7340501626138533,0.03754288161078085,0.005074754924857702,0.020954542855906436,nan,nan,nan,nan
13.668698787689209,0.2902769,-0.3476803,-5.243882,-0.017140519857559447,nan,nan,nan,nan,nan,3.666081190109253,4.866081190109253,0.0052950382232666016,0.3136919078826905,-0.22738381576538105,0.0,-5.0,0.7314750309258539,0.02547898719934326,0.014819282978374888,0.02284561149082861,nan,nan,nan,nan
13.764140844345093,0.30047625,-0.3518895,-5.242979,-0.016930999053367035,nan,nan,nan,nan,nan,3.7615270614624023,4.9615270614624025,0.009340047836303711,0.3276906356811524,-0.2553812713623049,0.0,-5.0,0.7304377646688643,0.019154634132309115,0.019866720843062464,0.0221712151393224,nan,nan,nan,nan
13.867993593215942,0.32177177,-0.3538245,-5.240942,-0.014963740907145693,nan,nan,nan,nan,nan,3.8653738498687744,5.065373849868775,0.005525827407836914,0.34292149798075366,-0.2858429959615073,0.0,-5.0,0.7301791062457295,-0.003454475756694605,0.026311164753509402,0.021296911763623305,nan,nan,nan,nan
13.965468645095825,0.3359482,-0.35154054,-5.2412934,-0.012979258061002473,nan,nan,nan,nan,nan,3.9629359245300293,5.1629359245300295,0.006102323532104492,0.3572306022644044,-0.31446120452880877,0.0,-5.0,0.7303286594186639,-0.009869364999208081,0.03288138353560873,0.01855317956844813,nan,nan,nan,nan
14.067380905151367,0.35589802,-0.34025604,-5.2468615,-0.009608262198946161,nan,nan,nan,nan,nan,4.064765930175781,5.264765930175781,0.012026309967041016,0.3721656697591147,-0.3443313395182293,0.0,-5.0,0.7285330287790694,-0.019220818611542727,0.027751075935298578,0.015126685463349984,nan,nan,nan,nan
14.157592296600342,0.37020275,-0.32753313,-5.249651,-0.007617671261349351,nan,nan,nan,nan,nan,4.1551384925842285,5.355138492584229,0.005106449127197266,0.38542031224568696,-0.37084062449137395,0.0,-5.0,0.7276214054519377,-0.028856338780069254,0.02499483529651204,0.012222374055597968,nan,nan,nan,nan
14.25757622718811,0.38158286,-0.31565037,-5.252009,-0.005235015939407112,nan,nan,nan,nan,nan,4.25504732131958,5.45504732131958,0.005303144454956055,0.4,-0.3998527857462564,0.0,-5.0,0.7272595149329154,-0.02717484441582722,0.020962309800941516,0.009439160204253992,nan,nan,nan,nan
14.36976170539856,0.40040547,-0.29511,-5.252483,-0.003067274158056391,nan,nan,nan,nan,nan,4.367144346237183,5.567144346237183,0.005394697189331055,0.4,-0.3669709917704263,0.0,-5.0,0.7271022043401566,-0.028263462082005763,0.009312431824923157,0.005868852580917246,nan,nan,nan,nan
14.467118263244629,0.412305,-0.27844572,-5.251098,-0.0020036035193914704,nan,nan,nan,nan,nan,4.464562654495239,5.664562654495239,0.005562305450439453,0.4,-0.33839495468139635,0.0,-5.0,0.7281236164385014,-0.01794772025706065,0.007080400249501966,0.004580567357234268,nan,nan,nan,nan
14.563039541244507,0.42684066,-0.24653828,-5.2493205,-0.002009257260915111,nan,nan,nan,nan,nan,4.560456037521362,5.7604560375213625,0.007912874221801758,0.4,-0.3102662289937336,0.0,-5.0,0.7290980120200048,-0.034076964597625894,0.004164855244109896,0.003254572961612829,nan,nan,nan,nan
14.663323640823364,0.43367192,-0.22268029,-5.2493505,-0.00019138262527539432,nan,nan,nan,nan,nan,4.660784482955933,5.860784482955933,0.00879979133605957,0.4,-0.2808365516662596,0.0,-5.0,0.7292577758193785,-0.031300871547618125,-0.0030197334642064646,0.002937666154008021,nan,nan,nan,nan
14.762393712997437,0.43751433,-0.18630452,-5.251537,0.0040043598187609036,nan,nan,nan,nan,nan,4.759778022766113,5.9597780227661135,0.007296085357666016,0.4,-0.25179844665527323,0.0,-5.0,0.7286829987725378,-0.038115378952241596,-0.021599442115399204,-0.002591188430372506,nan,nan,nan,nan
14.855456113815308,0.43853652,-0.16061479,-5.2544675,0.006835931378002834,nan,nan,nan,nan,nan,4.852836847305298,6.052836847305298,0.0051267147064208984,0.4,-0.22450119145711245,0.0,-5.0,0.7280721281507242,-0.02939873647002499,-0.03489249604243673,-0.005235881400142641,nan,nan,nan,nan
14.966572999954224,0.43669122,-0.121247455,-5.2615223,0.010945872801726843,nan,nan,nan,nan,nan,4.963956356048584,6.163956356048584,0.007091045379638672,0.4,-0.19190613555908184,0.0,-5.0,0.7268966106768786,-0.024034842582744798,-0.04085923766619297,-0.009828538235443048,nan,nan,nan,nan
15.06312370300293,0.43096212,-0.09621218,-5.2684116,0.015240481221232878,nan,nan,nan,nan,nan,5.060559988021851,6.260559988021851,0.008781671524047852,0.4,-0.163569070180257,0.0,-5.0,0.7252102073281875,-0.006208306373337906,-0.04804825278719897,-0.015412536586903657,nan,nan,nan,nan
15.162245750427246,0.42686853,-0.0638544,-5.2746887,0.020746436621774847,nan,nan,nan,nan,nan,5.15966534614563,6.35966534614563,0.006743192672729492,0.4,-0.13449816513061505,0.0,-5.0,0.7241666489457479,0.009901635757770262,-0.0445257614682798,-0.024572482653824904,nan,nan,nan,nan
15.25945234298706,0.42827317,-0.042152286,-5.280092,0.022216062208348118,nan,nan,nan,nan,nan,5.2568583488464355,6.456858348846436,0.005971193313598633,0.4,-0.10598821767171206,0.0,-5.0,0.724102712680817,0.029526711131870817,-0.03161010069771566,-0.026809892597471147,nan,nan,nan,nan
15.357202053070068,0.43450832,-0.012083523,-5.286871,0.021373784891600942,nan,nan,nan,nan,nan,5.354828357696533,6.554828357696533,0.005329132080078125,0.4,-0.07725034840901675,0.0,-5.0,0.7236042158467114,0.023146302996108075,0.002218855457484539,-0.02709392953321795,nan,nan,nan,nan
15.460719347000122,0.44185543,0.011339222,-5.291992,0.019603327513562606,nan,nan,nan,nan,nan,5.458138465881348,6.658138465881348,0.005274057388305664,0.4,-0.046946050008137834,0.0,-5.0,0.7235552706462255,0.030227127677899455,0.023285851416696077,-0.025255338517150786,nan,nan,nan,nan
15.572497129440308,0.45029867,0.04153949,-5.300639,0.016591500289563677,nan,nan,nan,nan,nan,5.569886207580566,6.769886207580567,0.005341529846191406,0.4,-0.01416671244303367,0.0,-5.0,0.7227384544703276,0.008090216025107892,0.04252914189968212,-0.02149738178611122,nan,nan,nan,nan
15.65373682975769,0.4545931,0.062122032,-5.30651,0.013740292649141832,nan,nan,nan,nan,nan,5.651118516921997,6.851118516921997,0.005174875259399414,0.4,0.009661431630452723,0.0,-5.0,0.7224224344412675,-0.007329128070469702,0.04252458491508746,-0.018073901252654116,nan,nan,nan,nan
15.771531581878662,0.45901114,0.085820675,-5.305287,0.011690814254402904,nan,nan,nan,nan,nan,5.768891334533691,6.968891334533692,0.005156040191650391,0.4,0.0442081247965497,0.0,-5.0,0.7234040608909788,-0.021913517239833515,0.03131881843341381,-0.013642624183810268,nan,nan,nan,nan
15.86830759048462,0.46545362,0.11236334,-5.2978725,0.011544651253811222,nan,nan,nan,nan,nan,5.86568021774292,7.06568021774292,0.005326032638549805,0.4,0.07259953053792341,0.0,-5.0,0.7273474183930286,-0.03409603011498124,0.011775091279125714,-0.01300603489242491,nan,nan,nan,nan
15.964790344238281,0.47019258,0.13184859,-5.292459,0.011351496367102427,nan,nan,nan,nan,nan,5.962176322937012,7.162176322937012,0.007086992263793945,0.4,0.10090505472819036,0.0,-5.0,0.7293509097423966,-0.039287053386966135,0.006899872663542999,-0.013476250412242388,nan,nan,nan,nan
16.054574012756348,0.4717545,0.15653434,-5.28801,0.009616176044395349,nan,nan,nan,nan,nan,6.051954746246338,7.251954746246338,0.005291938781738281,0.4,0.12724005889892603,0.0,-5.0,0.7311656520001552,-0.06268230108215707,-0.001794477870805335,-0.011944957169759586,nan,nan,nan,nan
16.17164969444275,0.47076288,0.19583245,-5.280814,0.007128647436144962,nan,nan,nan,nan,nan,6.1690263748168945,7.369026374816895,0.005281209945678711,0.4,0.1615810699462893,0.0,-5.0,0.7319955726416517,-0.0880302026930971,-0.012053269362010127,-0.009015415913983856,nan,nan,nan,nan
16.272223711013794,0.4672644,0.22963698,-5.268045,0.005666215749081903,nan,nan,nan,nan,nan,6.269590616226196,7.4695906162261965,0.004998922348022461,0.4,0.19107991409301778,0.0,-5.0,0.7337007815418285,-0.10052219512454798,-0.022506975708112074,-0.007483707625584964,nan,nan,nan,nan
16.36715078353882,0.46628475,0.25404006,-5.259167,0.0047577780512469085,nan,nan,nan,nan,nan,6.364576578140259,7.564576578140259,0.005815982818603516,0.4,0.21894246292114278,0.0,-5.0,0.7356923869710709,-0.10619985113073309,-0.0272112454590845,-0.006197928070068304,nan,nan,nan,nan
16.460879802703857,0.46505162,0.27901,-5.25253,0.0040707359728204655,nan,nan,nan,nan,nan,6.458295106887817,7.658295106887818,0.007649660110473633,0.4,0.24643323135376002,0.0,-5.0,0.7362790285616342,-0.08761119578874588,-0.016990977744474372,-0.005609957913623129,nan,nan,nan,nan
16.55779004096985,0.45919472,0.29356465,-5.249438,0.004137309012150588,nan,nan,nan,nan,nan,6.555221796035767,7.755221796035767,0.0050144195556640625,0.4,0.2748650601704918,0.0,-5.0,0.7360073258545663,-0.07855659875688224,-0.01887631759132205,-0.0052079465907350735,nan,nan,nan,nan
16.657103300094604,0.45292637,0.31662422,-5.248197,0.0036018549637640597,nan,nan,nan,nan,nan,6.654489755630493,7.854489755630493,0.004976749420166016,0.4,0.3039836616516116,0.0,-5.0,0.7347345327430599,-0.04878408762861497,-0.020520092984937496,-0.004900225387334415,nan,nan,nan,nan
16.768115520477295,0.44782472,0.32593322,-5.2431874,0.0037055226906749193,nan,nan,nan,nan,nan,6.765548229217529,7.9655482292175295,0.005736351013183594,0.4,0.3365608139038089,0.0,-5.0,0.7341896192797307,-0.02199407594487854,-0.015903765940394,-0.004090932892659727,nan,nan,nan,nan
16.862380504608154,0.44225648,0.32730746,-5.234434,0.005745341245362332,nan,nan,nan,nan,nan,6.859804630279541,8.05980463027954,0.005590200424194336,0.4,0.36420935821533207,0.0,-5.0,0.7350033851847019,0.010853091836088563,-0.01106238267141394,-0.005633302037417329,nan,nan,nan,nan
16.956190586090088,0.4402735,0.3219775,-5.2286797,0.00803971330858778,nan,nan,nan,nan,nan,6.953570365905762,8.153570365905761,0.005150318145751953,0.4,0.3917139739990234,0.0,-5.0,0.7359611234181973,0.02841950432605259,-0.002114238615485054,-0.009888491751801358,nan,nan,nan,nan
17.069485664367676,0.44064313,0.30442926,-5.2260866,0.011623437500315848,nan,nan,nan,nan,nan,7.066862106323242,8.266862106323241,0.0056993961334228516,0.4,0.3750537821451825,0.0,-5.0,0.7348451527894085,0.0715458537214112,0.015052792539740994,-0.015241355459033048,nan,nan,nan,nan
17.168825149536133,0.44902447,0.27686527,-5.222173,0.013438004613411502,nan,nan,nan,nan,nan,7.166208505630493,8.366208505630492,0.005515098571777344,0.4,0.34591217168172217,0.0,-5.0,0.7333101684151402,0.09907426155744886,0.0324263487946869,-0.017305577567253986,nan,nan,nan,nan
17.2695529460907,0.45496726,0.25367317,-5.2229123,0.013232283933001814,nan,nan,nan,nan,nan,7.266923666000366,8.466923666000366,0.005603790283203125,0.4,0.31636905797322606,0.0,-5.0,0.7325615621187214,0.09195932462598894,0.04086032951576052,-0.019331480293589325,nan,nan,nan,nan
17.36706280708313,0.46145937,0.21969971,-5.2232265,0.011124957568973994,nan,nan,nan,nan,nan,7.364494323730469,8.564494323730468,0.0066144466400146484,0.4,0.28774833170572933,0.0,-5.0,0.7302850314772485,0.09249123787707887,0.03881194589850766,-0.01766260589830078,nan,nan,nan,nan
17.463024377822876,0.46484217,0.18946244,-5.2220545,0.008068160300914846,nan,nan,nan,nan,nan,7.460483074188232,8.660483074188232,0.0065648555755615234,0.4,0.259591631571452,0.0,-5.0,0.7311317133648138,0.06529653952587997,0.02379254713279646,-0.013939277906701847,nan,nan,nan,nan
17.55636477470398,0.4669395,0.15800436,-5.227159,0.006133969601279737,nan,nan,nan,nan,nan,7.553733825683594,8.753733825683593,0.005273342132568359,0.4,0.23223807779947933,0.0,-5.0,0.7301239597344243,0.04578549614586797,0.010121864749676223,-0.011352179495683977,nan,nan,nan,nan
17.651092767715454,0.46756756,0.116517454,-5.2402864,0.0037708093099008432,nan,nan,nan,nan,nan,7.648495197296143,8.848495197296142,0.009871959686279297,0.4,0.20444140879313166,0.0,-5.0,0.7267598150532805,0.035791754478051,-0.006099981446697142,-0.007502748112101278,nan,nan,nan,nan
17.769582509994507,0.46496966,0.07963184,-5.25183,0.0020344325732060227,nan,nan,nan,nan,nan,7.766959190368652,8.966959190368652,0.005859375,0.4,0.1696919708251955,0.0,-5.0,0.7234106416530693,0.01663248199171662,-0.020463519085318734,-0.0040407604203820694,nan,nan,nan,nan
17.862451314926147,0.4605431,0.051944416,-5.2583585,0.0009611358509952185,nan,nan,nan,nan,nan,7.859849214553833,9.059849214553832,0.005323648452758789,0.4,0.14244423039754245,0.0,-5.0,0.7226840853699242,-0.0071837709128642286,-0.026548122052659245,-0.004601048236200858,nan,nan,nan,nan
17.961057662963867,0.4463147,0.009263638,-5.262837,-0.002403814434589203,nan,nan,nan,nan,nan,7.958631992340088,9.158631992340087,0.006474018096923828,0.4,0.11346794891357437,0.0,-5.0,0.7237407612906832,-0.005409520131317181,-0.04452174242591758,0.0019297196435897818,nan,nan,nan,nan
18.0654513835907,0.43307856,-0.018354237,-5.268316,-0.004488928627118893,nan,nan,nan,nan,nan,8.063061237335205,9.263061237335204,0.006245851516723633,0.4,0.08283537038167332,0.0,-5.0,0.7240447522923251,-0.017516604773601386,-0.05398046397497968,0.0015439944607091602,nan,nan,nan,nan
18.162856578826904,0.4148933,-0.055222828,-5.275986,-0.006261757126918864,nan,nan,nan,nan,nan,8.16035795211792,9.36035795211792,0.007981300354003906,0.4,0.05429500071207696,0.0,-5.0,0.7240815122688077,-0.008095198428694293,-0.05545321653438625,0.007226829525467941,nan,nan,nan,nan
18.258739233016968,0.4043093,-0.0743335,-5.277815,-0.006982089696174849,nan,nan,nan,nan,nan,8.256192684173584,9.456192684173583,0.005084514617919922,0.4,0.026183479309082183,0.0,-5.0,0.7243188622062314,-0.010384279363778181,-0.04577408065922317,0.005630721618108392,nan,nan,nan,nan
18.37245464324951,0.38436836,-0.10595774,-5.273691,-0.008608714498141302,nan,nan,nan,nan,nan,8.36984896659851,9.56984896659851,0.005174160003662109,0.4,-0.0071556968688963885,0.0,-5.0,0.7268705252250337,-0.006906691593553593,-0.02585226503187414,0.008751986743405457,nan,nan,nan,nan
18.468831777572632,0.37437013,-0.122109,-5.2686996,-0.00916872268314968,nan,nan,nan,nan,nan,8.466261148452759,9.666261148452758,0.005845785140991211,0.4,-0.03543660354614247,0.0,-5.0,0.7295169579524068,-0.009349621402790156,-0.015425579352425963,0.008835656519222109,nan,nan,nan,nan
18.565070152282715,0.36048678,-0.14643978,-5.2600913,-0.00962529159907361,nan,nan,nan,nan,nan,8.562447547912598,9.762447547912597,0.0072858333587646484,0.4,-0.0636512807210285,0.0,-5.0,0.7324980699436654,0.005169492076217613,0.0021503147623008804,0.010745063700250603,nan,nan,nan,nan
18.66346311569214,0.3540683,-0.15911032,-5.2564645,-0.009970696911459662,nan,nan,nan,nan,nan,8.66084337234497,9.86084337234497,0.005585432052612305,0.4,-0.09251405588785798,0.0,-5.0,0.7334929732433374,0.012095361936051466,0.01700203588285384,0.010314734701039361,nan,nan,nan,nan
18.761024713516235,0.35013086,-0.1778737,-5.2534075,-0.009858131343835425,nan,nan,nan,nan,nan,8.758438110351562,9.958438110351562,0.005799293518066406,0.4,-0.12114184570312486,0.0,-5.0,0.7333003309224893,0.02381212315225457,0.03350343754066161,0.011491313119000668,nan,nan,nan,nan
18.857495069503784,0.35158423,-0.18821783,-5.253271,-0.0090039967976313,nan,nan,nan,nan,nan,8.854866981506348,10.054866981506347,0.005138874053955078,0.4,-0.14942764790852855,0.0,-5.0,0.7323128865984199,0.030666863649477787,0.053049639020726826,0.010270870709330433,nan,nan,nan,nan
18.957234382629395,0.35657674,-0.20953712,-5.2541194,-0.007623447518933086,nan,nan,nan,nan,nan,8.954638242721558,10.154638242721557,0.005321025848388672,0.4,-0.1786938845316568,0.0,-5.0,0.7307280173500916,0.04533581484051067,0.0677017798174174,0.008458112648959527,nan,nan,nan,nan
19.07279396057129,0.36937648,-0.22731838,-5.2577777,-0.005760047482910081,nan,nan,nan,nan,nan,9.070178508758545,10.270178508758544,0.0053598880767822266,0.4,-0.21258569590250637,0.0,-5.0,0.7291245787702195,0.060017256507350375,0.07730798420332435,0.006664297112447299,nan,nan,nan,nan
19.168025732040405,0.38382477,-0.24339105,-5.261917,-0.004081951061791125,nan,nan,nan,nan,nan,9.165443420410156,10.365443420410156,0.006365537643432617,0.4,-0.24053006998697912,0.0,-5.0,0.7279867087414118,0.07274441612187257,0.0847455788055871,0.005220221128058831,nan,nan,nan,nan
19.266083002090454,0.3959442,-0.25781807,-5.265785,-0.0027583154790798998,nan,nan,nan,nan,nan,9.263497591018677,10.463497591018676,0.006853342056274414,0.4,-0.26929262669881177,0.0,-5.0,0.727005697922647,0.08341668534389257,0.08806884010349096,0.003253457603408512,nan,nan,nan,nan
19.363064289093018,0.40787762,-0.27706075,-5.2722836,-0.0016733432352910981,nan,nan,nan,nan,nan,9.360613584518433,10.560613584518432,0.005438566207885742,0.4,-0.29777998479207346,0.0,-5.0,0.7264249151773342,0.07730660838463912,0.06630852218481888,0.0013418624420278207,nan,nan,nan,nan
19.45889949798584,0.40826076,-0.29053006,-5.281174,-0.0014689370254283574,nan,nan,nan,nan,nan,9.456296443939209,10.656296443939208,0.005083322525024414,0.4,-0.3258469568888345,0.0,-5.0,0.7253809801624737,0.08486667129908251,0.04564180441824529,0.0020820296050895136,nan,nan,nan,nan
19.55290198326111,0.40677994,-0.30148265,-5.2928224,-0.0015307789320454096,nan,nan,nan,nan,nan,9.55033826828003,10.750338268280029,0.005724430084228516,0.4,-0.3534325586954752,0.0,-5.0,0.7237055485799102,0.050077798825061415,-0.006609984295176361,0.0006710071641556198,nan,nan,nan,nan
19.668886184692383,0.39820796,-0.30416122,-5.301936,-0.0019038493035864884,nan,nan,nan,nan,nan,9.66629958152771,10.86629958152771,0.006861686706542969,0.4,-0.3874478772481282,0.0,-5.0,0.7232404461231536,0.017054378854760733,-0.034620982799831064,0.0016413328685665714,nan,nan,nan,nan
19.769652605056763,0.38934678,-0.30200762,-5.3101397,-0.0023062921353445218,nan,nan,nan,nan,nan,9.767135381698608,10.967135381698608,0.008291244506835938,0.3914868106842041,-0.3829736213684082,0.0,-5.0,0.7233979369641159,-0.0020549226275873487,-0.04567764695510433,0.004540979088272558,nan,nan,nan,nan
19.8586368560791,0.37806973,-0.2956865,-5.3195786,-0.00260236233491273,nan,nan,nan,nan,nan,9.856013059616089,11.056013059616088,0.00542902946472168,0.37845141792297365,-0.35690283584594723,0.0,-5.0,0.7219073260783184,-0.02516634601011453,-0.05248993500981838,0.005123136742719056,nan,nan,nan,nan
19.956489086151123,0.35568875,-0.28355598,-5.3279524,-0.002755576735051949,nan,nan,nan,nan,nan,9.953946352005005,11.153946352005004,0.005500078201293945,0.36408786837259927,-0.32817573674519857,0.0,-5.0,0.7214044446983218,-0.05452757419912064,-0.0614415769769433,0.002515731090416743,nan,nan,nan,nan
20.0573947429657,0.34071246,-0.26901093,-5.332175,-0.0025903037303537865,nan,nan,nan,nan,nan,10.054774284362793,11.254774284362792,0.00558924674987793,0.3492997716267904,-0.2985995432535807,0.0,-5.0,0.7222392920374268,-0.05876075792853482,-0.05508815484870331,0.0036667909224249173,nan,nan,nan,nan
20.158275842666626,0.3209548,-0.24210149,-5.3390136,-0.0019757878277142545,nan,nan,nan,nan,nan,10.155644416809082,11.355644416809081,0.005423069000244141,0.33450548553466797,-0.2690109710693359,0.0,-5.0,0.7229252387015773,-0.06255706256556277,-0.04250094992654191,0.0020300881511423757,nan,nan,nan,nan
20.25356435775757,0.3040869,-0.2171582,-5.3447757,-0.001369603869949592,nan,nan,nan,nan,nan,10.250953435897827,11.450953435897826,0.010759830474853516,0.320526829401652,-0.241053658803304,0.0,-5.0,0.722704392583071,-0.0641955432946469,-0.029846191171976292,0.002930554473818911,nan,nan,nan,nan
20.36400055885315,0.2782561,-0.18460515,-5.3542857,-0.00014075814298329485,nan,nan,nan,nan,nan,10.361514329910278,11.561514329910278,0.005671501159667969,0.3043112316131592,-0.20862246322631833,0.0,-5.0,0.7215934561957915,-0.06886434105295322,-0.02815853090441465,0.00014678684043397262,nan,nan,nan,nan
20.45997452735901,0.2553795,-0.14430186,-5.3682637,-0.001361490886534109,nan,nan,nan,nan,nan,10.457355499267578,11.657355499267577,0.005658864974975586,0.29025452677408853,-0.18050905354817703,0.0,-5.0,0.7203179815739499,-0.05661797523446892,-0.01567389463830782,0.00033794211239021745,nan,nan,nan,nan
20.558374643325806,0.24512857,-0.11993232,-5.365334,-0.0027545896962356126,nan,nan,nan,nan,nan,10.555827856063843,11.755827856063842,0.005637645721435547,0.27581191444396974,-0.15162382888793943,0.0,-5.0,0.7215286751771572,-0.03390207052761147,0.004433508831370016,0.0032426347386260014,nan,nan,nan,nan
20.657116889953613,0.22741652,-0.07321401,-5.360054,-0.005290543455645274,nan,nan,nan,nan,nan,10.654559850692749,11.854559850692748,0.005232334136962891,0.2613312218983968,-0.12266244379679359,0.0,-5.0,0.7259778083807187,-0.019269634283546652,0.02333277048942034,0.005887633833613936,nan,nan,nan,nan
20.76973247528076,0.2157828,-0.03141263,-5.360372,-0.006860326979248203,nan,nan,nan,nan,nan,10.767142295837402,11.967142295837402,0.00698399543762207,0.24481912994384764,-0.08963825988769525,0.0,-5.0,0.7276176214557882,-0.014260741525406793,0.030862807585181132,0.009040388022127546,nan,nan,nan,nan
20.86993646621704,0.20898949,0.0017087494,-5.361048,-0.007508854495312384,nan,nan,nan,nan,nan,10.867361307144165,12.067361307144164,0.00741267204284668,0.23012034161885578,-0.06024068323771155,0.0,-5.0,0.727218629037686,-0.013369862388650422,0.03923210606465093,0.009716212183492626,nan,nan,nan,nan
20.970470190048218,0.19841541,0.046054866,-5.350582,-0.007629774006296858,nan,nan,nan,nan,nan,10.967844486236572,12.167844486236572,0.006987333297729492,0.2153828086853027,-0.030765617370605416,0.0,-5.0,0.7295518318510777,-0.026531784343119116,0.03174063114259454,0.011027473453585816,nan,nan,nan,nan
21.072688341140747,0.18934684,0.07460941,-5.3406234,-0.007030641691342367,nan,nan,nan,nan,nan,11.07006311416626,12.270063114166259,0.005921840667724609,0.20039074325561523,-0.0007814865112304227,0.0,-5.0,0.7321552277707469,-0.021725455444504927,0.026457355854966214,0.009591356992910543,nan,nan,nan,nan
21.1705105304718,0.17854457,0.1114901,-5.3261085,-0.006055793940409807,nan,nan,nan,nan,nan,11.167893648147583,12.367893648147582,0.006455421447753906,0.18604226493835446,0.027915470123291097,0.0,-5.0,0.735326656115115,-0.022978666816498097,0.007147087666505066,0.008420958967933987,nan,nan,nan,nan
21.26802945137024,0.17205584,0.13389242,-5.317826,-0.005542474403611399,nan,nan,nan,nan,nan,11.265516996383667,12.465516996383666,0.009375333786010742,0.17172417386372885,0.05655165227254236,0.0,-5.0,0.7363617652528429,-0.014137208456990822,0.003913360309311036,0.007202652111911418,nan,nan,nan,nan
21.368375539779663,0.15979256,0.16650736,-5.3096166,-0.004557475378317884,nan,nan,nan,nan,nan,11.36581015586853,12.56581015586853,0.008551836013793945,0.15701451047261555,0.08597097905476891,0.0,-5.0,0.7362869398380604,-0.015192167225103206,-0.00535880002547722,0.006029125668259997,nan,nan,nan,nan
21.472809553146362,0.1443181,0.18512087,-5.3100586,-0.003410931162237677,nan,nan,nan,nan,nan,11.470192670822144,12.670192670822143,0.005657196044921875,0.14170507494608559,0.11658985010782885,0.0,-5.0,0.734513545428705,-0.016464753174611862,-0.017589786147652595,0.004515636875763276,nan,nan,nan,nan
21.560100555419922,0.12505977,0.2073162,-5.309852,-0.0017492500030854043,nan,nan,nan,nan,nan,11.557475328445435,12.757475328445434,0.005151033401489258,0.12890361849466955,0.1421927630106609,0.0,-5.0,0.7319948173025452,-0.0236925411798848,-0.04345740424186459,0.001955254793123058,nan,nan,nan,nan
21.672141551971436,0.1001227,0.23316912,-5.305656,0.0005662868582821303,nan,nan,nan,nan,nan,11.669517993927002,12.869517993927001,0.006401777267456055,0.11247069422403966,0.1750586115519207,0.0,-5.0,0.731178468432426,-0.03592174956195254,-0.054615560827637175,-0.0007919854928428528,nan,nan,nan,nan
21.764312028884888,0.08330691,0.24925034,-5.299319,0.0021713895493181545,nan,nan,nan,nan,nan,11.761765003204346,12.961765003204345,0.005439043045043945,0.09894113286336262,0.20211773427327479,0.0,-5.0,0.7317662024355412,-0.04746797958694217,-0.0564799687922286,-0.0025545586263349598,nan,nan,nan,nan
21.85793709754944,0.061753187,0.26946262,-5.28711,0.00403497820822339,nan,nan,nan,nan,nan,11.855321407318115,13.055321407318115,0.005782604217529297,0.0852195269266764,0.2295609461466472,0.0,-5.0,0.73444124949511,-0.05419815429459303,-0.052272777525840225,-0.005496373236939715,nan,nan,nan,nan
21.95574712753296,0.043854713,0.28104925,-5.276849,0.004948354665663748,nan,nan,nan,nan,nan,11.953130006790161,13.15313000679016,0.0060498714447021484,0.07087426567077633,0.25825146865844734,0.0,-5.0,0.7362313801297937,-0.06075532643305089,-0.04639918498679323,-0.006754924217854618,nan,nan,nan,nan
22.068679332733154,0.021627996,0.29454753,-5.2717624,0.005548775326602785,nan,nan,nan,nan,nan,12.066139459609985,13.266139459609985,0.006909608840942383,0.05429954592386879,0.29140090815226244,0.0,-5.0,0.7369644203095084,-0.05605847332730885,-0.036005095776254915,-0.007762411517242756,nan,nan,nan,nan
22.164090633392334,0.004506185,0.30088013,-5.2732925,0.0056286912061839535,nan,nan,nan,nan,nan,12.161534309387207,13.361534309387206,0.005625009536743164,0.04030830128987626,0.3193833974202475,0.0,-5.0,0.7345314064547027,-0.039494972169456584,-0.023667529584797762,-0.007689414121800879,nan,nan,nan,nan
22.25859022140503,-0.006181817,0.301623,-5.275469,0.005434822571961668,nan,nan,nan,nan,nan,12.256016492843628,13.456016492843627,0.0053882598876953125,0.026450914382934523,0.347098171234131,0.0,-5.0,0.7326516639639465,-0.028522386612329236,-0.011331155600588635,-0.007330907670655299,nan,nan,nan,nan
22.35641837120056,-0.011339495,0.30117577,-5.2888865,0.004798787350204874,nan,nan,nan,nan,nan,12.353811264038086,13.553811264038085,0.005918979644775391,0.012107681274413995,0.375784637451172,0.0,-5.0,0.7283822949693415,0.004183298892949851,0.01717864823875066,-0.006893324269986997,nan,nan,nan,nan
22.471068620681763,-0.013992725,0.29526833,-5.298489,0.004391424817955816,nan,nan,nan,nan,nan,12.46848750114441,13.668487501144408,0.007435321807861328,0.0,0.3905769996643064,0.0,-5.0,0.7254185995773125,0.01722459352870986,0.04024944489302872,-0.006106096878170935,nan,nan,nan,nan
22.55591607093811,-0.011353503,0.28326428,-5.3057737,0.004237335780910619,nan,nan,nan,nan,nan,12.553372383117676,13.753372383117675,0.005517005920410156,0.0,0.36567743428548155,0.0,-5.0,0.7243287821648304,0.02520271282309849,0.05005784491927092,-0.006512201063887134,nan,nan,nan,nan
22.656415224075317,-0.006708909,0.26986408,-5.311321,0.003622805760708503,nan,nan,nan,nan,nan,12.653794765472412,13.853794765472411,0.005522251129150391,0.0,0.3362202021280922,0.0,-5.0,0.7237399770519132,0.03336289006142368,0.057383803271757294,-0.004276561078681528,nan,nan,nan,nan
22.753723859786987,0.0037638885,0.247925,-5.3175397,0.003158526161466852,nan,nan,nan,nan,nan,12.751116514205933,13.951116514205932,0.0071752071380615234,0.0,0.30767248916625956,0.0,-5.0,0.7234222616986203,0.049342332560120494,0.06294714948121954,-0.005680214280669314,nan,nan,nan,nan
22.872861862182617,0.013819573,0.21904178,-5.318937,0.0038084916827261506,nan,nan,nan,nan,nan,12.870276689529419,14.070276689529418,0.005921363830566406,0.0,0.2727188377380369,0.0,-5.0,0.7249513602475471,0.05145083113611857,0.05731360784885595,-0.006655030952535425,nan,nan,nan,nan
22.956969499588013,0.020729773,0.19700545,-5.319759,0.003947264601589636,nan,nan,nan,nan,nan,12.954456329345703,14.154456329345702,0.005660533905029297,0.0,0.24802614339192686,0.0,-5.0,0.7260203557511303,0.04751884006797091,0.04769728427981298,-0.006453126126204225,nan,nan,nan,nan
23.057988166809082,0.022640461,0.17138296,-5.320849,0.0037643156645799127,nan,nan,nan,nan,nan,13.055466413497925,14.255466413497924,0.005567789077758789,0.0,0.21839651870727517,0.0,-5.0,0.7273148345304074,0.03358286994952588,0.03322460857912915,-0.004914203284351364,nan,nan,nan,nan
23.157213926315308,0.020438999,0.12684253,-5.321151,0.002716922468583856,nan,nan,nan,nan,nan,13.154616355895996,14.354616355895995,0.0052907466888427734,0.0,0.1893125356038409,0.0,-5.0,0.7273661708312402,0.04658367739182833,-0.007039768671996782,-0.004996072350595503,nan,nan,nan,nan
23.269219160079956,0.01963304,0.09256214,-5.3183985,0.001787030018782461,nan,nan,nan,nan,nan,13.266626596450806,14.466626596450805,0.006513833999633789,0.0,0.15645619837443012,0.0,-5.0,0.7285007130699097,0.04065609989255436,-0.025769476833734394,-0.0031019615674667527,nan,nan,nan,nan
23.36180877685547,0.016008247,0.047338016,-5.327346,-0.0002907533058830311,nan,nan,nan,nan,nan,13.359188079833984,14.559188079833984,0.005274534225463867,0.0,0.12930482991536435,0.0,-5.0,0.7270889934738085,0.04792267822094311,-0.037205951716631366,5.686757836001133e-05,nan,nan,nan,nan
23.456335067749023,0.015885336,0.017848581,-5.3386765,-0.0012824687310077102,nan,nan,nan,nan,nan,13.453732013702393,14.653732013702392,0.006437540054321289,0.0,0.10157194264729795,0.0,-5.0,0.7253211067177116,0.03103283240790963,-0.03647642782323787,0.000989301365159694,nan,nan,nan,nan
23.569807529449463,0.011500982,-0.02302529,-5.3543496,-0.002129971516103621,nan,nan,nan,nan,nan,13.5672025680542,14.767202568054199,0.009592533111572266,0.0,0.06828724670410131,0.0,-5.0,0.72186148345813,0.012488786762252499,-0.024980952081379237,0.00233078302155903,nan,nan,nan,nan
23.655046939849854,0.005464018,-0.05154854,-5.363019,-0.0026848203653106833,nan,nan,nan,nan,nan,13.652491092681885,14.852491092681884,0.0073239803314208984,0.0,0.04326927947998023,0.0,-5.0,0.7202108644765928,0.00431118444203347,-0.02326467065593843,0.003132254030733688,nan,nan,nan,nan
23.769532918930054,-0.0067922166,-0.09350558,-5.371911,-0.004357615929508233,nan,nan,nan,nan,nan,13.766909837722778,14.966909837722778,0.006851911544799805,0.0,0.009706447601318093,0.0,-5.0,0.7202861638783594,0.0035750383720073923,-0.026006173747548725,0.005002178827198995,nan,nan,nan,nan
23.862250566482544,-0.010725474,-0.13328102,-5.3768697,-0.004956946879685075,nan,nan,nan,nan,nan,13.85962438583374,15.05962438583374,0.005360603332519531,0.0,-0.017489819844564016,0.0,-5.0,0.7215568001775288,0.019312952583196964,-0.015794519496588017,0.006793799848762012,nan,nan,nan,nan
23.96659517288208,-0.017171832,-0.16217816,-5.3741903,-0.0053091560259935396,nan,nan,nan,nan,nan,13.964319467544556,15.164319467544555,0.006344795227050781,0.0,-0.04820037714640329,0.0,-5.0,0.7238664257308389,0.029226027317944096,-0.0036953168127757743,0.00682738616171452,nan,nan,nan,nan
24.071027278900146,-0.02720306,-0.20627171,-5.364029,-0.00584145560267001,nan,nan,nan,nan,nan,14.068471670150757,15.268471670150756,0.007112979888916016,0.0,-0.07875168991088898,0.0,-5.0,0.7282882060807606,0.04856290092316706,0.004265725203015749,0.007798022111122072,nan,nan,nan,nan
24.170973777770996,-0.03539706,-0.2337139,-5.3550878,-0.006057912343010495,nan,nan,nan,nan,nan,14.168484926223755,15.368484926223754,0.0070073604583740234,0.0,-0.10808891169230171,0.0,-5.0,0.7314283101694294,0.05507604339194365,0.008297985988159328,0.008110004493815558,nan,nan,nan,nan
24.27290391921997,-0.041762106,-0.25247878,-5.3475246,-0.006007276011995773,nan,nan,nan,nan,nan,14.27036166191101,15.47036166191101,0.006105184555053711,0.0,-0.1379727541605634,0.0,-5.0,0.732904279098776,0.04892435993252795,0.011326160762301068,0.008088586442794941,nan,nan,nan,nan
24.369908571243286,-0.055124387,-0.27018276,-5.3412323,-0.006065644870013133,nan,nan,nan,nan,nan,14.367351055145264,15.567351055145263,0.007298469543457031,0.0,-0.1664229761759443,0.0,-5.0,0.7337474987440391,0.028757200916051336,0.006387963828328534,0.008446650537695263,nan,nan,nan,nan
24.466248273849487,-0.06055496,-0.27946758,-5.337649,-0.005739529070553664,nan,nan,nan,nan,nan,14.463759422302246,15.663759422302245,0.005255699157714844,0.0,-0.19470276387532578,0.0,-5.0,0.7337101300409619,0.018361983163785726,0.008539075345880411,0.007912074391862622,nan,nan,nan,nan
24.565489530563354,-0.06556416,-0.28778696,-5.3309,-0.004725859643625685,nan,nan,nan,nan,nan,14.563020706176758,15.763020706176757,0.007057666778564453,0.0,-0.2238194071451826,0.0,-5.0,0.7335101659453158,-0.00018500032594112906,0.015543878250755422,0.0072631255141589355,nan,nan,nan,nan
24.671908140182495,-0.06798902,-0.29023707,-5.3259354,-0.003924583785253474,nan,nan,nan,nan,nan,14.669376850128174,15.869376850128173,0.00951528549194336,0.0,-0.25501720937093125,0.0,-5.0,0.7336942990600033,0.0037672953206650656,0.0297311362120815,0.0053844327063052285,nan,nan,nan,nan
24.75600528717041,-0.07131263,-0.29046056,-5.321845,-0.003142057038559666,nan,nan,nan,nan,nan,14.753493070602417,15.953493070602416,0.006131649017333984,0.0,-0.2796913007100426,0.0,-5.0,0.7336184278063196,0.0031113531193261317,0.03506126060828963,0.004086429855313956,nan,nan,nan,nan
24.861382961273193,-0.07686489,-0.28980634,-5.3205295,-0.0019658210459216306,nan,nan,nan,nan,nan,14.858784198760986,16.058784198760986,0.005288839340209961,0.0,-0.31057669830322293,0.0,-5.0,0.7326987121009172,0.004500546842052691,0.03163116874998602,0.0033401453070152033,nan,nan,nan,nan
24.95950961112976,-0.07913551,-0.28560013,-5.322106,-0.0009719546628804837,nan,nan,nan,nan,nan,14.956950664520264,16.156950664520263,0.005568742752075195,0.0,-0.3393721949259443,0.0,-5.0,0.7318363431153947,0.017049380871803275,0.03202884958283035,0.0015940200413767497,nan,nan,nan,nan
25.072285652160645,-0.084441684,-0.27307892,-5.3270383,0.0013219771901155277,nan,nan,nan,nan,nan,15.06966757774353,16.26966757774353,0.008784770965576172,0.0,-0.37243582280476917,0.0,-5.0,0.729507119900224,0.002510947089757208,0.019871831529533396,-0.0006636348276780003,nan,nan,nan,nan
25.17020845413208,-0.08894202,-0.26324856,-5.331374,0.0024684634699219457,nan,nan,nan,nan,nan,15.167665243148804,16.367665243148803,0.006579875946044922,-0.0005909023284911542,-0.3988181953430177,0.0,-5.0,0.7283553175868546,0.0019189185714392795,0.015554750755146127,-0.0031894117119631513,nan,nan,nan,nan
25.265526056289673,-0.09558678,-0.2495586,-5.3381286,0.0033674545286064925,nan,nan,nan,nan,nan,15.263040781021118,16.463040781021117,0.005572319030761719,-0.014579314549763942,-0.37084137090047214,0.0,-5.0,0.7262829080641778,-0.012471723952616857,0.002037549098912297,-0.004259758056991945,nan,nan,nan,nan
25.36341691017151,-0.101428464,-0.23308046,-5.3429894,0.004386909391904281,nan,nan,nan,nan,nan,15.360803365707397,16.560803365707397,0.005204439163208008,-0.028917826970418243,-0.3421643460591635,0.0,-5.0,0.7256734311112963,-0.0068819466961256865,0.002716590477927489,-0.006018553099231599,nan,nan,nan,nan
25.45837903022766,-0.112873785,-0.20511661,-5.351616,0.00530868753928576,nan,nan,nan,nan,nan,15.455773115158081,16.65577311515808,0.0058329105377197266,-0.0428467235565185,-0.314306552886963,0.0,-5.0,0.7247032829194939,-0.034465243492549744,-0.011739798912217865,-0.006920217332134936,nan,nan,nan,nan
25.55641508102417,-0.12449678,-0.18318413,-5.357248,0.005669332687670328,nan,nan,nan,nan,nan,15.553795337677002,16.753795337677,0.0067751407623291016,-0.05722331619262691,-0.2855533676147462,0.0,-5.0,0.7238151266610906,-0.03580762542279542,-0.012720376027768012,-0.008546581109167402,nan,nan,nan,nan
25.671895742416382,-0.14602074,-0.15261117,-5.3600593,0.006109340203693557,nan,nan,nan,nan,nan,15.669333934783936,16.869333934783935,0.007812976837158203,-0.07416897710164383,-0.25166204579671236,0.0,-5.0,0.7240960013291007,-0.04076722131279071,-0.03146429330923021,-0.009387392106722452,nan,nan,nan,nan
25.767601490020752,-0.16937988,-0.11591775,-5.3541636,0.0073979172664530345,nan,nan,nan,nan,nan,15.765132904052734,16.965132904052734,0.006293296813964844,-0.088219492594401,-0.22356101481119803,0.0,-5.0,0.7269534348945864,-0.04292099221454253,-0.04259486655898043,-0.010525901522475933,nan,nan,nan,nan
25.867783069610596,-0.18637966,-0.09237985,-5.348954,0.008232818817498972,nan,nan,nan,nan,nan,15.865290403366089,17.065290403366088,0.006032228469848633,-0.10290925916035965,-0.19418148167928073,0.0,-5.0,0.7293227373112664,-0.026747051668550684,-0.039365719518088975,-0.012024179067495661,nan,nan,nan,nan
25.961782455444336,-0.21276823,-0.05842132,-5.342045,0.008980881992606958,nan,nan,nan,nan,nan,15.95918083190918,17.15918083190918,0.005517721176147461,-0.11667985534667964,-0.16664028930664074,0.0,-5.0,0.7318235991512684,-0.016487501812601082,-0.039022612297924794,-0.013782815563650233,nan,nan,nan,nan
26.06014108657837,-0.2319982,-0.033742677,-5.3374124,0.009109079772929737,nan,nan,nan,nan,nan,16.05753183364868,17.25753183364868,0.005535602569580078,-0.13110466893513992,-0.13779066212972016,0.0,-5.0,0.7329019591055976,0.005397283587040268,-0.029504605676882435,-0.014007807612131783,nan,nan,nan,nan
26.1578471660614,-0.26068088,0.004620312,-5.33285,0.009073551674988483,nan,nan,nan,nan,nan,16.155269622802734,17.355269622802734,0.005585432052612305,-0.14543954467773432,-0.10912091064453136,0.0,-5.0,0.7334063029003672,0.003809977111919185,-0.024859791541526316,-0.014519593862111803,nan,nan,nan,nan
26.26037836074829,-0.27893308,0.03081226,-5.3321495,0.009115594185560216,nan,nan,nan,nan,nan,16.257772207260132,17.45777220726013,0.00552821159362793,-0.1604732570648193,-0.07905348587036141,0.0,-5.0,0.7326986826478034,0.009429437718370856,-0.014659915762512393,-0.014483456811117942,nan,nan,nan,nan
26.356560230255127,-0.29339105,0.06147666,-5.33051,0.008724623150177385,nan,nan,nan,nan,nan,16.354004859924316,17.554004859924316,0.009661436080932617,-0.17458737945556638,-0.05082524108886726,0.0,-5.0,0.7319043429700774,-0.009214588044752664,-0.0026704626430669614,-0.013756328085757438,nan,nan,nan,nan
26.455259561538696,-0.30470333,0.10455269,-5.3300233,0.00750641061234531,nan,nan,nan,nan,nan,16.452635049819946,17.652635049819946,0.007752180099487305,-0.18905314064025877,-0.021893718719482494,0.0,-5.0,0.7315634987874122,-0.02271560000343386,0.01779403862675961,-0.012325634816630337,nan,nan,nan,nan
26.571313858032227,-0.31351355,0.14807512,-5.3329716,0.006262357123510581,nan,nan,nan,nan,nan,16.568689107894897,17.768689107894897,0.00657343864440918,-0.20607440249125158,0.012148804982503147,0.0,-5.0,0.7299111208259336,-0.04432413969913794,0.041569081182732226,-0.009624108082031313,nan,nan,nan,nan
26.67085075378418,-0.32083,0.17588255,-5.3347263,0.0056479592600933905,nan,nan,nan,nan,nan,16.66834568977356,17.86834568977356,0.006901979446411133,-0.22069070116678868,0.04138140233357737,0.0,-5.0,0.7288258758880223,-0.052327087836714796,0.042157004720056415,-0.010796605819434452,nan,nan,nan,nan
26.77062177658081,-0.32670727,0.20778517,-5.338104,0.004274822540959769,nan,nan,nan,nan,nan,16.768004179000854,17.968004179000854,0.0058743953704833984,-0.23530727958679198,0.07061455917358393,0.0,-5.0,0.7277329304088013,-0.054088065348083796,0.031862479121003394,-0.007791072058101107,nan,nan,nan,nan
26.871224880218506,-0.33514935,0.23913313,-5.3407116,0.0035353318602864715,nan,nan,nan,nan,nan,16.868630409240723,18.068630409240722,0.007005929946899414,-0.250065793355306,0.10013158671061194,0.0,-5.0,0.7274197840426799,-0.04877033665258054,0.018381727880686396,-0.0062762182086898155,nan,nan,nan,nan
26.970876693725586,-0.34588835,0.26300487,-5.3387704,0.002875912782203031,nan,nan,nan,nan,nan,16.968268632888794,18.168268632888793,0.005759000778198242,-0.2646793994903564,0.12935879898071284,0.0,-5.0,0.7279025355430698,-0.04586485671401606,0.006922597019219852,-0.006780056181993405,nan,nan,nan,nan
27.064825773239136,-0.35529783,0.28024262,-5.3376646,0.002259802822393988,nan,nan,nan,nan,nan,17.062209367752075,18.262209367752074,0.0054285526275634766,-0.278457373936971,0.156914747873942,0.0,-5.0,0.7294198490577314,-0.03948437546087216,-0.01313262789210813,-0.005668184239137807,nan,nan,nan,nan
27.170074224472046,-0.37174472,0.29993537,-5.3411226,0.001615150976407147,nan,nan,nan,nan,nan,17.167523860931396,18.367523860931396,0.006021976470947266,-0.29390349960327145,0.1878069992065429,0.0,-5.0,0.7286722056991598,-0.029093622201373053,-0.028105038768176313,-0.0035255332864708557,nan,nan,nan,nan
27.26866579055786,-0.38991505,0.3066828,-5.3421884,0.001315999449289014,nan,nan,nan,nan,nan,17.266180992126465,18.466180992126464,0.006099224090576172,-0.3083732121785482,0.21674642435709635,0.0,-5.0,0.7281893584878637,-0.02259355810027989,-0.04406752482957069,-0.003858581975187519,nan,nan,nan,nan
27.36656379699707,-0.420402,0.3142501,-5.3461018,0.0010102355187159157,nan,nan,nan,nan,nan,17.363985061645508,18.563985061645507,0.0062215328216552734,-0.3227178090413412,0.24543561808268227,0.0,-5.0,0.727663786661423,-0.0058340195669946545,-0.06538316776973804,-0.0022155108823459285,nan,nan,nan,nan
27.452587366104126,-0.44018513,0.3175914,-5.3483644,0.0006373878602899258,nan,nan,nan,nan,nan,17.450445890426636,18.650445890426635,0.007073402404785156,-0.3353987305959065,0.2707974611918131,0.0,-5.0,0.7275549896178422,-0.0061651492950894555,-0.07136747384605611,-0.0015064473668908317,nan,nan,nan,nan
27.56698727607727,-0.46016923,0.3183075,-5.3506703,0.0003262140100317376,nan,nan,nan,nan,nan,17.564409017562866,18.764409017562866,0.0060846805572509766,-0.352113322575887,0.30422664515177406,0.0,-5.0,0.7277443227841298,-0.013417144270350947,-0.06484449896648019,-0.0009361721868915971,nan,nan,nan,nan
27.66923236846924,-0.4849834,0.30869997,-5.35731,0.00025010570097696097,nan,nan,nan,nan,nan,17.66667628288269,18.86667628288269,0.0052700042724609375,-0.3671125214894613,0.33422504297892247,0.0,-5.0,0.7265014978179147,0.0030584627560896445,-0.0468713112214521,0.0002571898940864848,nan,nan,nan,nan
27.757962942123413,-0.49710965,0.29844555,-5.3576365,0.0005698337050179317,nan,nan,nan,nan,nan,17.75540041923523,18.95540041923523,0.006417989730834961,-0.380125394821167,0.3602507896423339,0.0,-5.0,0.7268840975900942,0.005915526364390617,-0.028244018233555084,-0.00015931392183879056,nan,nan,nan,nan
27.856481075286865,-0.5010845,0.28758436,-5.359885,0.0009477338125887767,nan,nan,nan,nan,nan,17.85388946533203,19.05388946533203,0.006272554397583008,-0.3945704549153646,0.3891409098307292,0.0,-5.0,0.7275175100328223,0.02167606938267878,0.011910639535054793,-0.0004740861946298281,nan,nan,nan,nan
27.95594549179077,-0.49924308,0.27862814,-5.364318,0.0010123722280147608,nan,nan,nan,nan,nan,17.953397274017334,19.153397274017333,0.006639242172241211,-0.4,0.3816701329549153,0.0,-5.0,0.7276123427791665,0.009253092657473257,0.04324700418209231,0.0005622245655286795,nan,nan,nan,nan
28.06755518913269,-0.4937947,0.26360288,-5.372424,0.0008229029144055967,nan,nan,nan,nan,nan,18.064976453781128,19.264976453781127,0.005364418029785156,-0.4,0.3489402402242024,0.0,-5.0,0.7248510951916731,0.002535546850763354,0.070208335244676,0.0009818361326497777,nan,nan,nan,nan
28.163870334625244,-0.48153967,0.23961934,-5.372042,0.00033429282782074937,nan,nan,nan,nan,nan,18.161250829696655,19.361250829696655,0.0053861141204833984,-0.4,0.32069975662231437,0.0,-5.0,0.72533688906674,0.014767779559665312,0.08058079106261845,-0.0017984261875945969,nan,nan,nan,nan
28.271817684173584,-0.47367132,0.22219679,-5.373576,0.00010934086293605018,nan,nan,nan,nan,nan,18.26927947998047,19.469279479980468,0.007420778274536133,-0.4,0.2890113525390624,0.0,-5.0,0.7261807416424262,0.01891660658131381,0.07603129560787446,0.0022968562449377163,nan,nan,nan,nan
28.358073949813843,-0.46192774,0.19500345,-5.3720093,-0.0003130104188357411,nan,nan,nan,nan,nan,18.35548186302185,19.55548186302185,0.007300138473510742,-0.4,0.2637253201802571,0.0,-5.0,0.7271415853950655,0.02466611792593121,0.06522962374456652,0.0025631097844373845,nan,nan,nan,nan
28.47079610824585,-0.45081162,0.15484396,-5.368432,-0.00045215164388958014,nan,nan,nan,nan,nan,18.468299388885498,19.668299388885497,0.00579524040222168,-0.4,0.2306321792602538,0.0,-5.0,0.7290553045213255,0.04748436477114503,0.04301058597516209,0.0009521369296597258,nan,nan,nan,nan
28.572724103927612,-0.44785646,0.12930965,-5.366266,-0.0005742681158602218,nan,nan,nan,nan,nan,18.57028603553772,19.77028603553772,0.006605625152587891,-0.4,0.2007160962422688,0.0,-5.0,0.7296034623649408,0.042371830953808844,0.01870317507539064,0.002907289652661855,nan,nan,nan,nan
28.670223712921143,-0.44262147,0.08820762,-5.361327,-0.001064209043826367,nan,nan,nan,nan,nan,18.667638540267944,19.867638540267944,0.005415916442871094,-0.4,0.1721593615214029,0.0,-5.0,0.7303861611216601,0.045365790279498476,-0.010084256213866017,0.0015127333076475728,nan,nan,nan,nan
28.761463165283203,-0.43738183,0.06792971,-5.355046,-0.0008427347347001856,nan,nan,nan,nan,nan,18.758862733840942,19.95886273384094,0.006059169769287109,-0.4,0.14540026473999013,0.0,-5.0,0.7316862378302478,0.02559929537869994,-0.016631053391391343,0.003651059085886336,nan,nan,nan,nan
28.855354070663452,-0.43162346,0.03908228,-5.3514132,3.128734250442246e-05,nan,nan,nan,nan,nan,18.852753400802612,20.05275340080261,0.00617527961730957,-0.4,0.11785900243123365,0.0,-5.0,0.7330872541742313,0.004340966762772518,-0.01634388523283245,0.0025972627246173196,nan,nan,nan,nan
28.969985008239746,-0.42706555,0.006038332,-5.348259,0.0012516450869168587,nan,nan,nan,nan,nan,18.96745467185974,20.16745467185974,0.004922628402709961,-0.4,0.08421329625447581,0.0,-5.0,0.7321578721827366,-0.01733396992004099,-0.013822146113896235,0.0009352186180791639,nan,nan,nan,nan
29.065277814865112,-0.42540517,-0.013958671,-5.344663,0.0018137262247223227,nan,nan,nan,nan,nan,19.06266188621521,20.26266188621521,0.005640268325805664,-0.4,0.05628584671020498,0.0,-5.0,0.732268028228961,-0.02504364705666012,-0.01293171464374525,0.000604291101514486,nan,nan,nan,nan
29.162015676498413,-0.42726037,-0.04640205,-5.3435035,0.0020979119577468302,nan,nan,nan,nan,nan,19.15939688682556,20.35939688682556,0.005698680877685547,-0.4,0.027910246531168515,0.0,-5.0,0.7317965980358896,-0.007064936923587735,-0.01662465113480234,-1.9741396664324962e-05,nan,nan,nan,nan
29.257404088974,-0.42684472,-0.070594534,-5.343814,0.0025631733895288807,nan,nan,nan,nan,nan,19.25480031967163,20.45480031967163,0.007401704788208008,-0.4,-7.476043701180047e-05,0.0,-5.0,0.7311987643435519,0.0043659279010258715,-0.01683626436557109,-0.00043083850500155903,nan,nan,nan,nan
29.35293459892273,-0.42732644,-0.0912055,-5.346185,0.0030191272951005364,nan,nan,nan,nan,nan,19.350374221801758,20.550374221801757,0.007882118225097656,-0.4,-0.028109771728515743,0.0,-5.0,0.730991788735576,0.012788206175487038,-0.013440400742722323,-0.001080370540182565,nan,nan,nan,nan
29.458763360977173,-0.43285105,-0.121457025,-5.3504996,0.0035712647647735034,nan,nan,nan,nan,nan,19.45615839958191,20.65615839958191,0.006791591644287109,-0.4,-0.05913979721069351,0.0,-5.0,0.7284089994484964,0.0371968494972674,-0.010339986294131208,-0.0026724750128760077,nan,nan,nan,nan
29.55543065071106,-0.44275856,-0.13970098,-5.350157,0.0033209743610073854,nan,nan,nan,nan,nan,19.552837371826172,20.75283737182617,0.006623744964599609,-0.4,-0.08749896240234385,0.0,-5.0,0.728228906315702,0.038897502113806874,-0.023612869111821314,-0.002332477426479921,nan,nan,nan,nan
29.670735597610474,-0.45727715,-0.16355847,-5.3481464,0.002743892926532863,nan,nan,nan,nan,nan,19.668273210525513,20.868273210525512,0.005391359329223633,-0.4,-0.12136014175415051,0.0,-5.0,0.7290047750359896,0.043889563091914906,-0.04147215083685338,-0.0018779974078418863,nan,nan,nan,nan
29.76375913619995,-0.4676466,-0.18813775,-5.3504395,0.002782385546445262,nan,nan,nan,nan,nan,19.761156797409058,20.961156797409057,0.005944728851318359,-0.4,-0.14860599390665705,0.0,-5.0,0.728985826814293,0.04682704597747688,-0.038827744489287316,-0.0012487781323090772,nan,nan,nan,nan
29.85855484008789,-0.4741889,-0.20540284,-5.3509607,0.0031449422341434424,nan,nan,nan,nan,nan,19.8559410572052,21.0559410572052,0.0075244903564453125,-0.4,-0.17640937678019217,0.0,-5.0,0.7287092580861144,0.054716962683854016,-0.0283904781138085,-0.0024980166394446995,nan,nan,nan,nan
29.955078601837158,-0.4812605,-0.22733793,-5.3513904,0.003628618933427089,nan,nan,nan,nan,nan,19.95252537727356,21.15252537727356,0.0061092376708984375,-0.4,-0.20474077733357757,0.0,-5.0,0.7294610764221656,0.05771813289851397,-0.010578584563155809,-0.002954183922734466,nan,nan,nan,nan
30.06774878501892,-0.48409012,-0.24375217,-5.3540716,0.004230470396768261,nan,nan,nan,nan,nan,20.065138578414917,21.265138578414916,0.005266427993774414,-0.4,-0.23777398300170915,0.0,-5.0,0.7282726388674128,0.0547176867106682,0.00814649861883,-0.004133788936396561,nan,nan,nan,nan
30.164631605148315,-0.48230255,-0.25298935,-5.35361,0.004668037314315724,nan,nan,nan,nan,nan,20.162020206451416,21.362020206451415,0.00538325309753418,-0.4,-0.26619259389241545,0.0,-5.0,0.7283054325116118,0.061037327227401364,0.01940125536927559,-0.006069046606953174,nan,nan,nan,nan
30.26508355140686,-0.476223,-0.26829976,-5.3586063,0.00519524606349573,nan,nan,nan,nan,nan,20.262476444244385,21.462476444244384,0.0052111148834228516,-0.4,-0.295659756978353,0.0,-5.0,0.728073403791218,0.03984240967434882,0.03700370117160659,-0.0056996970601863655,nan,nan,nan,nan
30.36020016670227,-0.4711368,-0.2764513,-5.363572,0.005352124294087681,nan,nan,nan,nan,nan,20.35761022567749,21.55761022567749,0.0072116851806640625,-0.4,-0.3235656661987307,0.0,-5.0,0.7276581414861734,0.04745232295202236,0.041701163939277114,-0.008047937915208643,nan,nan,nan,nan
30.465904474258423,-0.46411398,-0.28114146,-5.372015,0.005020300682619015,nan,nan,nan,nan,nan,20.463292837142944,21.663292837142944,0.0054891109466552734,-0.4,-0.35456589889526385,0.0,-5.0,0.72617236910796,0.027582482206820216,0.04105632622564049,-0.006471677753415384,nan,nan,nan,nan
