time,x,y,z,yaw,platform,trajectory,traj_double,traj_short,traj_spin,traj_time,ref_time,comptime,x_ref,y_ref,yaw_ref,z_ref,throttle_input,p_input,q_input,r_input,cbf_term_pitch_cbf,cbf_term_roll_cbf,cbf_term_thrust_cbf,cbf_term_yaw_cbf
10.05789041519165,-0.013272206,0.009977071,-3.045666,-8.76689268338312e-05,SIM,FIG8_HORIZONTAL,NormSpd,Not Short,NoSpin,0.049597978591918945,1.249597978591919,0.006483316421508789,nan,nan,nan,nan,0.7213978850146662,0.13790066179027605,0.12272545733170616,0.00035801736127080567,nan,nan,nan,nan
10.155290603637695,-0.008610003,-0.0007736733,-3.0532618,-0.00016913551434377802,nan,nan,nan,nan,nan,0.1469733715057373,1.3469733715057373,0.007700443267822266,nan,nan,nan,nan,0.721279853442681,0.12709009678978989,0.12840588792361457,0.00016287346226034901,nan,nan,nan,nan
10.276041507720947,-0.00828557,-0.008220898,-3.0625408,0.0005678160930603473,nan,nan,nan,nan,nan,0.2682662010192871,1.468266201019287,0.005480766296386719,nan,nan,nan,nan,0.7216022631337734,0.07996158511541217,0.08757050512127547,-0.00014860292891168166,nan,nan,nan,nan
10.36817979812622,-0.0062830104,-0.012997518,-3.0678642,0.001014864959340344,nan,nan,nan,nan,nan,0.3598783016204834,1.5598783016204834,0.0055582523345947266,nan,nan,nan,nan,0.7220185217701596,0.04069798799258744,0.050519557669374084,-0.00044799887635777965,nan,nan,nan,nan
10.460407733917236,-0.005850069,-0.015336516,-3.0747938,0.0005987078027427616,nan,nan,nan,nan,nan,0.4523017406463623,1.6523017406463623,0.005921602249145508,nan,nan,nan,nan,0.7226012341665496,-0.012636468369997853,-0.002464739655821334,-0.00036487123438180304,nan,nan,nan,nan
10.573243618011475,-0.0139299445,-0.009631912,-3.0813744,-0.0008700686706936672,nan,nan,nan,nan,nan,0.5649318695068359,1.764931869506836,0.005044221878051758,nan,nan,nan,nan,0.7230370586456425,-0.05969615231434711,-0.05137982946509642,0.0003089405294479209,nan,nan,nan,nan
10.669315576553345,-0.0224222,-0.0065006213,-3.086363,-0.002206174557157426,nan,nan,nan,nan,nan,0.6609904766082764,1.8609904766082763,0.006228923797607422,nan,nan,nan,nan,0.7232122793460529,-0.08133735909516579,-0.08306877942994478,0.0012458986364853246,nan,nan,nan,nan
10.764830827713013,-0.036163796,0.0001498368,-3.094339,-0.00427991593948767,nan,nan,nan,nan,nan,0.7567265033721924,1.9567265033721923,0.006769895553588867,nan,nan,nan,nan,0.723458452437151,-0.09010662083026307,-0.10449485072426756,0.0024338433505425544,nan,nan,nan,nan
10.862931728363037,-0.050194073,0.0070968573,-3.098182,-0.004664280779373604,nan,nan,nan,nan,nan,0.8546450138092041,2.0546450138092043,0.0063288211822509766,nan,nan,nan,nan,0.7237237555831046,-0.09383690887200803,-0.11871844272233643,0.002858983077133438,nan,nan,nan,nan
10.971550941467285,-0.07382516,0.018862149,-3.1003091,-0.004232943279700175,nan,nan,nan,nan,nan,0.9632251262664795,2.1632251262664797,0.005217552185058594,nan,nan,nan,nan,0.7240925504142882,-0.08570422599379819,-0.1251040374841652,0.002716006578297436,nan,nan,nan,nan
11.06379771232605,-0.09940438,0.031760782,-3.0986786,-0.002819344880298574,nan,nan,nan,nan,nan,1.0554790496826172,2.2554790496826174,0.0064067840576171875,nan,nan,nan,nan,0.7245490846813724,-0.07433296730501694,-0.1211890402531239,0.0020022961390557237,nan,nan,nan,nan
11.17337703704834,-0.12295172,0.04390928,-3.0953882,-0.001041512277237689,nan,nan,nan,nan,nan,1.1650495529174805,2.3650495529174806,0.004982709884643555,nan,nan,nan,nan,0.725189629863001,-0.056676060823287355,-0.10425267477389376,0.0009490442438316231,nan,nan,nan,nan
11.263766765594482,-0.13399306,0.049832527,-3.0937366,-0.0007038782974056416,nan,nan,nan,nan,nan,1.25545334815979,2.45545334815979,0.006616830825805664,nan,nan,nan,nan,0.7256328650367787,-0.048228452443029694,-0.09306254510655214,0.0004747143230124475,nan,nan,nan,nan
11.373188972473145,-0.14251706,0.056012258,-3.0904171,-0.0011499664392466136,nan,nan,nan,nan,nan,1.3648595809936523,2.5648595809936525,0.005524396896362305,nan,nan,nan,nan,0.7262264444628829,-0.022869727843869345,-0.04901768989508465,0.0008894762354789422,nan,nan,nan,nan
11.46394419670105,-0.14153558,0.056760345,-3.086937,-0.0013783907241707131,nan,nan,nan,nan,nan,1.4556450843811035,2.6556450843811037,0.0060274600982666016,nan,nan,nan,nan,0.7265549885431032,-0.009623899900067567,-0.020568693725483374,0.0013606057860344873,nan,nan,nan,nan
11.569950580596924,-0.1348839,0.053058125,-3.0781846,-0.0009879419514632788,nan,nan,nan,nan,nan,1.5616369247436523,2.7616369247436525,0.010425567626953125,nan,nan,nan,nan,0.7270727739171149,0.00887331427455156,0.01971116031228897,0.00149126983909539,nan,nan,nan,nan
11.647931575775146,-0.12859985,0.04748747,-3.0699978,-0.0005809877761266645,nan,nan,nan,nan,nan,1.6396617889404297,2.83966178894043,0.005296230316162109,nan,nan,nan,nan,0.7275382551959235,0.02084021488765863,0.04644487105054895,0.0012602260654721786,nan,nan,nan,nan
11.773806810379028,-0.10532423,0.037706226,-3.0547419,-0.00018502649019076778,nan,nan,nan,nan,nan,1.7654855251312256,2.9654855251312258,0.005240201950073242,nan,nan,nan,nan,0.7282944721973288,0.03562006576373027,0.08365129823186682,0.0010404488666453774,nan,nan,nan,nan
11.865158319473267,-0.08572334,0.031300247,-3.0449753,0.0005691936502374931,nan,nan,nan,nan,nan,1.8568685054779053,3.0568685054779055,0.007712364196777344,nan,nan,nan,nan,0.7287438808550775,0.03610901922779454,0.10186573299136348,0.000821942915420448,nan,nan,nan,nan
11.974203824996948,-0.047763243,0.01845765,-3.028671,0.0012115535727820915,nan,nan,nan,nan,nan,1.9658732414245605,3.1658732414245607,0.0051839351654052734,nan,nan,nan,nan,0.729332750439312,0.03629464491089713,0.12566576341010813,0.00016983406918975194,nan,nan,nan,nan
12.073639154434204,-0.002872684,0.0011908426,-3.019035,0.0012437405696017218,nan,nan,nan,nan,nan,2.065356492996216,3.265356492996216,0.005434513092041016,nan,nan,nan,nan,0.7296141725974218,0.038020972208327855,0.13437612861218898,-5.738466608701251e-05,nan,nan,nan,nan
12.165358781814575,0.025761034,-0.00852765,-3.0147827,0.002113341150588791,nan,nan,nan,nan,nan,2.157041072845459,3.357041072845459,0.006651401519775391,nan,nan,nan,nan,0.7297071213404184,0.036051884332884365,0.1438585420354463,-2.9845331707622527e-05,nan,nan,nan,nan
12.273033857345581,0.0796697,-0.029029291,-3.0120418,0.003653767121706175,nan,nan,nan,nan,nan,2.2647101879119873,3.4647101879119875,0.005329132080078125,nan,nan,nan,nan,0.7297864767038593,0.035129081503082166,0.14707666738359998,-0.0009150445767152053,nan,nan,nan,nan
12.36313772201538,0.11994223,-0.045047328,-3.013095,0.004521998266515335,nan,nan,nan,nan,nan,2.3548734188079834,3.5548734188079836,0.005500316619873047,nan,nan,nan,nan,0.7296024824144762,0.036875426484362775,0.13940159434414448,-0.0019066264439952093,nan,nan,nan,nan
12.470660924911499,0.17503184,-0.06649826,-3.01666,0.005956153763737708,nan,nan,nan,nan,nan,2.4623353481292725,3.6623353481292726,0.006015300750732422,nan,nan,nan,nan,0.7292908849403258,0.036346971024427355,0.13729033661868384,-0.0023061964530784094,nan,nan,nan,nan
12.568378925323486,0.21706934,-0.08028147,-3.019087,0.009935700687986574,nan,nan,nan,nan,nan,2.5600502490997314,3.7600502490997316,0.0071642398834228516,nan,nan,nan,nan,0.7290328311032787,0.027897357667715193,0.10947047534518642,-0.0043953779901044895,nan,nan,nan,nan
12.678237199783325,0.23684116,-0.09428113,-3.0130022,0.010222536111208217,nan,nan,nan,nan,nan,2.6700618267059326,3.870061826705933,0.004951953887939453,nan,nan,nan,nan,0.729101780466685,0.022107860299148147,0.08247462615605565,-0.005203391809875213,nan,nan,nan,nan
12.771976470947266,0.2485787,-0.108180985,-3.0036032,0.009485563280480567,nan,nan,nan,nan,nan,2.763667583465576,3.9636675834655763,0.00592803955078125,nan,nan,nan,nan,0.7293180726499391,0.01550516976100383,0.024682618566838836,-0.0050743552965576,nan,nan,nan,nan
12.86648964881897,0.25160715,-0.116840735,-2.9969838,0.00928478901740721,nan,nan,nan,nan,nan,2.858168363571167,4.058168363571167,0.008081674575805664,nan,nan,nan,nan,0.7295578611026987,0.013135580428373256,9.969413507634118e-05,-0.004450632071662282,nan,nan,nan,nan
12.975646734237671,0.24972862,-0.130397,-2.9871771,0.00870761144374747,nan,nan,nan,nan,nan,2.9673354625701904,4.167335462570191,0.005019187927246094,nan,nan,nan,nan,0.7297449668037106,0.011841074039270393,-0.03197398293148309,-0.004170416533642397,nan,nan,nan,nan
13.06334400177002,0.2338664,-0.13958357,-2.979425,0.005772694929406482,nan,nan,nan,nan,nan,3.055037021636963,4.255037021636963,0.00545811653137207,nan,nan,nan,nan,0.7298406134080875,0.007540617974936395,-0.06848905584734277,-0.0031771329387149673,nan,nan,nan,nan
13.174463987350464,0.20124109,-0.14720762,-2.9733384,0.002245379116099259,nan,nan,nan,nan,nan,3.16614031791687,4.36614031791687,0.005067348480224609,nan,nan,nan,nan,0.7298795757988801,0.004101022360160755,-0.1015265967662094,-0.0009414702410059639,nan,nan,nan,nan
13.265995264053345,0.1700149,-0.15280762,-2.966778,0.0008358207047665968,nan,nan,nan,nan,nan,3.2577133178710938,4.457713317871094,0.0059871673583984375,nan,nan,nan,nan,0.7299410002872062,0.0034393919675825206,-0.12031077544178777,0.0003786067295111911,nan,nan,nan,nan
13.361297845840454,0.13657914,-0.16086473,-2.9567,0.0025805173007571016,nan,nan,nan,nan,nan,3.353071451187134,4.553071451187134,0.005218982696533203,nan,nan,nan,nan,0.7300116438295167,0.005724153126934911,-0.1284365941096831,0.0007019108863478921,nan,nan,nan,nan
13.463764190673828,0.103565544,-0.17113967,-2.9437556,0.007498404885839386,nan,nan,nan,nan,nan,3.455482244491577,4.655482244491577,0.006034374237060547,nan,nan,nan,nan,0.7303603433865807,0.016242275774358723,-0.13355426712524876,-0.002199187949274479,nan,nan,nan,nan
13.576881885528564,0.057187863,-0.1851706,-2.9267797,0.013694650107647465,nan,nan,nan,nan,nan,3.5687177181243896,4.76871771812439,0.005028963088989258,nan,nan,nan,nan,0.7307558753706085,0.02752296996231243,-0.13470568489040274,-0.006072693560892114,nan,nan,nan,nan
13.66629934310913,0.013693622,-0.19638532,-2.9119248,0.01914796619903864,nan,nan,nan,nan,nan,3.6580212116241455,4.858021211624146,0.006205320358276367,nan,nan,nan,nan,0.7311156895783162,0.030802657237731002,-0.12628503545405265,-0.009971838632284348,nan,nan,nan,nan
13.757068157196045,-0.01278551,-0.20374468,-2.9043863,0.02259163413941057,nan,nan,nan,nan,nan,3.7487404346466064,4.948740434646607,0.00658416748046875,nan,nan,nan,nan,0.7313352241041606,0.03461115534186931,-0.12534326556967818,-0.01211347856744507,nan,nan,nan,nan
13.87760615348816,-0.055130236,-0.21344419,-2.8937325,0.027275642005018006,nan,nan,nan,nan,nan,3.869309186935425,5.069309186935425,0.005558013916015625,nan,nan,nan,nan,0.7313014068084771,0.0267733990373312,-0.09338511297390036,-0.016361056194742533,nan,nan,nan,nan
13.975231647491455,-0.08052285,-0.21558455,-2.8869407,0.028167685821951713,nan,nan,nan,nan,nan,3.9669065475463867,5.166906547546387,0.0050411224365234375,nan,nan,nan,nan,0.7312743578587712,0.026799012209043908,-0.09312053131822207,-0.017024034196819374,nan,nan,nan,nan
14.073748350143433,-0.121759206,-0.2125274,-2.886187,0.02432912507494602,nan,nan,nan,nan,nan,4.06542706489563,5.26542706489563,0.0052073001861572266,nan,nan,nan,nan,0.7309765393726789,0.007379601390382798,-0.07112042313385843,-0.016306506078934697,nan,nan,nan,nan
14.16596269607544,-0.14012857,-0.21016106,-2.8852215,0.02068898562508182,nan,nan,nan,nan,nan,4.157722473144531,5.357722473144531,0.0064945220947265625,nan,nan,nan,nan,0.7307738208466121,0.0002662630454357548,-0.06499555950377495,-0.01371532784829093,nan,nan,nan,nan
14.26326847076416,-0.1589735,-0.20289917,-2.8840184,0.0153009162751814,nan,nan,nan,nan,nan,4.2552618980407715,5.455261898040772,0.00525212287902832,nan,nan,nan,nan,0.730643163765081,-0.008505857307953193,-0.04608877540434627,-0.010702764104394387,nan,nan,nan,nan
14.378586530685425,-0.16746089,-0.19094479,-2.884399,0.01028013967977837,nan,nan,nan,nan,nan,4.370569944381714,5.570569944381714,0.004968404769897461,nan,nan,nan,nan,0.7302534405247484,-0.017341567729364793,-0.016348800500643683,-0.007072119457627799,nan,nan,nan,nan
14.465401649475098,-0.16477297,-0.17390504,-2.8823004,0.0043222169000398224,nan,nan,nan,nan,nan,4.457145929336548,5.657145929336548,0.005629777908325195,nan,nan,nan,nan,0.7300097111318549,-0.02346605251202168,0.01368266087153502,-0.004005460178397026,nan,nan,nan,nan
14.573847532272339,-0.15304372,-0.1527785,-2.8797045,-0.002323781189200706,nan,nan,nan,nan,nan,4.565531969070435,5.765531969070435,0.0056362152099609375,nan,nan,nan,nan,0.7298832457598546,-0.0289088537084691,0.04534606441100904,0.0002696802810257238,nan,nan,nan,nan
14.665996789932251,-0.1418494,-0.13669884,-2.873609,-0.005951109006066847,nan,nan,nan,nan,nan,4.657747268676758,5.857747268676758,0.006361246109008789,nan,nan,nan,nan,0.7299683217587122,-0.028954781470404495,0.05706055719403832,0.002868146283666913,nan,nan,nan,nan
14.77939486503601,-0.113422416,-0.10314173,-2.8647695,-0.01051589199876551,nan,nan,nan,nan,nan,4.771178245544434,5.971178245544434,0.005176544189453125,nan,nan,nan,nan,0.7302032246906793,-0.033544841818256045,0.08158828477748456,0.0061211596819722965,nan,nan,nan,nan
14.8733549118042,-0.09150161,-0.08188914,-2.8617363,-0.011737807353746426,nan,nan,nan,nan,nan,4.865032196044922,6.065032196044922,0.00581049919128418,nan,nan,nan,nan,0.7301995573344686,-0.032780955896955954,0.0893693521511761,0.007225607802584626,nan,nan,nan,nan
14.96952748298645,-0.056947254,-0.053444393,-2.8585298,-0.011179486069054174,nan,nan,nan,nan,nan,4.961228370666504,6.161228370666504,0.006408214569091797,nan,nan,nan,nan,0.7300874150090371,-0.03401948092159955,0.10196006289270425,0.007399235887160413,nan,nan,nan,nan
15.06374454498291,-0.032060087,-0.034059845,-2.8602285,-0.010084208932773545,nan,nan,nan,nan,nan,5.055511236190796,6.255511236190796,0.005294084548950195,nan,nan,nan,nan,0.7299570956636675,-0.030451518293744984,0.10626793837084342,0.006776568194986202,nan,nan,nan,nan
15.17553997039795,0.012338626,-0.0045174747,-2.857859,-0.00953623089640517,nan,nan,nan,nan,nan,5.167214632034302,6.367214632034302,0.0050716400146484375,nan,nan,nan,nan,0.7298027605568709,-0.025076087416420367,0.11094800002972913,0.005820590576819425,nan,nan,nan,nan
15.272430896759033,0.04686157,0.017005526,-2.8556082,-0.009567995281671236,nan,nan,nan,nan,nan,5.264103174209595,6.464103174209595,0.005861997604370117,nan,nan,nan,nan,0.7298341304968339,-0.017471919228044742,0.10902476400389988,0.006162208779009643,nan,nan,nan,nan
15.365613222122192,0.080420285,0.04024404,-2.8520522,-0.0075137893811161385,nan,nan,nan,nan,nan,5.357691287994385,6.557691287994385,0.0061647891998291016,nan,nan,nan,nan,0.7297759027175836,-0.011965394504949408,0.09820826577949825,0.00510119592070455,nan,nan,nan,nan
15.476506233215332,0.11277468,0.06735307,-2.8402674,-0.0029843144552365837,nan,nan,nan,nan,nan,5.468184471130371,6.668184471130371,0.005220651626586914,nan,nan,nan,nan,0.7301814028803603,-0.011459187973143698,0.0854928737795467,0.0024845321048982236,nan,nan,nan,nan
15.569304704666138,0.13594939,0.08616191,-2.835055,-0.0008187662990083245,nan,nan,nan,nan,nan,5.56100058555603,6.7610005855560305,0.007661581039428711,nan,nan,nan,nan,0.730331372604734,-0.010465491626850008,0.08218821419966214,0.0006046572245868853,nan,nan,nan,nan
15.665205955505371,0.16454302,0.11076395,-2.8359668,0.0004429253824832441,nan,nan,nan,nan,nan,5.657254695892334,6.857254695892334,0.005543231964111328,nan,nan,nan,nan,0.7303187136708684,-0.010316027060918689,0.0637016215367108,-0.0006061630772653064,nan,nan,nan,nan
15.77350640296936,0.18919332,0.1346844,-2.840506,0.0010861715364955064,nan,nan,nan,nan,nan,5.7652153968811035,6.965215396881104,0.005276918411254883,nan,nan,nan,nan,0.7300239719894884,-0.013357978505080826,0.05747952446648541,-0.001306224352899802,nan,nan,nan,nan
15.871354103088379,0.20531377,0.15577073,-2.844549,0.0017787914210520674,nan,nan,nan,nan,nan,5.863027334213257,7.063027334213257,0.00795745849609375,nan,nan,nan,nan,0.7297718120811313,-0.015638731014579726,0.05417294932565703,-0.001927100163308558,nan,nan,nan,nan
15.963829040527344,0.21230337,0.1735405,-2.8479931,0.0031121485836381,nan,nan,nan,nan,nan,5.955567836761475,7.155567836761475,0.005056619644165039,nan,nan,nan,nan,0.7294914164734585,-0.01899524527961979,0.035313200808284484,-0.0027959573479771223,nan,nan,nan,nan
16.075549125671387,0.21851294,0.19739106,-2.851392,0.004775746675512605,nan,nan,nan,nan,nan,6.067219495773315,7.267219495773316,0.005243778228759766,nan,nan,nan,nan,0.7292692044114654,-0.022354938056228686,0.012278274762773603,-0.004147345587123933,nan,nan,nan,nan
16.16567087173462,0.21533437,0.21030006,-2.851078,0.005852609310615727,nan,nan,nan,nan,nan,6.15735650062561,7.3573565006256105,0.005167961120605469,nan,nan,nan,nan,0.7291933772038492,-0.01902739301425472,-0.01248940353550963,-0.004722204083652756,nan,nan,nan,nan
16.275695323944092,0.2019959,0.21993308,-2.8500328,0.006786014834890763,nan,nan,nan,nan,nan,6.267373085021973,7.467373085021973,0.005103349685668945,nan,nan,nan,nan,0.7292413551312504,-0.008643056460534215,-0.038337162560695456,-0.005389095124337163,nan,nan,nan,nan
16.368517875671387,0.18499315,0.22684368,-2.8501794,0.007353698283968723,nan,nan,nan,nan,nan,6.360199689865112,7.5601996898651125,0.006526947021484375,nan,nan,nan,nan,0.7292108963690863,-0.006851971310118434,-0.05182675906844847,-0.006102567818489369,nan,nan,nan,nan
16.46389627456665,0.14845501,0.23258,-2.8595378,0.00835522692437509,nan,nan,nan,nan,nan,6.45568060874939,7.65568060874939,0.005362272262573242,nan,nan,nan,nan,0.728762802758859,0.0013556857174844951,-0.08696353086026308,-0.006476327763775007,nan,nan,nan,nan
16.57638430595398,0.10965206,0.23146467,-2.866773,0.009487584242928403,nan,nan,nan,nan,nan,6.568058967590332,7.768058967590332,0.005511760711669922,nan,nan,nan,nan,0.7284123884084474,0.005377924741640116,-0.105688544649963,-0.007068943104370541,nan,nan,nan,nan
16.669214963912964,0.08145737,0.23289898,-2.8690848,0.00957073578202436,nan,nan,nan,nan,nan,6.660902976989746,7.860902976989746,0.007624149322509766,nan,nan,nan,nan,0.7282857907427805,0.00467694878851174,-0.11486918979732338,-0.007609361209860807,nan,nan,nan,nan
16.76829743385315,0.04430723,0.23333757,-2.8688428,0.008692046381164359,nan,nan,nan,nan,nan,6.760321140289307,7.960321140289307,0.007490396499633789,nan,nan,nan,nan,0.7282684393994362,0.0018780605618033653,-0.11574901755572603,-0.006719645484923844,nan,nan,nan,nan
16.86795210838318,0.022339586,0.23042987,-2.866604,0.00837718589885145,nan,nan,nan,nan,nan,6.85983419418335,8.059834194183349,0.005975961685180664,nan,nan,nan,nan,0.7283329716509948,-0.00161180317601184,-0.11048950720208398,-0.006518331106171381,nan,nan,nan,nan
16.97728967666626,-0.007361198,0.222569,-2.8606799,0.008738364280018401,nan,nan,nan,nan,nan,6.96896505355835,8.168965053558349,0.00555419921875,nan,nan,nan,nan,0.728538960575781,-0.00039338249150523664,-0.09808864198555603,-0.0063725273494216065,nan,nan,nan,nan
17.075188398361206,-0.037826546,0.21619739,-2.8555818,0.008426732231607018,nan,nan,nan,nan,nan,7.066899061203003,8.266899061203002,0.005510807037353516,nan,nan,nan,nan,0.7287071789415349,0.001055090577956948,-0.07983869967628959,-0.006118307678924861,nan,nan,nan,nan
17.17659091949463,-0.057720024,0.21200237,-2.8564646,0.008292526695115533,nan,nan,nan,nan,nan,7.168271780014038,8.368271780014037,0.00509953498840332,nan,nan,nan,nan,0.7287613456279004,-0.00597911215210502,-0.07919362222456992,-0.005903990886555255,nan,nan,nan,nan
17.2767174243927,-0.084098496,0.2077466,-2.859227,0.0076470088185938605,nan,nan,nan,nan,nan,7.268417835235596,8.468417835235595,0.005556821823120117,nan,nan,nan,nan,0.7285737628305993,-0.006020825103290915,-0.057610357028586814,-0.005732793750658336,nan,nan,nan,nan
17.37537670135498,-0.09702971,0.20654303,-2.8604023,0.006362627997481612,nan,nan,nan,nan,nan,7.367055654525757,8.567055654525756,0.0054798126220703125,nan,nan,nan,nan,0.7284568037533986,-0.01577744296795215,-0.055808324620289805,-0.004851417339813734,nan,nan,nan,nan
17.47068691253662,-0.11308196,0.20398618,-2.8656797,0.0042292179347310525,nan,nan,nan,nan,nan,7.462390184402466,8.662390184402465,0.007042407989501953,nan,nan,nan,nan,0.7282550666427252,-0.018249455252250444,-0.037370773770987305,-0.003212953752519825,nan,nan,nan,nan
17.565515995025635,-0.1230013,0.198467,-2.8742454,0.001965456915742606,nan,nan,nan,nan,nan,7.557375192642212,8.757375192642211,0.0054090023040771484,nan,nan,nan,nan,0.7280279948265761,-0.017997760113219786,-0.02349642726373134,-0.0017944392000634234,nan,nan,nan,nan
17.6670925617218,-0.12415545,0.19090495,-2.8818266,0.0006540126242377316,nan,nan,nan,nan,nan,7.658867597579956,8.858867597579955,0.008126020431518555,nan,nan,nan,nan,0.7277911716009083,-0.014031939664213297,-0.005450852332274933,-0.0007320287046602374,nan,nan,nan,nan
17.767811059951782,-0.11909781,0.18402903,-2.8846412,0.0004223457622451396,nan,nan,nan,nan,nan,7.75957179069519,8.95957179069519,0.006261110305786133,nan,nan,nan,nan,0.7277342018017879,-0.013629103677511639,0.0022641706855070767,-0.0002154705264361563,nan,nan,nan,nan
17.861873626708984,-0.10696761,0.17468259,-2.884637,0.0009637810269880961,nan,nan,nan,nan,nan,7.853643894195557,9.053643894195556,0.005448102951049805,nan,nan,nan,nan,0.7277873820485536,-0.008163720087620636,0.02042932085526768,-0.0002547148280132253,nan,nan,nan,nan
17.960220336914062,-0.086113684,0.1576047,-2.8857434,0.0024590391732150843,nan,nan,nan,nan,nan,7.951897382736206,9.151897382736205,0.0052471160888671875,nan,nan,nan,nan,0.7279047128768268,0.006320489594952432,0.050774679652774234,-0.0010217673081636496,nan,nan,nan,nan
18.073923587799072,-0.06925811,0.14370726,-2.8903568,0.0038082470823608914,nan,nan,nan,nan,nan,8.065622091293335,9.265622091293334,0.005812883377075195,nan,nan,nan,nan,0.7279803025949916,0.009953780424010687,0.061306867309450466,-0.0015932429975199437,nan,nan,nan,nan
18.168854236602783,-0.047975916,0.12715022,-2.8960242,0.004993220079410497,nan,nan,nan,nan,nan,8.160590171813965,9.360590171813964,0.0054056644439697266,nan,nan,nan,nan,0.7278616689655085,0.017633503388020083,0.07477100222330331,-0.002469750403852862,nan,nan,nan,nan
18.27865219116211,-0.002786684,0.09602054,-2.904266,0.007386100226014172,nan,nan,nan,nan,nan,8.270327091217041,9.47032709121704,0.00540471076965332,nan,nan,nan,nan,0.7276568719610457,0.025158296618804924,0.09022717153391147,-0.0034092974635741235,nan,nan,nan,nan
18.37538480758667,0.028241605,0.076654434,-2.9056337,0.009039365770045644,nan,nan,nan,nan,nan,8.367060661315918,9.567060661315917,0.006209373474121094,nan,nan,nan,nan,0.7276575083927738,0.03176474445620672,0.10634028636908098,-0.004595521546909124,nan,nan,nan,nan
18.46884560585022,0.06719505,0.048886172,-2.9074392,0.00995411579965061,nan,nan,nan,nan,nan,8.460565328598022,9.660565328598022,0.00796651840209961,nan,nan,nan,nan,0.7277501999026288,0.036642218298422874,0.11456988273851652,-0.00560804609139731,nan,nan,nan,nan
18.565771341323853,0.09698219,0.026005225,-2.9044735,0.00873283249255757,nan,nan,nan,nan,nan,8.557736873626709,9.757736873626708,0.005245685577392578,nan,nan,nan,nan,0.7279230965333925,0.03822591462678607,0.1179566637953396,-0.005450668150558275,nan,nan,nan,nan
18.675616979599,0.13611472,-0.007801739,-2.901966,0.004884669616114234,nan,nan,nan,nan,nan,8.667296886444092,9.867296886444091,0.0054547786712646484,nan,nan,nan,nan,0.7283615976326901,0.04323815152246872,0.1124871798436141,-0.0032446162930997516,nan,nan,nan,nan
18.767626523971558,0.1707126,-0.04267166,-2.9056098,0.0007867043016593688,nan,nan,nan,nan,nan,8.759649991989136,9.959649991989135,0.007493019104003906,nan,nan,nan,nan,0.7282696410407905,0.045689877171771934,0.092542316065417,-0.0007801822996199541,nan,nan,nan,nan
18.866120100021362,0.19217153,-0.06710022,-2.9077537,-0.001001956255299827,nan,nan,nan,nan,nan,8.85787034034729,10.05787034034729,0.005080223083496094,nan,nan,nan,nan,0.7281629043958773,0.0445236153642334,0.08724806073228193,0.0011914163665266,nan,nan,nan,nan
18.9602153301239,0.21559691,-0.09591596,-2.9081123,-0.000706235544143782,nan,nan,nan,nan,nan,8.95190978050232,10.151909780502319,0.005377769470214844,nan,nan,nan,nan,0.728122006991946,0.03573264100895052,0.06171229194406277,0.0015593503596132026,nan,nan,nan,nan
19.072897911071777,0.22838002,-0.11973325,-2.906844,0.00036375867795025024,nan,nan,nan,nan,nan,9.06460189819336,10.264601898193359,0.010268926620483398,nan,nan,nan,nan,0.7282338850822558,0.028913360805070006,0.054624749030549306,0.0013167629593593916,nan,nan,nan,nan
19.16625452041626,0.23744941,-0.15001692,-2.9048042,0.0009121464017382052,nan,nan,nan,nan,nan,9.157975196838379,10.357975196838378,0.004951000213623047,nan,nan,nan,nan,0.728377803939114,0.023756448944042698,0.023913259815932373,0.00042697601898487284,nan,nan,nan,nan
19.277485609054565,0.23967287,-0.17875996,-2.9021142,-5.443549504414308e-05,nan,nan,nan,nan,nan,9.269165277481079,10.469165277481078,0.005486249923706055,nan,nan,nan,nan,0.7284624053999307,0.02737071285688965,0.008853334226183014,0.001357072419210733,nan,nan,nan,nan
19.36844778060913,0.23123807,-0.20879878,-2.8956652,-0.0018186657237325224,nan,nan,nan,nan,nan,9.360167026519775,10.560167026519775,0.005486726760864258,nan,nan,nan,nan,0.728714328826979,0.02731203275361477,-0.024689369698237353,0.002209162957779375,nan,nan,nan,nan
19.461033821105957,0.21609856,-0.22976606,-2.8939018,-0.0032654364221683767,nan,nan,nan,nan,nan,9.452756881713867,10.652756881713866,0.0055522918701171875,nan,nan,nan,nan,0.7288257381514918,0.027531032109091916,-0.035510076569510926,0.0034396683806836473,nan,nan,nan,nan
19.569987058639526,0.19462435,-0.25036266,-2.8887775,-0.00456449406015234,nan,nan,nan,nan,nan,9.561698913574219,10.761698913574218,0.005646944046020508,nan,nan,nan,nan,0.7289345476787726,0.022109206660894547,-0.05579103983448026,0.004469320070915557,nan,nan,nan,nan
19.668657064437866,0.16818583,-0.26688874,-2.8822796,-0.005058512101443605,nan,nan,nan,nan,nan,9.660367727279663,10.860367727279662,0.005261659622192383,nan,nan,nan,nan,0.7291799616214534,0.01063676371442341,-0.0764842085668486,0.004596181859453795,nan,nan,nan,nan
19.759851217269897,0.14464189,-0.27513617,-2.8784823,-0.004956057042422317,nan,nan,nan,nan,nan,9.751540660858154,10.951540660858154,0.006991386413574219,nan,nan,nan,nan,0.7292318649838888,0.0033835539669384014,-0.08374410405254516,0.004766414223059773,nan,nan,nan,nan
19.87865686416626,0.09885393,-0.27646044,-2.8779752,-0.004957289950665236,nan,nan,nan,nan,nan,9.870338201522827,11.070338201522826,0.005355358123779297,nan,nan,nan,nan,0.7291508263810994,-0.010648239910704231,-0.09872979780820924,0.004527691221996637,nan,nan,nan,nan
19.97445297241211,0.062580846,-0.27241522,-2.8795254,-0.004638619528639221,nan,nan,nan,nan,nan,9.966148138046265,11.166148138046264,0.007283926010131836,nan,nan,nan,nan,0.7290626087859035,-0.016739346686669637,-0.10991525515175286,0.004503975454316663,nan,nan,nan,nan
20.066542387008667,0.01924468,-0.26479694,-2.878817,-0.004116959326975983,nan,nan,nan,nan,nan,10.058335065841675,11.258335065841674,0.005076169967651367,nan,nan,nan,nan,0.7290160156918531,-0.024264865777145213,-0.12002685166829999,0.00396623209165375,nan,nan,nan,nan
20.16038417816162,-0.028955335,-0.25380838,-2.8756382,-0.003630572976282914,nan,nan,nan,nan,nan,10.152073621749878,11.352073621749877,0.0068280696868896484,nan,nan,nan,nan,0.729010463332332,-0.031344812718506754,-0.12145023973035174,0.0032328290080948117,nan,nan,nan,nan
20.27509903907776,-0.082233675,-0.24087909,-2.870891,-0.0027935729188470777,nan,nan,nan,nan,nan,10.266792297363281,11.46679229736328,0.00579071044921875,nan,nan,nan,nan,0.7292126616373458,-0.031224263172809377,-0.11978366537598743,0.0025023862798849513,nan,nan,nan,nan
20.36782193183899,-0.12458904,-0.22854725,-2.8731782,-0.0027449061234028514,nan,nan,nan,nan,nan,10.35971450805664,11.55971450805664,0.0055065155029296875,nan,nan,nan,nan,0.7291501854819135,-0.026406069269907472,-0.12300204359532618,0.0025214672765078968,nan,nan,nan,nan
20.4641432762146,-0.16718735,-0.21401688,-2.879235,-0.002537728922195541,nan,nan,nan,nan,nan,10.455827474594116,11.655827474594116,0.005085945129394531,nan,nan,nan,nan,0.7289205842463398,-0.022358146289421878,-0.10565630716475899,0.00217110192047186,nan,nan,nan,nan
20.578234910964966,-0.20739968,-0.19597869,-2.8829877,-0.0018208733502857039,nan,nan,nan,nan,nan,10.569965124130249,11.769965124130248,0.005328178405761719,nan,nan,nan,nan,0.7287476530676532,-0.014747709092529558,-0.07981957422590322,0.0017103696070665448,nan,nan,nan,nan
20.67381477355957,-0.22571178,-0.18397348,-2.8844466,-0.0013310380465252534,nan,nan,nan,nan,nan,10.665511131286621,11.86551113128662,0.008229732513427734,nan,nan,nan,nan,0.728778726291245,-0.00644790347051564,-0.07261895695600407,0.0015363548983376456,nan,nan,nan,nan
20.777862071990967,-0.24534218,-0.16177337,-2.8886433,-0.00042770737036989127,nan,nan,nan,nan,nan,10.769547939300537,11.969547939300536,0.005526304244995117,nan,nan,nan,nan,0.728697199045682,-0.006046693132082343,-0.028832236387632347,0.000755755338493785,nan,nan,nan,nan
20.872053861618042,-0.24907227,-0.15263467,-2.8898945,0.00022281058544067634,nan,nan,nan,nan,nan,10.863790035247803,12.063790035247802,0.006188392639160156,nan,nan,nan,nan,0.7286864858273807,0.0014900218695474466,-0.01788333420216945,0.0004676116440402844,nan,nan,nan,nan
20.974286794662476,-0.24340013,-0.13152024,-2.8954687,0.0011280948374703312,nan,nan,nan,nan,nan,10.965997457504272,12.165997457504272,0.007207632064819336,nan,nan,nan,nan,0.7286118766926099,0.002636352194994411,0.024674727294802645,-0.0002516485516657298,nan,nan,nan,nan
21.073445558547974,-0.23465995,-0.11855214,-2.8960876,0.001331128452815162,nan,nan,nan,nan,nan,11.065145015716553,12.265145015716552,0.007529258728027344,nan,nan,nan,nan,0.7286357536093899,0.005543276523780132,0.04028028977103649,-0.0005356300330184575,nan,nan,nan,nan
21.166823625564575,-0.21397583,-0.09697172,-2.891347,0.0011356330845132892,nan,nan,nan,nan,nan,11.158533334732056,12.358533334732055,0.005007743835449219,nan,nan,nan,nan,0.728824880655574,0.002963365996518881,0.06733999978342377,-0.0004886206566196472,nan,nan,nan,nan
21.261738538742065,-0.18972601,-0.07734725,-2.8821816,0.0007897598330625555,nan,nan,nan,nan,nan,11.253427028656006,12.453427028656005,0.005496025085449219,nan,nan,nan,nan,0.7291728768041338,0.0017443855542760656,0.08151735626546501,-0.0004353389556957377,nan,nan,nan,nan
21.377872467041016,-0.15524875,-0.047371365,-2.8724296,-0.0003046401500778717,nan,nan,nan,nan,nan,11.369602680206299,12.569602680206298,0.008146286010742188,nan,nan,nan,nan,0.7296768964768726,-0.009386177990695072,0.10433228549662311,0.0002651316379407895,nan,nan,nan,nan
21.478311777114868,-0.12593092,-0.026586294,-2.8678572,-0.001730818615733327,nan,nan,nan,nan,nan,11.469992399215698,12.669992399215698,0.007339954376220703,nan,nan,nan,nan,0.7298866262190076,-0.010103827499140008,0.10987440909726026,0.0006096131900220842,nan,nan,nan,nan
21.562425136566162,-0.09598598,-0.008749553,-2.8629932,-0.0033673614024459005,nan,nan,nan,nan,nan,11.55413556098938,12.75413556098938,0.00543975830078125,nan,nan,nan,nan,0.7300887190383891,-0.0148983852969269,0.11760578203578526,0.0015601302383562846,nan,nan,nan,nan
21.658706426620483,-0.050408464,0.015352576,-2.857978,-0.005824044044441314,nan,nan,nan,nan,nan,11.65040397644043,12.850403976440429,0.011744022369384766,nan,nan,nan,nan,0.7302377690566094,-0.01193510145890029,0.11671594154498284,0.003495751585067818,nan,nan,nan,nan
21.760581970214844,-0.019242626,0.03634997,-2.8576565,-0.004480818986361652,nan,nan,nan,nan,nan,11.752265930175781,12.95226593017578,0.0072765350341796875,nan,nan,nan,nan,0.7301695026572605,-0.013637821673102402,0.11677359233494437,0.003156353823546201,nan,nan,nan,nan
21.860394954681396,0.033268888,0.06807316,-2.8557231,-0.0020414340900824033,nan,nan,nan,nan,nan,11.852157831192017,13.052157831192016,0.006459474563598633,nan,nan,nan,nan,0.730105385618587,-0.0216577167389602,0.1069328270001353,0.001861319247073263,nan,nan,nan,nan
21.959413528442383,0.07559486,0.088690884,-2.850957,-0.0019555288986858026,nan,nan,nan,nan,nan,11.951100587844849,13.151100587844848,0.007983207702636719,nan,nan,nan,nan,0.7301447634874226,-0.022045905616632597,0.11289442860413118,0.0005772058890787094,nan,nan,nan,nan
22.074392795562744,0.118778124,0.10980389,-2.843862,-0.003095759853228396,nan,nan,nan,nan,nan,12.066124200820923,13.266124200820922,0.007681846618652344,nan,nan,nan,nan,0.7304082673063366,-0.019766428562546345,0.11265985879757645,0.0010398121042194718,nan,nan,nan,nan
22.169305086135864,0.15573803,0.13053295,-2.8370607,-0.0038282977840965134,nan,nan,nan,nan,nan,12.161137104034424,13.361137104034423,0.0051424503326416016,nan,nan,nan,nan,0.7306576048073994,-0.017164165110117095,0.09227569930001936,0.001729634777496817,nan,nan,nan,nan
22.260576248168945,0.19264962,0.15543674,-2.8392577,-0.0031178410613010004,nan,nan,nan,nan,nan,12.252260446548462,13.452260446548461,0.007893800735473633,nan,nan,nan,nan,0.730496354730311,-0.018190503916347696,0.07602171026465,0.0014164984303249941,nan,nan,nan,nan
22.360090017318726,0.20573892,0.17035319,-2.843585,-0.0019363103846781757,nan,nan,nan,nan,nan,12.351781606674194,13.551781606674194,0.0060961246490478516,nan,nan,nan,nan,0.7303566146021633,-0.01829130122282086,0.06751348430609462,0.0005342382394624864,nan,nan,nan,nan
22.47479557991028,0.21313849,0.19625683,-2.8472478,0.0006670810245112463,nan,nan,nan,nan,nan,12.466477870941162,13.666477870941161,0.006807565689086914,nan,nan,nan,nan,0.7299884554640008,-0.016627794650446115,0.023372176325458405,-0.0010294732892307346,nan,nan,nan,nan
22.569775342941284,0.21394308,0.22411552,-2.845226,0.003340714271297814,nan,nan,nan,nan,nan,12.561667203903198,13.761667203903198,0.005562543869018555,nan,nan,nan,nan,0.7298692389590727,-0.022594078778520953,-0.020376340018902993,-0.002812006801962741,nan,nan,nan,nan
22.665181875228882,0.21252267,0.24151343,-2.841135,0.0045987534387914785,nan,nan,nan,nan,nan,12.656867980957031,13.85686798095703,0.005032777786254883,nan,nan,nan,nan,0.7299805720383051,-0.029024793681033605,-0.03218718794076338,-0.004313509668110106,nan,nan,nan,nan
22.762048959732056,0.19693638,0.2657059,-2.8397346,0.006029167899133293,nan,nan,nan,nan,nan,12.753734111785889,13.953734111785888,0.00564265251159668,nan,nan,nan,nan,0.7299734755263414,-0.02971374886509205,-0.06024252379188299,-0.005064465959587587,nan,nan,nan,nan
22.8764328956604,0.17889455,0.28238475,-2.8434305,0.006424347635743687,nan,nan,nan,nan,nan,12.86811900138855,14.068119001388549,0.00669407844543457,nan,nan,nan,nan,0.7297466734104756,-0.025014311176207414,-0.0776124006137344,-0.0055875200642994454,nan,nan,nan,nan
22.97177505493164,0.1615567,0.2931804,-2.8469281,0.006337243019381565,nan,nan,nan,nan,nan,12.963542222976685,14.163542222976684,0.006384134292602539,nan,nan,nan,nan,0.7296185758100093,-0.02377332923282336,-0.08078014205768708,-0.005999184189059788,nan,nan,nan,nan
23.065169095993042,0.13462035,0.30222124,-2.8544316,0.006154873680629905,nan,nan,nan,nan,nan,13.0568687915802,14.2568687915802,0.005305767059326172,nan,nan,nan,nan,0.7293762262643522,-0.01752182053426843,-0.09077697001195717,-0.0055906902932864174,nan,nan,nan,nan
23.15999960899353,0.111388065,0.30323264,-2.8646936,0.006462099946807494,nan,nan,nan,nan,nan,13.1517813205719,14.351781320571899,0.007659435272216797,nan,nan,nan,nan,0.7288639562119941,-0.010486657250252109,-0.09673763106147415,-0.0058112433675466995,nan,nan,nan,nan
23.27519726753235,0.066631496,0.2949198,-2.8672175,0.008599166210949102,nan,nan,nan,nan,nan,13.26688528060913,14.46688528060913,0.007282733917236328,nan,nan,nan,nan,0.7286016942916308,0.01009295467407969,-0.10375053418488843,-0.006211157592747753,nan,nan,nan,nan
23.36922335624695,0.041956823,0.2866888,-2.8767543,0.009864458491963128,nan,nan,nan,nan,nan,13.360939979553223,14.560939979553222,0.0050334930419921875,nan,nan,nan,nan,0.7284010054856773,0.02015553948336873,-0.10878031134980677,-0.007384494799091955,nan,nan,nan,nan
23.462273120880127,-0.00051106134,0.2697763,-2.892074,0.012054813801569137,nan,nan,nan,nan,nan,13.454038619995117,14.654038619995116,0.006245851516723633,nan,nan,nan,nan,0.7279023660954873,0.0313757428845798,-0.10649467141208588,-0.007954465015927718,nan,nan,nan,nan
23.56288194656372,-0.034906767,0.25341797,-2.9048061,0.014312532171309298,nan,nan,nan,nan,nan,13.55459475517273,14.754594755172729,0.006169557571411133,nan,nan,nan,nan,0.7275001446044097,0.03434472018287508,-0.10136548938781428,-0.009116631385088276,nan,nan,nan,nan
23.678205013275146,-0.069387,0.23371515,-2.9166567,0.017387239588795653,nan,nan,nan,nan,nan,13.669885396957397,14.869885396957397,0.0061054229736328125,nan,nan,nan,nan,0.7270600897623114,0.03227870554736466,-0.09417776427661426,-0.010895469911687019,nan,nan,nan,nan
23.77477502822876,-0.09128994,0.21589066,-2.9231064,0.019793164535588638,nan,nan,nan,nan,nan,13.766475677490234,14.966475677490234,0.007485628128051758,nan,nan,nan,nan,0.7268595088341958,0.029028183955086162,-0.0843525774140043,-0.012422953617243115,nan,nan,nan,nan
23.870230197906494,-0.10533908,0.20002759,-2.9274797,0.021774737353568475,nan,nan,nan,nan,nan,13.862029314041138,15.062029314041137,0.005167961120605469,nan,nan,nan,nan,0.7268273254434574,0.02310184355881367,-0.05965991144018285,-0.013788383011351615,nan,nan,nan,nan
23.967582941055298,-0.11348614,0.18356976,-2.9283571,0.02291269826055507,nan,nan,nan,nan,nan,13.959259033203125,15.159259033203124,0.005103588104248047,nan,nan,nan,nan,0.7269639671407274,0.012122142975960084,-0.04729797844263026,-0.014616613044555093,nan,nan,nan,nan
24.065009117126465,-0.12250301,0.15584119,-2.9302733,0.02420818795741919,nan,nan,nan,nan,nan,14.056689023971558,15.256689023971557,0.005399942398071289,nan,nan,nan,nan,0.727201841030697,0.012195886563524102,-0.012892934602640458,-0.015434053509178413,nan,nan,nan,nan
24.17839288711548,-0.1337482,0.12556255,-2.9418778,0.02434008631636421,nan,nan,nan,nan,nan,14.170068264007568,15.370068264007568,0.006433010101318359,nan,nan,nan,nan,0.7270190284934674,0.014978512180509712,0.0002919664102980847,-0.015791934902971278,nan,nan,nan,nan
24.276028156280518,-0.13438232,0.10486638,-2.9522994,0.023791562808454566,nan,nan,nan,nan,nan,14.267976999282837,15.467976999282836,0.007085084915161133,nan,nan,nan,nan,0.7267828187048079,0.012523607469071107,0.0017722845270936296,-0.01575045983953834,nan,nan,nan,nan
24.369173526763916,-0.12345491,0.07695993,-2.958753,0.02249161674054781,nan,nan,nan,nan,nan,14.36085557937622,15.56085557937622,0.005047798156738281,nan,nan,nan,nan,0.7266206083318593,0.014811532597827142,0.02830885930178082,-0.014908595619343532,nan,nan,nan,nan
24.467606782913208,-0.10499938,0.057911027,-2.9595761,0.02164612098133452,nan,nan,nan,nan,nan,14.459281921386719,15.659281921386718,0.0050623416900634766,nan,nan,nan,nan,0.7267503009942277,0.010127648049457786,0.04458449414500824,-0.014261396514705928,nan,nan,nan,nan
24.562660932540894,-0.084061496,0.041632365,-2.9578574,0.02099548401900145,nan,nan,nan,nan,nan,14.554445028305054,15.754445028305053,0.006171464920043945,nan,nan,nan,nan,0.7269418538908783,0.003985894850799621,0.06249628986145459,-0.01381436002204121,nan,nan,nan,nan
24.67465615272522,-0.05111195,0.022913476,-2.95641,0.02098750953403963,nan,nan,nan,nan,nan,14.666341066360474,15.866341066360473,0.007132291793823242,nan,nan,nan,nan,0.7271968892948688,-0.0027654669897270935,0.08772813324736979,-0.013474043506644077,nan,nan,nan,nan
24.769830226898193,-0.009510357,0.0062837712,-2.952556,0.021265885155323426,nan,nan,nan,nan,nan,14.761584997177124,15.961584997177123,0.005214691162109375,nan,nan,nan,nan,0.7275463881139945,-0.005793725824883838,0.10851897339775232,-0.013518780174532345,nan,nan,nan,nan
24.870829105377197,0.019836687,-0.005876947,-2.950849,0.021174239115326093,nan,nan,nan,nan,nan,14.862565040588379,16.062565040588378,0.005322933197021484,nan,nan,nan,nan,0.7277565343360155,-0.010313015616430887,0.11690293213329811,-0.013314387525505242,nan,nan,nan,nan
24.964295625686646,0.059040587,-0.021500105,-2.9474964,0.020725644415910512,nan,nan,nan,nan,nan,14.955981016159058,16.155981016159057,0.0055637359619140625,nan,nan,nan,nan,0.7280588449116785,-0.005290706616990694,0.11693951811532857,-0.013086527579620035,nan,nan,nan,nan
25.077166318893433,0.10550625,-0.03731631,-2.9435565,0.020477546180440856,nan,nan,nan,nan,nan,15.06885576248169,16.26885576248169,0.008041858673095703,nan,nan,nan,nan,0.7282865250380499,-0.002068815391131574,0.115621987729079,-0.012676258606728044,nan,nan,nan,nan
25.172463417053223,0.1322621,-0.04413463,-2.94131,0.021059685088544774,nan,nan,nan,nan,nan,15.164323806762695,16.364323806762695,0.0050656795501708984,nan,nan,nan,nan,0.7283777537021656,-0.0033521717222856425,0.11545406435135504,-0.012522926007249661,nan,nan,nan,nan
25.265115976333618,0.16680299,-0.05895056,-2.939998,0.021544625917326275,nan,nan,nan,nan,nan,15.256852388381958,16.456852388381957,0.005511760711669922,nan,nan,nan,nan,0.7284269560751874,0.0012111195418810959,0.09465075697540015,-0.013139030908833012,nan,nan,nan,nan
25.375723600387573,0.19522807,-0.07059134,-2.9415188,0.02135590139049566,nan,nan,nan,nan,nan,15.36742615699768,16.56742615699768,0.0069615840911865234,nan,nan,nan,nan,0.7283676114321058,0.006373692513490649,0.07394522419507107,-0.012981675983497051,nan,nan,nan,nan
25.472025632858276,0.21122508,-0.079298474,-2.9419034,0.021050575877540563,nan,nan,nan,nan,nan,15.463953733444214,16.663953733444213,0.00519251823425293,nan,nan,nan,nan,0.7283262345456107,0.008164022088194485,0.06874037886745156,-0.012400365152298167,nan,nan,nan,nan
25.570271015167236,0.22712669,-0.09361328,-2.9417307,0.02058185141372447,nan,nan,nan,nan,nan,15.561996459960938,16.761996459960937,0.0063512325286865234,nan,nan,nan,nan,0.7282791375289352,0.013235646923618838,0.035928653433143616,-0.012398611134494123,nan,nan,nan,nan
25.677439212799072,0.23177806,-0.10281237,-2.943078,0.020116489417794294,nan,nan,nan,nan,nan,15.669345617294312,16.86934561729431,0.007246732711791992,nan,nan,nan,nan,0.7281300197089285,0.016253544772159303,0.028051731902204627,-0.01178898710653125,nan,nan,nan,nan
25.77191710472107,0.2416788,-0.114152424,-2.9434283,0.019332021130974552,nan,nan,nan,nan,nan,15.763758420944214,16.963758420944213,0.006226301193237305,nan,nan,nan,nan,0.7280349924380687,0.017783054721522407,0.004006664138305029,-0.011469112069763709,nan,nan,nan,nan
25.870254039764404,0.24031922,-0.121855535,-2.944197,0.018558067340781418,nan,nan,nan,nan,nan,15.861948013305664,17.061948013305663,0.005661964416503906,nan,nan,nan,nan,0.7280438989784471,0.019571921580763863,-0.005952788354931711,-0.010743107494019499,nan,nan,nan,nan
25.95971155166626,0.2324005,-0.13168351,-2.9431663,0.01725252434124621,nan,nan,nan,nan,nan,15.95140290260315,17.15140290260315,0.008501052856445312,nan,nan,nan,nan,0.7280184365668385,0.021320277211748312,-0.022731931139576687,-0.01002851812336162,nan,nan,nan,nan
26.078890800476074,0.21257411,-0.14498247,-2.936582,0.01509379510697019,nan,nan,nan,nan,nan,16.07062554359436,17.27062554359436,0.007901906967163086,nan,nan,nan,nan,0.7282343500746633,0.023507359274486387,-0.04782921030707868,-0.008704864625190439,nan,nan,nan,nan
26.162026166915894,0.18854153,-0.1500148,-2.9301064,0.013068193327934144,nan,nan,nan,nan,nan,16.15374732017517,17.35374732017517,0.0069599151611328125,nan,nan,nan,nan,0.7284180512139385,0.021165440596707726,-0.06567564579501811,-0.007769863826287452,nan,nan,nan,nan
26.2770037651062,0.15651365,-0.15880117,-2.9225202,0.01064125428389867,nan,nan,nan,nan,nan,16.26876473426819,17.468764734268188,0.0070455074310302734,nan,nan,nan,nan,0.7287005399035691,0.013648772755949574,-0.09035262189820546,-0.006324053936179264,nan,nan,nan,nan
26.370750904083252,0.13646632,-0.16325535,-2.9182537,0.009415326582771468,nan,nan,nan,nan,nan,16.36249089241028,17.562490892410278,0.008984088897705078,nan,nan,nan,nan,0.7288841843974544,0.015494885987926593,-0.0968908954764632,-0.005206401848948488,nan,nan,nan,nan
26.47795081138611,0.098235935,-0.16552393,-2.9066722,0.007154310685351918,nan,nan,nan,nan,nan,16.469989776611328,17.669989776611327,0.007898807525634766,nan,nan,nan,nan,0.7291629628079284,0.008996384562374352,-0.10235916353554264,-0.004374214398970713,nan,nan,nan,nan
26.576630115509033,0.06923289,-0.16228959,-2.8964422,0.005169944419678525,nan,nan,nan,nan,nan,16.568312883377075,17.768312883377074,0.006331443786621094,nan,nan,nan,nan,0.729490013278984,0.005775029670175452,-0.10620558482151032,-0.0030243723310672383,nan,nan,nan,nan
26.67181086540222,0.03929176,-0.15562467,-2.8900235,0.003228683378891542,nan,nan,nan,nan,nan,16.66360354423523,17.86360354423523,0.005151987075805664,nan,nan,nan,nan,0.7296960339811303,-0.0017699465538417078,-0.10945704086822353,-0.0018241289513487911,nan,nan,nan,nan
26.769575834274292,-0.005867212,-0.14685076,-2.884388,0.0008829391059237733,nan,nan,nan,nan,nan,16.76125931739807,17.96125931739807,0.0052373409271240234,nan,nan,nan,nan,0.7297921580014646,-0.011855136877055507,-0.10548222483839538,-0.0005936968632730738,nan,nan,nan,nan
26.86815595626831,-0.03376534,-0.14171465,-2.8834362,-0.0001800727960901971,nan,nan,nan,nan,nan,16.859838485717773,18.059838485717773,0.005483150482177734,nan,nan,nan,nan,0.7297981201895751,-0.009217261177767123,-0.10684639084351347,0.0003894845431013603,nan,nan,nan,nan
26.9657142162323,-0.06972386,-0.13508725,-2.8827324,-0.0012087227061040075,nan,nan,nan,nan,nan,16.957481622695923,18.157481622695922,0.0056879520416259766,nan,nan,nan,nan,0.7296326995142659,-0.007581329036582686,-0.08973767107137844,0.0008252124454752376,nan,nan,nan,nan
27.065136909484863,-0.09329808,-0.13057189,-2.882188,-0.002235356514869501,nan,nan,nan,nan,nan,17.056813716888428,18.256813716888427,0.006830930709838867,nan,nan,nan,nan,0.7294748809881226,0.00016842908044532873,-0.0879497412554047,0.001480370215213198,nan,nan,nan,nan
27.16269016265869,-0.118608765,-0.12471486,-2.8790047,-0.003149643896498938,nan,nan,nan,nan,nan,17.154388189315796,18.354388189315795,0.006493091583251953,nan,nan,nan,nan,0.7294057838780171,0.0033197546004022195,-0.06010724594281744,0.0021003384744331193,nan,nan,nan,nan
27.278921127319336,-0.13389613,-0.11204665,-2.8725042,-0.004070701007166351,nan,nan,nan,nan,nan,17.270638942718506,18.470638942718505,0.008547306060791016,nan,nan,nan,nan,0.7295307158049746,0.0047023368534496604,-0.037053825083935774,0.002522939744775755,nan,nan,nan,nan
27.364789485931396,-0.13848451,-0.10181437,-2.8708687,-0.004699796925067301,nan,nan,nan,nan,nan,17.35646915435791,18.55646915435791,0.006155490875244141,nan,nan,nan,nan,0.7296737791370744,0.0019364130071117093,-0.01652949491559993,0.002883393909263132,nan,nan,nan,nan
27.47848868370056,-0.1350904,-0.08664915,-2.8753653,-0.005326151336242516,nan,nan,nan,nan,nan,17.470213890075684,18.670213890075683,0.006216287612915039,nan,nan,nan,nan,0.7294312980830764,0.0006271635438931523,0.01485393507414613,0.0032425180010096934,nan,nan,nan,nan
27.57108235359192,-0.12859358,-0.07620183,-2.878995,-0.005699583907776232,nan,nan,nan,nan,nan,17.562760591506958,18.762760591506957,0.005282878875732422,nan,nan,nan,nan,0.7290831185955233,0.00017582299347312873,0.03043756085738856,0.0035273141289728057,nan,nan,nan,nan
27.669423580169678,-0.10713922,-0.055590108,-2.8726196,-0.0060161169543304326,nan,nan,nan,nan,nan,17.661097526550293,18.861097526550292,0.005266904830932617,nan,nan,nan,nan,0.729095873134573,-0.005988778601803141,0.05962363233327344,0.003796668530339959,nan,nan,nan,nan
27.76247239112854,-0.086134344,-0.041650772,-2.8627546,-0.006336879332970941,nan,nan,nan,nan,nan,17.75416612625122,18.95416612625122,0.0075910091400146484,nan,nan,nan,nan,0.7293936823581116,-0.0076874028772809634,0.07550766041623397,0.003853579341618562,nan,nan,nan,nan
27.878056287765503,-0.049574755,-0.019223137,-2.8525407,-0.006920777918224772,nan,nan,nan,nan,nan,17.869802951812744,19.069802951812743,0.006133556365966797,nan,nan,nan,nan,0.7298278173573637,-0.01029141937448877,0.09527369652136544,0.004216624709735013,nan,nan,nan,nan
27.971379280090332,-0.025228659,-0.004826023,-2.8482308,-0.007255262964132754,nan,nan,nan,nan,nan,17.963056087493896,19.163056087493896,0.005211830139160156,nan,nan,nan,nan,0.729946627794032,-0.010541015171065914,0.1042241041546607,0.004283640535319998,nan,nan,nan,nan
28.065772533416748,0.009323633,0.015572403,-2.845289,-0.0077133484062368585,nan,nan,nan,nan,nan,18.057454347610474,19.257454347610473,0.008066415786743164,nan,nan,nan,nan,0.7299302793392236,-0.014350584335472621,0.11142231783683869,0.0046314374961170125,nan,nan,nan,nan
28.167518138885498,0.03969572,0.02956875,-2.8451142,-0.008010095110752248,nan,nan,nan,nan,nan,18.159228563308716,19.359228563308715,0.005450010299682617,nan,nan,nan,nan,0.7299025608583279,-0.012636820504426284,0.11430803052496037,0.004665499198837384,nan,nan,nan,nan
28.26805329322815,0.07771059,0.04530698,-2.8490386,-0.008069746128764174,nan,nan,nan,nan,nan,18.259751081466675,19.459751081466674,0.005882740020751953,nan,nan,nan,nan,0.7296563357818625,-0.010732469727106014,0.11002606922609799,0.004880242382596585,nan,nan,nan,nan
28.363593578338623,0.11932995,0.060797803,-2.8560395,-0.008379947219272054,nan,nan,nan,nan,nan,18.355271816253662,19.55527181625366,0.0077800750732421875,nan,nan,nan,nan,0.7292913635046859,-0.006517974413968286,0.10271324761818404,0.004674950817882,nan,nan,nan,nan
28.45955491065979,0.1515869,0.07316363,-2.860324,-0.009344260523359564,nan,nan,nan,nan,nan,18.451374769210815,19.651374769210815,0.009502410888671875,nan,nan,nan,nan,0.7289729243589745,-0.001520754988155626,0.0987020207691005,0.004940215678952356,nan,nan,nan,nan
28.57650852203369,0.18214455,0.08681127,-2.8631358,-0.010378383701863794,nan,nan,nan,nan,nan,18.568238735198975,19.768238735198974,0.00568842887878418,nan,nan,nan,nan,0.7287715076697235,-0.0013273389855707836,0.09045134159610982,0.00557166321343007,nan,nan,nan,nan
28.6716570854187,0.20998985,0.1038833,-2.8718371,-0.01076769267851281,nan,nan,nan,nan,nan,18.663355350494385,19.863355350494384,0.005394697189331055,nan,nan,nan,nan,0.7285129132757671,-0.006884057400514162,0.07431947818130044,0.0060882824733459046,nan,nan,nan,nan
28.76982355117798,0.22807983,0.114281364,-2.8780234,-0.010789513732382412,nan,nan,nan,nan,nan,18.76150870323181,19.96150870323181,0.005330085754394531,nan,nan,nan,nan,0.7283564574650236,-0.01172388940627459,0.06970140663104561,0.005811804915949856,nan,nan,nan,nan
28.87251305580139,0.24850152,0.12957205,-2.8914807,-0.010551207709988117,nan,nan,nan,nan,nan,18.86440134048462,20.06440134048462,0.009232282638549805,nan,nan,nan,nan,0.7280285017476974,-0.013341556677290646,0.04088207692554124,0.006023385981082766,nan,nan,nan,nan
28.975411415100098,0.2530159,0.1369183,-2.8973198,-0.01023733795475415,nan,nan,nan,nan,nan,18.967230558395386,20.167230558395385,0.005567789077758789,nan,nan,nan,nan,0.727640949959759,-0.015311408143763916,0.030278920324570146,0.005405633627091722,nan,nan,nan,nan
29.07204556465149,0.24685709,0.15236828,-2.911534,-0.0089561828902739,nan,nan,nan,nan,nan,19.063724994659424,20.263724994659423,0.005358219146728516,nan,nan,nan,nan,0.7272126145567621,-0.01817045750920566,-0.0056108229543641195,0.004888636054004686,nan,nan,nan,nan
29.166470527648926,0.24022537,0.16337806,-2.9187524,-0.007992390776049003,nan,nan,nan,nan,nan,19.158154726028442,20.35815472602844,0.006699562072753906,nan,nan,nan,nan,0.7270680547714113,-0.02275300935341003,-0.021712612958835167,0.00404261228357021,nan,nan,nan,nan
29.272868156433105,0.2249962,0.18044506,-2.9264545,-0.006772666338714017,nan,nan,nan,nan,nan,19.264620065689087,20.464620065689086,0.005519866943359375,nan,nan,nan,nan,0.7269743743479297,-0.026625666513214827,-0.051596164213913415,0.0034525266257029712,nan,nan,nan,nan
29.368389129638672,0.20933747,0.19175725,-2.9281595,-0.006247179407975852,nan,nan,nan,nan,nan,19.360068798065186,20.560068798065185,0.0053784847259521484,nan,nan,nan,nan,0.7270103648486599,-0.03154499573398835,-0.06050684864424639,0.002625410605767972,nan,nan,nan,nan
29.466851234436035,0.17718992,0.20718788,-2.924243,-0.005646531076291325,nan,nan,nan,nan,nan,19.458580493927002,20.658580493927,0.005886554718017578,nan,nan,nan,nan,0.727278642341442,-0.03175774262681591,-0.08306612469069848,0.002522170958571325,nan,nan,nan,nan
29.565370082855225,0.14648858,0.21803251,-2.9166777,-0.005036034145257904,nan,nan,nan,nan,nan,19.557074546813965,20.757074546813964,0.0075244903564453125,nan,nan,nan,nan,0.7276629746185986,-0.034585751458801495,-0.09712655554107555,0.0018281749721429572,nan,nan,nan,nan
29.67742371559143,0.097354814,0.23295043,-2.9107957,-0.004125950590374989,nan,nan,nan,nan,nan,19.669270277023315,20.869270277023315,0.005280733108520508,nan,nan,nan,nan,0.7281211372674179,-0.032801037421145415,-0.11754741403370268,0.0012581771011599375,nan,nan,nan,nan
29.772327184677124,0.045921426,0.24655707,-2.9100127,-0.0031326995212558016,nan,nan,nan,nan,nan,19.764000415802002,20.964000415802,0.005209922790527344,nan,nan,nan,nan,0.7283233098034911,-0.026684479069155005,-0.126561263544176,0.0009689904540659919,nan,nan,nan,nan
29.86982035636902,0.010502685,0.2532305,-2.9115596,-0.002593875427379908,nan,nan,nan,nan,nan,19.86151146888733,21.06151146888733,0.005558013916015625,nan,nan,nan,nan,0.728320354597893,-0.02493983155112446,-0.12598400480461475,0.00037056896826281237,nan,nan,nan,nan
29.963350534439087,-0.02351637,0.256898,-2.9122157,-0.002252216257733794,nan,nan,nan,nan,nan,19.955040454864502,21.1550404548645,0.006834983825683594,nan,nan,nan,nan,0.7282217827410824,-0.020014430232949108,-0.11959021905562969,0.00022672179938409184,nan,nan,nan,nan
30.07965850830078,-0.05649359,0.2592171,-2.920177,-0.0018602759550351965,nan,nan,nan,nan,nan,20.071654796600342,21.27165479660034,0.006727695465087891,nan,nan,nan,nan,0.7279846174846724,-0.008124400403373007,-0.09237441172542218,0.0004926916052592134,nan,nan,nan,nan
30.1761794090271,-0.08012426,0.2599565,-2.9212747,-0.0015366332838521787,nan,nan,nan,nan,nan,20.16798996925354,21.36798996925354,0.0067789554595947266,nan,nan,nan,nan,0.7279378857523703,-0.007378263921662223,-0.08389583912779806,0.0001762117014543809,nan,nan,nan,nan
30.277303218841553,-0.107549846,0.256015,-2.9219959,-0.0007645432105932888,nan,nan,nan,nan,nan,20.269112586975098,21.469112586975097,0.0050318241119384766,nan,nan,nan,nan,0.7280050648748954,0.002987765302117727,-0.05620098559134377,0.00021515904017372806,nan,nan,nan,nan
30.36888813972473,-0.119296096,0.25080836,-2.920739,-0.00029075189043106797,nan,nan,nan,nan,nan,20.36065101623535,21.56065101623535,0.005677223205566406,nan,nan,nan,nan,0.7280444061921273,0.003521832152340264,-0.05061331871635488,-0.00022470085680769805,nan,nan,nan,nan
30.462522268295288,-0.12926868,0.2404759,-2.9151168,0.0003729171629999993,nan,nan,nan,nan,nan,20.45422649383545,21.65422649383545,0.0064318180084228516,nan,nan,nan,nan,0.7282414079791656,0.013329342376856318,-0.019823630151984455,-0.0003263793664669052,nan,nan,nan,nan
30.571649312973022,-0.13367102,0.22136378,-2.9173386,0.0021193397948375426,nan,nan,nan,nan,nan,20.563324689865112,21.76332468986511,0.005383968353271484,nan,nan,nan,nan,0.728207285494834,0.02142758619388046,0.0021493810033754402,-0.0011237638179526681,nan,nan,nan,nan
30.670144081115723,-0.1352355,0.20625545,-2.9138675,0.003454321331886197,nan,nan,nan,nan,nan,20.6618390083313,21.861839008331298,0.005465984344482422,nan,nan,nan,nan,0.728296411807361,0.022439172741609007,0.008351242307727996,-0.002066296995634069,nan,nan,nan,nan
30.768201112747192,-0.1333038,0.18151963,-2.9064765,0.004846687875653843,nan,nan,nan,nan,nan,20.75996208190918,21.95996208190918,0.005754947662353516,nan,nan,nan,nan,0.7285906868280185,0.0278161023927106,0.02405467970801652,-0.0029253705625622572,nan,nan,nan,nan
30.864740133285522,-0.12860483,0.1619565,-2.9010255,0.005366647828975126,nan,nan,nan,nan,nan,20.856441974639893,22.056441974639892,0.0067403316497802734,nan,nan,nan,nan,0.7287732423901339,0.028591191589048336,0.026834070109766194,-0.0034732610832671,nan,nan,nan,nan
30.97784733772278,-0.11613097,0.13756467,-2.8982158,0.005638220271157099,nan,nan,nan,nan,nan,20.970019102096558,22.170019102096557,0.005318403244018555,nan,nan,nan,nan,0.7288446207142257,0.029078355481104195,0.03929626444910431,-0.003731368927754545,nan,nan,nan,nan
31.071184873580933,-0.09483506,0.11328915,-2.8950968,0.006210932944601925,nan,nan,nan,nan,nan,21.06287169456482,22.26287169456482,0.005911111831665039,nan,nan,nan,nan,0.7288439273971171,0.02749653704621045,0.058950336829073226,-0.0038876877397271145,nan,nan,nan,nan
31.165785312652588,-0.07232345,0.0959222,-2.8918216,0.006596945487742211,nan,nan,nan,nan,nan,21.157465934753418,22.357465934753417,0.006727695465087891,nan,nan,nan,nan,0.7288927337371358,0.020827017591416256,0.06494430884619441,-0.0040994977050711505,nan,nan,nan,nan
31.279037952423096,-0.038619373,0.070001,-2.8868694,0.006769932978798491,nan,nan,nan,nan,nan,21.270846605300903,22.470846605300903,0.005893230438232422,nan,nan,nan,nan,0.7289644519088051,0.01597690391870351,0.08535118994715808,-0.004240506426792339,nan,nan,nan,nan
31.36986207962036,-0.011998354,0.04788682,-2.882836,0.006546232020999843,nan,nan,nan,nan,nan,21.361547231674194,22.561547231674194,0.006057024002075195,nan,nan,nan,nan,0.7289751068553807,0.01449164945145438,0.09350084528717434,-0.004117249205033324,nan,nan,nan,nan
31.474411010742188,0.029141087,0.016150067,-2.8805091,0.006592069770856758,nan,nan,nan,nan,nan,21.46608328819275,22.66608328819275,0.005476713180541992,nan,nan,nan,nan,0.7289642165305895,0.021082622040972575,0.10166673537895636,-0.0041788953191969685,nan,nan,nan,nan
31.572213888168335,0.07129783,-0.0122977495,-2.879141,0.006922219668302785,nan,nan,nan,nan,nan,21.563886404037476,22.763886404037475,0.005324363708496094,nan,nan,nan,nan,0.7289256153073076,0.022465892045475146,0.1091975937327699,-0.004070358091556254,nan,nan,nan,nan
31.669128894805908,0.10354299,-0.032332327,-2.873843,0.007151493478279522,nan,nan,nan,nan,nan,21.66085147857666,22.86085147857666,0.005806922912597656,nan,nan,nan,nan,0.7289970134291094,0.022015989166540885,0.11486194232741408,-0.003978763618678338,nan,nan,nan,nan
31.77967381477356,0.14504294,-0.05889644,-2.8634732,0.007427135286925835,nan,nan,nan,nan,nan,21.771526336669922,22.97152633666992,0.005676746368408203,nan,nan,nan,nan,0.7292892303698731,0.020750737423712515,0.11198584549393885,-0.003942490631074031,nan,nan,nan,nan
31.87735867500305,0.17243895,-0.079290725,-2.8544135,0.007748719877175432,nan,nan,nan,nan,nan,21.869112968444824,23.069112968444824,0.00522613525390625,nan,nan,nan,nan,0.729595577812119,0.018649285946901864,0.09281050736255542,-0.004284746212036903,nan,nan,nan,nan
31.974976778030396,0.19716515,-0.10829441,-2.8424554,0.007261254189818785,nan,nan,nan,nan,nan,21.966651439666748,23.166651439666747,0.005255937576293945,nan,nan,nan,nan,0.7297939019998216,0.018853235898437796,0.07072373925092557,-0.004095866214407792,nan,nan,nan,nan
32.072179555892944,0.20788012,-0.12521783,-2.8335607,0.006980024925707101,nan,nan,nan,nan,nan,22.063859462738037,23.263859462738036,0.0057375431060791016,nan,nan,nan,nan,0.7299950103522044,0.018421346656349848,0.05653411505022686,-0.003442675238323306,nan,nan,nan,nan
32.17026710510254,0.22032799,-0.14675552,-2.8213062,0.0068192543116013336,nan,nan,nan,nan,nan,22.161938905715942,23.36193890571594,0.006376028060913086,nan,nan,nan,nan,0.7302351369545877,0.0130344455047852,0.017856004099562308,-0.0033803202030382317,nan,nan,nan,nan
32.2686493396759,0.22237314,-0.15661184,-2.8158295,0.006867209077271974,nan,nan,nan,nan,nan,22.260338306427002,23.460338306427,0.006361246109008789,nan,nan,nan,nan,0.7303497592022989,0.010544804943298468,0.011363773835794963,-0.0030696892691402643,nan,nan,nan,nan
