time,x,y,z,yaw,platform,trajectory,traj_double,traj_short,traj_spin,traj_time,ref_time,comptime,x_ref,y_ref,yaw_ref,z_ref,throttle_input,p_input,q_input,r_input,cbf_term_pitch_cbf,cbf_term_roll_cbf,cbf_term_thrust_cbf,cbf_term_yaw_cbf
10.070416927337646,-0.07961269,-0.08293092,-2.848206,0.013556016369719141,SIM,CIRCLE_HORIZONTAL,NormSpd,Not Short,NoSpin,0.07022881507873535,1.2702288150787353,0.008433103561401367,nan,nan,nan,nan,0.7189710500957609,0.23201411682310757,0.17866395218825584,-0.009739604417312253,nan,nan,nan,nan
10.171262979507446,-0.074471176,-0.078810126,-2.8488636,0.010952913176358083,nan,nan,nan,nan,nan,0.17104196548461914,1.371041965484619,0.0053632259368896484,nan,nan,nan,nan,0.7187330748730101,0.20789572357765793,0.2013209574431498,-0.008223372755323068,nan,nan,nan,nan
10.266769170761108,-0.069609635,-0.06812125,-2.846778,0.007055084106236752,nan,nan,nan,nan,nan,0.2665524482727051,1.466552448272705,0.006587028503417969,nan,nan,nan,nan,0.7193883699558554,0.1341605324328117,0.17419313407531967,-0.0050627793371398585,nan,nan,nan,nan
10.375445127487183,-0.06734222,-0.059602484,-2.8420694,0.005613219468364652,nan,nan,nan,nan,nan,0.3752710819244385,1.5752710819244384,0.005125761032104492,nan,nan,nan,nan,0.720676646039166,0.04083676349943467,0.13132431214611154,-0.004720455066700236,nan,nan,nan,nan
10.470807075500488,-0.066569574,-0.049296577,-2.836279,0.005375116559428503,nan,nan,nan,nan,nan,0.4705967903137207,1.6705967903137207,0.0056498050689697266,nan,nan,nan,nan,0.7222106168560729,-0.057345163877947226,0.05772693714304304,-0.0032484603720010358,nan,nan,nan,nan
10.56697154045105,-0.070196785,-0.041839056,-2.8358119,0.006528423100664708,nan,nan,nan,nan,nan,0.5668234825134277,1.7668234825134277,0.00679779052734375,nan,nan,nan,nan,0.7229868543285891,-0.1063874364870573,0.020248712830743577,-0.004851435109975839,nan,nan,nan,nan
10.66222620010376,-0.078231744,-0.022852704,-2.839312,0.009276660868400025,nan,nan,nan,nan,nan,0.662100076675415,1.862100076675415,0.00547480583190918,nan,nan,nan,nan,0.7236935045133913,-0.14397557654581852,-0.03325042409046962,-0.0058442068146011585,nan,nan,nan,nan
10.77940583229065,-0.10080088,0.0029707064,-2.8348894,0.015509813442961923,nan,nan,nan,nan,nan,0.7793023586273193,1.9793023586273193,0.00524449348449707,nan,nan,nan,nan,0.7243974156444416,-0.16006564836677173,-0.07163033577982122,-0.008701085107925475,nan,nan,nan,nan
10.872609853744507,-0.12009443,0.020071238,-2.8305173,0.02049914791206505,nan,nan,nan,nan,nan,0.8723914623260498,2.07239146232605,0.005666971206665039,nan,nan,nan,nan,0.7250181731234572,-0.167402002587836,-0.09319309744028802,-0.01378200377110488,nan,nan,nan,nan
10.96909213066101,-0.15624839,0.046425395,-2.8249378,0.029135813133036096,nan,nan,nan,nan,nan,0.9689285755157471,2.1689285755157472,0.006293296813964844,nan,nan,nan,nan,0.725831784967393,-0.1337646274972891,-0.11901349850757048,-0.018495471038029485,nan,nan,nan,nan
11.063329935073853,-0.17878063,0.06236447,-2.8236578,0.031089637231082944,nan,nan,nan,nan,nan,1.0632147789001465,2.2632147789001467,0.0056667327880859375,nan,nan,nan,nan,0.7261800408409687,-0.12587257960127504,-0.12417143729188684,-0.02246902241841359,nan,nan,nan,nan
11.176424503326416,-0.22298378,0.087877996,-2.812234,0.031465992609788884,nan,nan,nan,nan,nan,1.17624831199646,2.37624831199646,0.0052661895751953125,nan,nan,nan,nan,0.7269157031385537,-0.08467295836301703,-0.1192582635457078,-0.022854874437128428,nan,nan,nan,nan
11.272213697433472,-0.25285822,0.09655043,-2.8013842,0.03130153014074229,nan,nan,nan,nan,nan,1.2720115184783936,2.4720115184783937,0.005490541458129883,nan,nan,nan,nan,0.7275193146015996,-0.06695974228780723,-0.1139297097387855,-0.0232035221928879,nan,nan,nan,nan
11.36725401878357,-0.2872818,0.10072795,-2.7862954,0.03091350057834418,nan,nan,nan,nan,nan,1.367074728012085,2.567074728012085,0.007610797882080078,nan,nan,nan,nan,0.7283913888803174,-0.027450389392284426,-0.102237052842576,-0.022853008969428268,nan,nan,nan,nan
11.461860179901123,-0.31863445,0.100576036,-2.7680337,0.030684347838419706,nan,nan,nan,nan,nan,1.4617500305175781,2.6617500305175783,0.0056879520416259766,nan,nan,nan,nan,0.7292486084730767,0.00877295194684451,-0.08078860269390187,-0.02148072474995697,nan,nan,nan,nan
11.574822425842285,-0.34833175,0.08312392,-2.7557638,0.0365456229556447,nan,nan,nan,nan,nan,1.5747594833374023,2.7747594833374025,0.00527644157409668,nan,nan,nan,nan,0.7297499626290014,0.04126235507100324,-0.05759900505012493,-0.023145866124021117,nan,nan,nan,nan
11.670165538787842,-0.3608436,0.06407892,-2.7429767,0.04250773473779816,nan,nan,nan,nan,nan,1.6700043678283691,2.8700043678283693,0.005913972854614258,nan,nan,nan,nan,0.7301271772296363,0.05905630357366755,-0.044210291936095755,-0.0272687861424918,nan,nan,nan,nan
11.765720844268799,-0.37716022,0.027925815,-2.722016,0.05179312564456976,nan,nan,nan,nan,nan,1.7655129432678223,2.9655129432678224,0.0070993900299072266,nan,nan,nan,nan,0.7307226657903478,0.08982443429426608,-0.015208418429593184,-0.032111710130806145,nan,nan,nan,nan
11.868113040924072,-0.38560072,0.001976257,-2.707867,0.05549593663942891,nan,nan,nan,nan,nan,1.8679630756378174,3.0679630756378176,0.005658149719238281,nan,nan,nan,nan,0.7311136287277126,0.09231693287002393,-0.009531776165425653,-0.035987177804511834,nan,nan,nan,nan
11.976565837860107,-0.396686,-0.035615966,-2.6846755,0.05527010944864392,nan,nan,nan,nan,nan,1.9763731956481934,3.1763731956481935,0.0050656795501708984,nan,nan,nan,nan,0.7318228771664962,0.09262358732428828,-0.00240770290146483,-0.03692542495961934,nan,nan,nan,nan
12.074580907821655,-0.40213817,-0.0780485,-2.6743493,0.05319227539986349,nan,nan,nan,nan,nan,2.074373722076416,3.274373722076416,0.008907079696655273,nan,nan,nan,nan,0.7319878302990767,0.08463805992908757,0.003916005701902721,-0.03569597283659775,nan,nan,nan,nan
12.176000595092773,-0.40089458,-0.109722674,-2.6663558,0.05170002798127842,nan,nan,nan,nan,nan,2.1757965087890625,3.3757965087890627,0.0050885677337646484,nan,nan,nan,nan,0.7319832845330267,0.0739998588122465,-0.00027742778523908416,-0.0349078437552304,nan,nan,nan,nan
12.268616199493408,-0.3976115,-0.14511359,-2.6621056,0.04996963473016225,nan,nan,nan,nan,nan,2.268402099609375,3.468402099609375,0.007884025573730469,nan,nan,nan,nan,0.731868145733168,0.06380929441149286,0.00830718620573839,-0.03320476540660394,nan,nan,nan,nan
12.365039587020874,-0.39279407,-0.17298084,-2.6612067,0.04861094911464567,nan,nan,nan,nan,nan,2.365292549133301,3.565292549133301,0.0067365169525146484,nan,nan,nan,nan,0.7316453377181502,0.053485724514786816,-0.0006690916087965761,-0.032998801611288556,nan,nan,nan,nan
12.465062141418457,-0.37792507,-0.21830004,-2.6543877,0.04577905442926907,nan,nan,nan,nan,nan,2.4649360179901123,3.6649360179901125,0.006242036819458008,nan,nan,nan,nan,0.731441290603907,0.043453463713864604,0.008857055763124694,-0.031012896524804885,nan,nan,nan,nan
12.578289985656738,-0.36073858,-0.24936955,-2.6511986,0.042400406465923565,nan,nan,nan,nan,nan,2.578115224838257,3.778115224838257,0.0051708221435546875,nan,nan,nan,nan,0.7312758660083092,0.036146140244862256,0.013732732849426464,-0.028937327857917243,nan,nan,nan,nan
12.671000003814697,-0.34148183,-0.27262065,-2.648742,0.03914224583782619,nan,nan,nan,nan,nan,2.670830011367798,3.870830011367798,0.006132841110229492,nan,nan,nan,nan,0.7311382610182623,0.028814910973677846,0.016664660120811768,-0.0269990752964148,nan,nan,nan,nan
12.780174016952515,-0.31442696,-0.29827952,-2.6417544,0.03555003762657609,nan,nan,nan,nan,nan,2.7804489135742188,3.980448913574219,0.005354404449462891,nan,nan,nan,nan,0.7310204857330629,0.019794617756208183,0.01925541534032288,-0.024775133002882355,nan,nan,nan,nan
12.877125263214111,-0.27894354,-0.32354534,-2.6302161,0.03357970732317329,nan,nan,nan,nan,nan,2.876978874206543,4.076978874206543,0.0053060054779052734,nan,nan,nan,nan,0.7311717021802919,0.010148496897461607,0.02626023039247441,-0.022973724023533565,nan,nan,nan,nan
12.972136974334717,-0.25490794,-0.33593884,-2.624725,0.033217624653853584,nan,nan,nan,nan,nan,2.9719765186309814,4.171976518630982,0.005681037902832031,nan,nan,nan,nan,0.7312643844254935,0.012106387654754611,0.02474814604791688,-0.0229897725464527,nan,nan,nan,nan
13.064298868179321,-0.20701511,-0.35739523,-2.6142752,0.03146722238363995,nan,nan,nan,nan,nan,3.064157724380493,4.264157724380493,0.005414724349975586,nan,nan,nan,nan,0.7313288759807454,0.010433656634363112,0.04398394106154832,-0.02178872599433934,nan,nan,nan,nan
13.17922830581665,-0.16564664,-0.3734565,-2.6082463,0.030130423903285176,nan,nan,nan,nan,nan,3.1790575981140137,4.379057598114014,0.005197048187255859,nan,nan,nan,nan,0.7313103407914837,0.01725781874395289,0.04539150243854766,-0.02106414118931615,nan,nan,nan,nan
13.266256332397461,-0.12183002,-0.3861976,-2.605855,0.02906767961669755,nan,nan,nan,nan,nan,3.266085147857666,4.466085147857666,0.005440235137939453,nan,nan,nan,nan,0.731126770060415,0.01664907753043905,0.04925752877863308,-0.020195617785352914,nan,nan,nan,nan
13.375301122665405,-0.07212824,-0.39396057,-2.6056838,0.02785579821318078,nan,nan,nan,nan,nan,3.3750855922698975,4.575085592269898,0.005362749099731445,nan,nan,nan,nan,0.7307122343850367,0.014576333772185476,0.04648160372189819,-0.019079135170930944,nan,nan,nan,nan
13.468410730361938,-0.03138415,-0.39655456,-2.6040046,0.02834799391366566,nan,nan,nan,nan,nan,3.4682044982910156,4.668204498291016,0.008237838745117188,nan,nan,nan,nan,0.7305708192303821,0.016844136814888975,0.04686441692038603,-0.019463391292978974,nan,nan,nan,nan
13.562909364700317,0.022526415,-0.39117733,-2.60608,0.03185190611348678,nan,nan,nan,nan,nan,3.562861680984497,4.762861680984497,0.005494356155395508,nan,nan,nan,nan,0.7302258386666302,0.0042173644446447615,0.05133826753052724,-0.020604568061761284,nan,nan,nan,nan
13.674185276031494,0.07240615,-0.38029343,-2.6066763,0.03592638903773218,nan,nan,nan,nan,nan,3.6739912033081055,4.873991203308106,0.005314826965332031,nan,nan,nan,nan,0.729893237217805,-0.003664128654623123,0.04757162542954928,-0.022933845943005342,nan,nan,nan,nan
13.771873712539673,0.10639009,-0.3680399,-2.60645,0.03923200757843365,nan,nan,nan,nan,nan,3.771672487258911,4.971672487258911,0.008965253829956055,nan,nan,nan,nan,0.7297195029527392,-0.004692431207955197,0.04308657581390541,-0.02515331538401205,nan,nan,nan,nan
13.867167234420776,0.14561239,-0.34579405,-2.606044,0.04400575467817694,nan,nan,nan,nan,nan,3.8670296669006348,5.067029666900635,0.005934953689575195,nan,nan,nan,nan,0.7295258466726955,-0.01986007178156989,0.028762636485770137,-0.0280853804213981,nan,nan,nan,nan
13.974084854125977,0.1781953,-0.32221305,-2.6065261,0.04670227576203044,nan,nan,nan,nan,nan,3.9738821983337402,5.17388219833374,0.005499601364135742,nan,nan,nan,nan,0.7293382067196614,-0.02512787414733691,0.014458359161253254,-0.030220123489857885,nan,nan,nan,nan
14.069363594055176,0.2072314,-0.29916173,-2.610325,0.04645256101672582,nan,nan,nan,nan,nan,4.069200754165649,5.26920075416565,0.006102323532104492,nan,nan,nan,nan,0.7291098725991995,-0.02241832696319907,0.008125905837162993,-0.030681799693266558,nan,nan,nan,nan
14.163757801055908,0.23314902,-0.27941528,-2.610696,0.04460144187081624,nan,nan,nan,nan,nan,4.163699388504028,5.3636993885040285,0.005499124526977539,nan,nan,nan,nan,0.7289281077226094,-0.015306260260870005,0.006718997531549007,-0.030170015959728902,nan,nan,nan,nan
14.266334295272827,0.2714347,-0.24892797,-2.608598,0.03994568927271944,nan,nan,nan,nan,nan,4.266151666641235,5.4661516666412355,0.006714820861816406,nan,nan,nan,nan,0.7289615973770096,-0.012997576810083332,0.013932202014184875,-0.027168012782796715,nan,nan,nan,nan
14.361175537109375,0.29236257,-0.22984226,-2.6070018,0.03756769735059888,nan,nan,nan,nan,nan,4.360960245132446,5.5609602451324465,0.005379438400268555,nan,nan,nan,nan,0.7290186897963427,-0.004813921577821602,0.01889357179840886,-0.025742952580249914,nan,nan,nan,nan
14.47313404083252,0.32363492,-0.19580472,-2.595909,0.03501733180234577,nan,nan,nan,nan,nan,4.472917079925537,5.672917079925537,0.005867958068847656,nan,nan,nan,nan,0.7293024097264887,-0.003309571562795014,0.02088800288474537,-0.023824626659994005,nan,nan,nan,nan
14.566829681396484,0.34082806,-0.17594066,-2.5829277,0.034602182865381,nan,nan,nan,nan,nan,4.5666985511779785,5.766698551177979,0.00630950927734375,nan,nan,nan,nan,0.729649011383172,0.0012243882775868364,0.019935834214428017,-0.0231322370578113,nan,nan,nan,nan
14.676024198532104,0.35672462,-0.145186,-2.575143,0.03451973696906642,nan,nan,nan,nan,nan,4.67582368850708,5.87582368850708,0.005112171173095703,nan,nan,nan,nan,0.7300440734880917,0.0003143127048979331,0.011188086250440644,-0.022725593103026978,nan,nan,nan,nan
14.767036437988281,0.36372524,-0.11804719,-2.5765018,0.03474429336159727,nan,nan,nan,nan,nan,4.7668609619140625,5.966860961914063,0.00571131706237793,nan,nan,nan,nan,0.7299595199919117,0.002379003659022127,0.01038517943771275,-0.02305005713243719,nan,nan,nan,nan
14.877876281738281,0.3682852,-0.08208147,-2.5853193,0.03500649197860377,nan,nan,nan,nan,nan,4.877662897109985,6.0776628971099855,0.0051386356353759766,nan,nan,nan,nan,0.7293280013707133,-0.008303613508089938,-0.0027996978024759298,-0.02311603594193499,nan,nan,nan,nan
14.97420358657837,0.3774146,-0.047642123,-2.59624,0.03339473343755167,nan,nan,nan,nan,nan,4.974000930786133,6.174000930786133,0.006066560745239258,nan,nan,nan,nan,0.7287593193533863,-0.015080872733896255,0.002860368644769318,-0.022484553976593682,nan,nan,nan,nan
15.071542978286743,0.38600647,-0.018440442,-2.6010168,0.03057582653125583,nan,nan,nan,nan,nan,5.0713536739349365,6.271353673934937,0.00661158561706543,nan,nan,nan,nan,0.7284859033952703,-0.014202743423900916,0.015352410721500533,-0.02165507454902953,nan,nan,nan,nan
15.171589374542236,0.39241487,0.01747069,-2.6014,0.027437046759498276,nan,nan,nan,nan,nan,5.171382427215576,6.371382427215576,0.006514072418212891,nan,nan,nan,nan,0.7283220298468492,-0.02355819752000875,0.0200681167692598,-0.018977962213924515,nan,nan,nan,nan
15.27209758758545,0.39559853,0.05047544,-2.599304,0.02549781600469664,nan,nan,nan,nan,nan,5.271929979324341,6.471929979324341,0.006938934326171875,nan,nan,nan,nan,0.7284605783958872,-0.022473570288132263,0.028292084618760514,-0.01817015205080965,nan,nan,nan,nan
15.365569114685059,0.39806154,0.08430271,-2.5979323,0.024311005336459912,nan,nan,nan,nan,nan,5.365519285202026,6.5655192852020265,0.005577802658081055,nan,nan,nan,nan,0.7285973920468808,-0.02686865514418405,0.02295617177428288,-0.016795868974386945,nan,nan,nan,nan
15.460540771484375,0.39942765,0.11319795,-2.5974991,0.02304949121615405,nan,nan,nan,nan,nan,5.460331678390503,6.660331678390503,0.005139589309692383,nan,nan,nan,nan,0.7286692826768273,-0.033094306793054924,0.02294129135561133,-0.016039257920597835,nan,nan,nan,nan
15.577149868011475,0.39902845,0.1584074,-2.5970328,0.021277759312500706,nan,nan,nan,nan,nan,5.576981782913208,6.776981782913208,0.0055768489837646484,nan,nan,nan,nan,0.7287072201980184,-0.03789076810259369,0.02846362592481904,-0.015502166334643437,nan,nan,nan,nan
15.67441439628601,0.39487875,0.19099288,-2.5971363,0.020179511378290955,nan,nan,nan,nan,nan,5.674196720123291,6.874196720123291,0.006127834320068359,nan,nan,nan,nan,0.7287080072984159,-0.04180318289340171,0.019217574951658434,-0.014332028747023865,nan,nan,nan,nan
15.769827842712402,0.3810335,0.2359141,-2.5994253,0.019539250873327956,nan,nan,nan,nan,nan,5.769673585891724,6.969673585891724,0.0067043304443359375,nan,nan,nan,nan,0.7286566272742107,-0.042788680956646744,0.010421343615100276,-0.013946905020339465,nan,nan,nan,nan
15.86355996131897,0.3684465,0.2619701,-2.6029487,0.019391277226242308,nan,nan,nan,nan,nan,5.8634302616119385,7.063430261611939,0.0050640106201171875,nan,nan,nan,nan,0.7285346826437555,-0.04443640345174801,0.005387606919016226,-0.014350362406691216,nan,nan,nan,nan
15.961198329925537,0.33651522,0.2998005,-2.5983267,0.020088983334219226,nan,nan,nan,nan,nan,5.961289882659912,7.161289882659912,0.005079507827758789,nan,nan,nan,nan,0.7286356632821349,-0.040258505213714726,-0.017865851767514068,-0.014173065336555634,nan,nan,nan,nan
16.07889485359192,0.30664247,0.32726535,-2.5901246,0.01997281696557627,nan,nan,nan,nan,nan,6.078696966171265,7.278696966171265,0.005072593688964844,nan,nan,nan,nan,0.7290612523568496,-0.0340458700425917,-0.030247736837476228,-0.014637714127420442,nan,nan,nan,nan
16.176172733306885,0.2731227,0.3500613,-2.5785096,0.01900736269731756,nan,nan,nan,nan,nan,6.175966262817383,7.375966262817383,0.0053844451904296875,nan,nan,nan,nan,0.7294465469960323,-0.027916867059539677,-0.036773502650044664,-0.014303376283215102,nan,nan,nan,nan
16.270105600357056,0.24498415,0.36549708,-2.5695636,0.01797919198463356,nan,nan,nan,nan,nan,6.26993203163147,7.46993203163147,0.006151676177978516,nan,nan,nan,nan,0.7299132819976332,-0.02453649529660524,-0.03775299434418988,-0.013995591859328561,nan,nan,nan,nan
16.379292249679565,0.20659195,0.3868554,-2.562121,0.014808169906306453,nan,nan,nan,nan,nan,6.379105567932129,7.579105567932129,0.0052318572998046875,nan,nan,nan,nan,0.7302612938071935,-0.023093992445752734,-0.04268798914267536,-0.012203735838079953,nan,nan,nan,nan
16.472081184387207,0.15833977,0.40312093,-2.5599883,0.013873973805312393,nan,nan,nan,nan,nan,6.471963405609131,7.671963405609131,0.006959199905395508,nan,nan,nan,nan,0.7302931040886588,-0.016815323476735297,-0.04907955929574643,-0.010727502825073905,nan,nan,nan,nan
16.565045595169067,0.13253061,0.41294065,-2.5630748,0.01346528006744413,nan,nan,nan,nan,nan,6.5649425983428955,7.764942598342896,0.005120754241943359,nan,nan,nan,nan,0.7302006664367051,-0.020011695830249098,-0.04355091103876794,-0.010985192119678909,nan,nan,nan,nan
16.665449619293213,0.091825694,0.4248954,-2.5659997,0.012545188200042277,nan,nan,nan,nan,nan,6.665390253067017,7.865390253067017,0.007331371307373047,nan,nan,nan,nan,0.729773298574902,-0.01552178734438761,-0.038671150095997975,-0.00981497454842503,nan,nan,nan,nan
16.762813568115234,0.06463684,0.4295079,-2.5648952,0.012567659996754292,nan,nan,nan,nan,nan,6.762607574462891,7.962607574462891,0.005206108093261719,nan,nan,nan,nan,0.7298229544525219,-0.018278805755267948,-0.03120053583115179,-0.010059315332452565,nan,nan,nan,nan
16.87259793281555,0.007017004,0.43832448,-2.5653,0.01192321296255085,nan,nan,nan,nan,nan,6.872390031814575,8.072390031814574,0.006657838821411133,nan,nan,nan,nan,0.7297827754934976,-0.01946470717248704,-0.03200084339619685,-0.009863081015958628,nan,nan,nan,nan
16.96722984313965,-0.031408645,0.44043463,-2.56762,0.01046759243829333,nan,nan,nan,nan,nan,6.967267990112305,8.167267990112304,0.005224466323852539,nan,nan,nan,nan,0.7296549116348677,-0.019146072854169614,-0.0361118442133054,-0.00925777793563796,nan,nan,nan,nan
17.08011555671692,-0.079632565,0.44099855,-2.570059,0.007194379661444549,nan,nan,nan,nan,nan,7.079899549484253,8.279899549484252,0.005279064178466797,nan,nan,nan,nan,0.7294723441849469,-0.014555345998358138,-0.036409547130802106,-0.007144995042596806,nan,nan,nan,nan
17.16329789161682,-0.10874024,0.43878087,-2.5752635,0.005592954061971307,nan,nan,nan,nan,nan,7.163079023361206,8.363079023361205,0.00551152229309082,nan,nan,nan,nan,0.7293754465299117,-0.01507230913133885,-0.03143148770069928,-0.005716447123904735,nan,nan,nan,nan
17.278173208236694,-0.15340906,0.42934868,-2.5874927,0.005641158137569682,nan,nan,nan,nan,nan,7.277992248535156,8.477992248535156,0.005511283874511719,nan,nan,nan,nan,0.728818178566806,-0.009910880690614382,-0.026822690160578998,-0.005130138391265926,nan,nan,nan,nan
17.374598026275635,-0.18673359,0.41718826,-2.5963237,0.006785383752841694,nan,nan,nan,nan,nan,7.37446665763855,8.574466657638549,0.00872945785522461,nan,nan,nan,nan,0.728465571641168,-0.0045922166536049545,-0.02795365227874902,-0.005844781647726775,nan,nan,nan,nan
17.473102807998657,-0.21427919,0.40169662,-2.6004682,0.007730428197651563,nan,nan,nan,nan,nan,7.472910165786743,8.672910165786742,0.006392002105712891,nan,nan,nan,nan,0.7282904116539989,-0.0014761691717638428,-0.028775431653186495,-0.006652394171322236,nan,nan,nan,nan
17.56889510154724,-0.25017473,0.37515885,-2.6052272,0.008473776124840956,nan,nan,nan,nan,nan,7.568777322769165,8.768777322769164,0.0061664581298828125,nan,nan,nan,nan,0.7281882853612903,0.016633553817419544,-0.027500402205225247,-0.00687761795841553,nan,nan,nan,nan
17.680282592773438,-0.282671,0.3433152,-2.6100643,0.008796085421379052,nan,nan,nan,nan,nan,7.6800689697265625,8.880068969726562,0.00511479377746582,nan,nan,nan,nan,0.7281729988676827,0.030272718012391384,-0.025723701785127975,-0.006919174647001481,nan,nan,nan,nan
17.77604842185974,-0.3016256,0.3205465,-2.6138139,0.009026698159812493,nan,nan,nan,nan,nan,7.775829553604126,8.975829553604125,0.005707740783691406,nan,nan,nan,nan,0.7281400727907064,0.028809541355345504,-0.026883398953243456,-0.007482704085874921,nan,nan,nan,nan
17.872868299484253,-0.3228726,0.28650007,-2.6163576,0.008715805633682095,nan,nan,nan,nan,nan,7.87269926071167,9.07269926071167,0.006560087203979492,nan,nan,nan,nan,0.7281478553155283,0.03555550053962544,-0.01900829450863831,-0.007069411198980101,nan,nan,nan,nan
17.965685606002808,-0.3287612,0.25915107,-2.6188693,0.008935831526957845,nan,nan,nan,nan,nan,7.965493440628052,9.165493440628051,0.005185127258300781,nan,nan,nan,nan,0.7281590228654479,0.03017930428010339,-0.016637735551246858,-0.007125683919403056,nan,nan,nan,nan
18.07819628715515,-0.33389837,0.21674408,-2.6210055,0.009978100405974225,nan,nan,nan,nan,nan,8.077984094619751,9.27798409461975,0.005136251449584961,nan,nan,nan,nan,0.7281346792369003,0.03113458904924724,-0.0021934860630580207,-0.007380405264074543,nan,nan,nan,nan
18.172114372253418,-0.33707288,0.17225468,-2.6210518,0.011464963646111513,nan,nan,nan,nan,nan,8.171926259994507,9.371926259994506,0.007607221603393555,nan,nan,nan,nan,0.7282432872457224,0.03734470567255967,0.00998875078629553,-0.007967214802797802,nan,nan,nan,nan
18.269014596939087,-0.3376495,0.14086789,-2.620566,0.01250647280056311,nan,nan,nan,nan,nan,8.268997192382812,9.468997192382812,0.005649089813232422,nan,nan,nan,nan,0.728400324063494,0.03351117455770102,0.009049508774057639,-0.008837153662120557,nan,nan,nan,nan
18.362654209136963,-0.33920133,0.08917145,-2.6150281,0.012996603755492189,nan,nan,nan,nan,nan,8.362447738647461,9.56244773864746,0.005307912826538086,nan,nan,nan,nan,0.7287237797696723,0.04142507257636241,0.011177383909882866,-0.009196779146454042,nan,nan,nan,nan
18.476757287979126,-0.33629704,0.041678023,-2.6166327,0.012092237641659948,nan,nan,nan,nan,nan,8.476542472839355,9.676542472839355,0.006057024002075195,nan,nan,nan,nan,0.7288426887049817,0.04235293292235405,0.0020033655940472433,-0.009040937705072213,nan,nan,nan,nan
18.572155475616455,-0.3331868,0.005747631,-2.6190395,0.010710029652998382,nan,nan,nan,nan,nan,8.571977853775024,9.771977853775024,0.0068662166595458984,nan,nan,nan,nan,0.7287862218369525,0.04153294856108853,-0.006233202798338453,-0.008497029523515116,nan,nan,nan,nan
18.671944618225098,-0.32942757,-0.04708793,-2.621826,0.008000595811221983,nan,nan,nan,nan,nan,8.671797037124634,9.871797037124633,0.007960081100463867,nan,nan,nan,nan,0.7286857616639629,0.042443316308400765,-0.007630122473570499,-0.0066541593275773634,nan,nan,nan,nan
18.776712894439697,-0.32885873,-0.08148612,-2.6218204,0.006062375667235529,nan,nan,nan,nan,nan,8.776500463485718,9.976500463485717,0.0059452056884765625,nan,nan,nan,nan,0.7288052480780033,0.03996616541650003,-0.022733095177477652,-0.005708011711909578,nan,nan,nan,nan
18.869482278823853,-0.329619,-0.12480286,-2.6212144,0.00208714423574236,nan,nan,nan,nan,nan,8.869489669799805,10.069489669799804,0.005389690399169922,nan,nan,nan,nan,0.7289527850835463,0.03718094053192657,-0.02515352205057369,-0.00317900054960534,nan,nan,nan,nan
18.96742033958435,-0.33167893,-0.1669439,-2.6311493,-0.0012727029921742131,nan,nan,nan,nan,nan,8.967347860336304,10.167347860336303,0.005220651626586914,nan,nan,nan,nan,0.7287893341153905,0.03514451445063412,-0.030829491132080843,-0.0012292194496023126,nan,nan,nan,nan
19.069100856781006,-0.33020258,-0.20487043,-2.6393533,-0.00347412011103754,nan,nan,nan,nan,nan,9.069387674331665,10.269387674331664,0.00555729866027832,nan,nan,nan,nan,0.7284040710172893,0.03560957677278513,-0.034535372299128723,0.0002582790145145299,nan,nan,nan,nan
19.16453766822815,-0.3248903,-0.23467799,-2.6446693,-0.004607826064363321,nan,nan,nan,nan,nan,9.164402484893799,10.364402484893798,0.005099058151245117,nan,nan,nan,nan,0.728276417907023,0.035317926029517784,-0.036597198435126176,0.0008859423818580534,nan,nan,nan,nan
19.264347076416016,-0.3075338,-0.272972,-2.6527689,-0.005417752067346674,nan,nan,nan,nan,nan,9.26415491104126,10.464154911041259,0.0051059722900390625,nan,nan,nan,nan,0.7280732412934737,0.03441546780095381,-0.020399462676709685,0.0014261733753927247,nan,nan,nan,nan
19.362830638885498,-0.28694433,-0.30400798,-2.6588335,-0.005263460631065555,nan,nan,nan,nan,nan,9.362622737884521,10.56262273788452,0.005800962448120117,nan,nan,nan,nan,0.7279270183133066,0.027030600361160163,0.005781496153242535,0.0018342039579221743,nan,nan,nan,nan
19.477184295654297,-0.25885585,-0.3333485,-2.66053,-0.004120385482092823,nan,nan,nan,nan,nan,9.476976156234741,10.67697615623474,0.006074428558349609,nan,nan,nan,nan,0.7279991934754778,0.020434550721235352,0.01630666981963914,0.0012086989220303306,nan,nan,nan,nan
19.576429843902588,-0.23833711,-0.352518,-2.6624727,-0.0036346487017404876,nan,nan,nan,nan,nan,9.576229333877563,10.776229333877563,0.0062940120697021484,nan,nan,nan,nan,0.728135417607245,0.01798806020851543,0.021065342154656743,0.00022459023165829467,nan,nan,nan,nan
19.66768217086792,-0.20938788,-0.3773145,-2.665361,-0.003911212329833852,nan,nan,nan,nan,nan,9.667546510696411,10.86754651069641,0.005194664001464844,nan,nan,nan,nan,0.7281148584151709,0.01574189174222652,0.0351176944470032,0.0005339673931928092,nan,nan,nan,nan
19.765578269958496,-0.18572257,-0.3963282,-2.6629703,-0.005083973863724363,nan,nan,nan,nan,nan,9.765366554260254,10.965366554260253,0.005222320556640625,nan,nan,nan,nan,0.7283264760356108,0.024266126867257532,0.03476540599308735,0.0006982116116754338,nan,nan,nan,nan
19.879389762878418,-0.14725585,-0.41759706,-2.663801,-0.007000171471540724,nan,nan,nan,nan,nan,9.879173755645752,11.079173755645751,0.0054705142974853516,nan,nan,nan,nan,0.7284907622212276,0.028894803794113886,0.03836564290886377,0.001772088478495412,nan,nan,nan,nan
19.971654653549194,-0.11219824,-0.43213043,-2.6662152,-0.008419815528898771,nan,nan,nan,nan,nan,9.971513509750366,11.171513509750366,0.006407976150512695,nan,nan,nan,nan,0.7285137953742741,0.030498239478271388,0.04173146142046034,0.0025866428765930413,nan,nan,nan,nan
20.072797298431396,-0.054870825,-0.4470368,-2.6725585,-0.009761281747023289,nan,nan,nan,nan,nan,10.072651386260986,11.272651386260986,0.00673222541809082,nan,nan,nan,nan,0.7284637559292009,0.025634898584401627,0.055279393019059146,0.004208832747826919,nan,nan,nan,nan
20.1655912399292,-0.017263573,-0.45168704,-2.6773598,-0.00993512731212377,nan,nan,nan,nan,nan,10.165375232696533,11.365375232696532,0.005235195159912109,nan,nan,nan,nan,0.7283246745241343,0.02809118650990027,0.06419475774104777,0.0038486134421252052,nan,nan,nan,nan
20.279395818710327,0.050388757,-0.4553057,-2.6868396,-0.0105488279682905,nan,nan,nan,nan,nan,10.279179334640503,11.479179334640502,0.0057070255279541016,nan,nan,nan,nan,0.7281006779354143,0.018361616978024388,0.078837247692576,0.004176420788411612,nan,nan,nan,nan
20.370755195617676,0.101107694,-0.45002988,-2.6851456,-0.010140546793974449,nan,nan,nan,nan,nan,10.370682954788208,11.570682954788207,0.0055694580078125,nan,nan,nan,nan,0.728175395096143,0.003925273935871961,0.08179258980294349,0.004687857029733723,nan,nan,nan,nan
20.47165012359619,0.14235657,-0.44309303,-2.68651,-0.009872795941108615,nan,nan,nan,nan,nan,10.471529722213745,11.671529722213744,0.0058209896087646484,nan,nan,nan,nan,0.728323644136765,0.004442040242106747,0.07775006888707997,0.0038980064350884885,nan,nan,nan,nan
20.563308477401733,0.20399453,-0.4287609,-2.6928253,-0.01031534831896774,nan,nan,nan,nan,nan,10.563129901885986,11.763129901885986,0.005684375762939453,nan,nan,nan,nan,0.7282436091972032,-0.01298045557662999,0.06785738582006073,0.004747718634812524,nan,nan,nan,nan
20.678636074066162,0.26074937,-0.40842155,-2.700151,-0.011203893873392655,nan,nan,nan,nan,nan,10.678470134735107,11.878470134735107,0.005606412887573242,nan,nan,nan,nan,0.7280128874183167,-0.017588524218689148,0.0620735043145837,0.005437276019870721,nan,nan,nan,nan
20.772359371185303,0.29427442,-0.38761964,-2.7023196,-0.011044581844951974,nan,nan,nan,nan,nan,10.772180318832397,11.972180318832397,0.005844593048095703,nan,nan,nan,nan,0.7279983517960434,-0.021583512526234343,0.05753798347218323,0.005106519187064103,nan,nan,nan,nan
20.870502710342407,0.347475,-0.34449163,-2.7063842,-0.009381306576995664,nan,nan,nan,nan,nan,10.87042784690857,12.070427846908569,0.005754709243774414,nan,nan,nan,nan,0.7279608460373158,-0.041043187525319276,0.044098240891884286,0.005121714962981195,nan,nan,nan,nan
20.963074684143066,0.37540457,-0.31747535,-2.7095807,-0.007978492890138042,nan,nan,nan,nan,nan,10.962892532348633,12.162892532348632,0.005398750305175781,nan,nan,nan,nan,0.7279313073494268,-0.04376721216751138,0.038579900159445894,0.003733467377463704,nan,nan,nan,nan
21.0627338886261,0.41751957,-0.27007362,-2.7143571,-0.005735552619117748,nan,nan,nan,nan,nan,11.062521934509277,12.262521934509277,0.0054967403411865234,nan,nan,nan,nan,0.7277849065034006,-0.04754214608356045,0.024119122302514635,0.0027717654088096596,nan,nan,nan,nan
21.177141904830933,0.45014012,-0.22473006,-2.7164538,-0.004405145288627756,nan,nan,nan,nan,nan,11.177021741867065,12.377021741867065,0.006453514099121094,nan,nan,nan,nan,0.7277704060346657,-0.04804207823231172,0.018366426604413642,0.0015989352283093028,nan,nan,nan,nan
21.274865865707397,0.46830645,-0.18675803,-2.7171872,-0.0030185034832837954,nan,nan,nan,nan,nan,11.274662256240845,12.474662256240844,0.007102251052856445,nan,nan,nan,nan,0.7277964560815553,-0.04462937289456652,0.015001287615737833,0.000617466355343465,nan,nan,nan,nan
21.373968362808228,0.48266122,-0.12724346,-2.7207806,-0.000757888681277435,nan,nan,nan,nan,nan,11.373921155929565,12.573921155929565,0.00719761848449707,nan,nan,nan,nan,0.7277550372476694,-0.05028556064985266,-0.005378854855911196,-0.0002798817170530412,nan,nan,nan,nan
21.470080137252808,0.48549256,-0.09050573,-2.715997,0.0004615600218405068,nan,nan,nan,nan,nan,11.470002174377441,12.67000217437744,0.007633209228515625,nan,nan,nan,nan,0.7277794888052452,-0.04726895902286732,-0.011866035373737508,-0.001613910847438974,nan,nan,nan,nan
21.565765142440796,0.4845693,-0.048832692,-2.706946,0.0013918163509563277,nan,nan,nan,nan,nan,11.565548181533813,12.765548181533813,0.005242824554443359,nan,nan,nan,nan,0.728391123382745,-0.040736555664140306,-0.028482232278774968,-0.0021612186343272165,nan,nan,nan,nan
21.678447246551514,0.478252,0.0054786284,-2.698734,0.002169099476062878,nan,nan,nan,nan,nan,11.6782546043396,12.878254604339599,0.006106376647949219,nan,nan,nan,nan,0.7287387843228191,-0.03107828333361494,-0.03184855214841797,-0.002736496288233905,nan,nan,nan,nan
21.772393703460693,0.46960112,0.03550283,-2.6918912,0.0024144473387408306,nan,nan,nan,nan,nan,11.772297143936157,12.972297143936157,0.006921529769897461,nan,nan,nan,nan,0.7290562035884706,-0.024570969920856264,-0.029932635341167614,-0.0030424719410428137,nan,nan,nan,nan
21.86689257621765,0.44928852,0.08423825,-2.6830368,0.0019122003609656655,nan,nan,nan,nan,nan,11.866700649261475,13.066700649261474,0.0051250457763671875,nan,nan,nan,nan,0.7294111104194674,-0.02395015904067446,-0.03619793626876839,-0.0027559294425802926,nan,nan,nan,nan
21.962834358215332,0.43464023,0.11535671,-2.6817908,0.001127064956966485,nan,nan,nan,nan,nan,11.962646484375,13.162646484375,0.00585174560546875,nan,nan,nan,nan,0.7295729188538728,-0.023648276594045264,-0.031239784102811922,-0.00237593724252924,nan,nan,nan,nan
22.064642906188965,0.40997276,0.16499494,-2.6902785,-0.0008529832690107337,nan,nan,nan,nan,nan,12.06442666053772,13.264426660537719,0.005427837371826172,nan,nan,nan,nan,0.7291222049123994,-0.02597359299910327,-0.02647899204552091,-0.0012051946086893146,nan,nan,nan,nan
22.177610635757446,0.3840843,0.21021792,-2.6992939,-0.0024132011317027375,nan,nan,nan,nan,nan,12.177398920059204,13.377398920059203,0.00795125961303711,nan,nan,nan,nan,0.7285078808226357,-0.02649666535694398,-0.020213514558875018,-0.00011437764527864582,nan,nan,nan,nan
22.27315926551819,0.36787227,0.23582253,-2.7008264,-0.003461078435238671,nan,nan,nan,nan,nan,12.272969007492065,13.472969007492065,0.005846500396728516,nan,nan,nan,nan,0.7283350173478111,-0.027294655968116813,-0.010676733149276266,0.0003683080789900262,nan,nan,nan,nan
22.36255168914795,0.33727735,0.2719503,-2.7089827,-0.004176835296718005,nan,nan,nan,nan,nan,12.362338066101074,13.562338066101074,0.005810976028442383,nan,nan,nan,nan,0.7281003422527166,-0.025437786463607222,-0.009791496833271419,0.0011822802348277893,nan,nan,nan,nan
22.465712308883667,0.31439844,0.2968889,-2.7140899,-0.004240171928070833,nan,nan,nan,nan,nan,12.465497732162476,13.665497732162475,0.005402088165283203,nan,nan,nan,nan,0.7277340641141452,-0.023646903949264688,-0.0063713810266134655,0.0010912285075772273,nan,nan,nan,nan
22.56011724472046,0.28189656,0.33396867,-2.7170653,-0.0040887484089410404,nan,nan,nan,nan,nan,12.559991836547852,13.75999183654785,0.00738072395324707,nan,nan,nan,nan,0.7276278260940133,-0.022161042995950092,-0.008832404407584567,0.0011602212583532855,nan,nan,nan,nan
22.663551092147827,0.26120126,0.3573252,-2.7184203,-0.004297110315117382,nan,nan,nan,nan,nan,12.663336992263794,13.863336992263793,0.006827831268310547,nan,nan,nan,nan,0.7276391075161217,-0.027256623246328583,0.0003746910063951968,0.000918587232337617,nan,nan,nan,nan
22.776954650878906,0.2273735,0.3800505,-2.7217145,-0.0038650811773762936,nan,nan,nan,nan,nan,12.776777982711792,13.976777982711791,0.009394645690917969,nan,nan,nan,nan,0.7276167869803002,-0.02629800224069976,0.0014313776666562258,0.0007952530770690671,nan,nan,nan,nan
22.869055032730103,0.197823,0.3931233,-2.7278228,-0.0030006567869794998,nan,nan,nan,nan,nan,12.868836164474487,14.068836164474487,0.00504755973815918,nan,nan,nan,nan,0.7274648795504456,-0.011792210474917925,-0.006211937700351798,0.00046074645797250947,nan,nan,nan,nan
22.962442874908447,0.1749235,0.40075248,-2.7326188,-0.002373184386283214,nan,nan,nan,nan,nan,12.962314367294312,14.16231436729431,0.0067291259765625,nan,nan,nan,nan,0.7273771845353593,-0.011785488451082802,0.0002319651026115217,-0.00018055134498317388,nan,nan,nan,nan
23.073872566223145,0.14039415,0.4100818,-2.7383287,-0.002261958568419261,nan,nan,nan,nan,nan,13.07379674911499,14.27379674911499,0.005620002746582031,nan,nan,nan,nan,0.7272857780133763,-0.006234330174258665,-0.004232133741539877,-0.0004426069769910419,nan,nan,nan,nan
23.16879653930664,0.100516215,0.41813245,-2.7421052,-0.002410238878053427,nan,nan,nan,nan,nan,13.168582439422607,14.368582439422607,0.005537748336791992,nan,nan,nan,nan,0.7272666779905186,-0.0010944222583461197,-0.017763141949669967,-0.00021702839669624757,nan,nan,nan,nan
23.270623683929443,0.06725056,0.41819984,-2.7439847,-0.002184211455286151,nan,nan,nan,nan,nan,13.270453691482544,14.470453691482543,0.00519561767578125,nan,nan,nan,nan,0.7273221139130374,-0.005996450234567377,-0.023123923853137524,-0.0005367811192891291,nan,nan,nan,nan
23.36500096321106,0.018999116,0.4155476,-2.7477052,-0.0013260788278478056,nan,nan,nan,nan,nan,13.364786624908447,14.564786624908447,0.0057680606842041016,nan,nan,nan,nan,0.7273711468255419,0.0023576409485496874,-0.04169715222556912,-0.0006249746450635385,nan,nan,nan,nan
23.476483821868896,-0.03756479,0.40764207,-2.7530823,0.00035089213948042916,nan,nan,nan,nan,nan,13.476273536682129,14.676273536682128,0.00699925422668457,nan,nan,nan,nan,0.7273211852063518,0.00201890932165576,-0.04985150448610298,-0.0014090166299942815,nan,nan,nan,nan
23.57844591140747,-0.07221049,0.40041074,-2.7556603,0.0013706893450674482,nan,nan,nan,nan,nan,13.578245401382446,14.778245401382446,0.005963563919067383,nan,nan,nan,nan,0.7272185892880426,-5.452538854201136e-05,-0.057059826827126216,-0.0026348697844006644,nan,nan,nan,nan
23.67308783531189,-0.122156665,0.38436726,-2.7557182,0.0032034420014751333,nan,nan,nan,nan,nan,13.67293405532837,14.872934055328368,0.0071637630462646484,nan,nan,nan,nan,0.7272407292417254,0.006953551348519648,-0.05868931670542461,-0.00324729216297296,nan,nan,nan,nan
23.768728017807007,-0.15106446,0.3689416,-2.7593107,0.004289690871986409,nan,nan,nan,nan,nan,13.76851487159729,14.96851487159729,0.005188465118408203,nan,nan,nan,nan,0.7272393213274064,0.003796721375895846,-0.05413718225730404,-0.00426598164250879,nan,nan,nan,nan
23.867054224014282,-0.18739748,0.34804502,-2.7597759,0.005437339906524783,nan,nan,nan,nan,nan,13.866925477981567,15.066925477981567,0.005482673645019531,nan,nan,nan,nan,0.727185705489475,0.011213023899008674,-0.040091766066709035,-0.004591873272168893,nan,nan,nan,nan
23.9795024394989,-0.21459188,0.33056155,-2.7565331,0.006221847900018677,nan,nan,nan,nan,nan,13.979302406311035,15.179302406311034,0.006242036819458008,nan,nan,nan,nan,0.7273871587504955,0.00934158108043335,-0.026668244215100115,-0.005170773538591789,nan,nan,nan,nan
24.073040008544922,-0.251079,0.3030259,-2.7488053,0.0075550685396745774,nan,nan,nan,nan,nan,14.072960376739502,15.272960376739501,0.0049686431884765625,nan,nan,nan,nan,0.7277767099858465,0.011245109264890599,-0.020594440913134865,-0.005740222462979537,nan,nan,nan,nan
24.163079500198364,-0.26860446,0.28726298,-2.745928,0.00824785792584669,nan,nan,nan,nan,nan,14.162886381149292,15.362886381149291,0.00709986686706543,nan,nan,nan,nan,0.727960780710048,0.004031777601434034,-0.01715004858322206,-0.006463704699465519,nan,nan,nan,nan
24.273823976516724,-0.29059473,0.25558376,-2.7454093,0.009201522315673071,nan,nan,nan,nan,nan,14.273669719696045,15.473669719696044,0.005285978317260742,nan,nan,nan,nan,0.7280858966271215,0.004603937450832274,-0.010018348943897911,-0.006978396978048263,nan,nan,nan,nan
24.37005615234375,-0.31235418,0.22545923,-2.7473264,0.009515636246414643,nan,nan,nan,nan,nan,14.369860887527466,15.569860887527465,0.005002737045288086,nan,nan,nan,nan,0.7280040468307841,0.014571023220381986,-0.0027925912124872896,-0.0071301851373599305,nan,nan,nan,nan
24.46510648727417,-0.32907444,0.20481591,-2.744586,0.009202097518819178,nan,nan,nan,nan,nan,14.464924573898315,15.664924573898315,0.006108522415161133,nan,nan,nan,nan,0.7279465496448279,0.006991589691092594,-0.008485628200267884,-0.007282948653006847,nan,nan,nan,nan
24.560569524765015,-0.3517842,0.17634827,-2.7306037,0.00825920592773754,nan,nan,nan,nan,nan,14.560397863388062,15.76039786338806,0.00940394401550293,nan,nan,nan,nan,0.7285244687943597,0.008363833539846124,-0.015751140391123897,-0.006684767920394957,nan,nan,nan,nan
24.67324137687683,-0.3681615,0.14690417,-2.707447,0.007671160013284539,nan,nan,nan,nan,nan,14.673212051391602,15.8732120513916,0.005290508270263672,nan,nan,nan,nan,0.7294458877345339,0.009222524623554407,-0.019009298076943206,-0.00614299537471559,nan,nan,nan,nan
24.768999814987183,-0.37572402,0.12346696,-2.6922977,0.007272635962376904,nan,nan,nan,nan,nan,14.76882004737854,15.96882004737854,0.005725860595703125,nan,nan,nan,nan,0.7299544400991901,0.006456144384829338,-0.02362799587778877,-0.006173877854347871,nan,nan,nan,nan
24.876395225524902,-0.3844342,0.08965576,-2.6755092,0.006653364213988866,nan,nan,nan,nan,nan,14.876224040985107,16.076224040985107,0.00597691535949707,nan,nan,nan,nan,0.7305531123030012,0.013921489745740933,-0.01987928848135944,-0.005793927612643378,nan,nan,nan,nan
24.96539545059204,-0.38740587,0.05979075,-2.664631,0.0062008652238330015,nan,nan,nan,nan,nan,14.965182542800903,16.165182542800903,0.00572967529296875,nan,nan,nan,nan,0.7307866063523643,0.01959066799586049,-0.017133146646915055,-0.005246009684822342,nan,nan,nan,nan
25.072726488113403,-0.3777128,0.023522483,-2.6545608,0.0065005870538184605,nan,nan,nan,nan,nan,15.072553634643555,16.272553634643554,0.005983591079711914,nan,nan,nan,nan,0.7309313231709637,0.025268478960341487,-0.004826141202501855,-0.0052040227068498625,nan,nan,nan,nan
25.167820930480957,-0.36434394,0.00071637565,-2.6502588,0.0064874956890731495,nan,nan,nan,nan,nan,15.167617797851562,16.367617797851562,0.005482673645019531,nan,nan,nan,nan,0.7309257054086631,0.02644066729328096,0.002022906954759588,-0.005470275918775646,nan,nan,nan,nan
25.27850842475891,-0.3405094,-0.040007133,-2.6503394,0.005967289145828433,nan,nan,nan,nan,nan,15.278304100036621,16.47830410003662,0.006589651107788086,nan,nan,nan,nan,0.7306942457208195,0.03196731226133622,0.01532654917516385,-0.005194197414686707,nan,nan,nan,nan
25.372676372528076,-0.31030247,-0.08506375,-2.6501327,0.005430469341933393,nan,nan,nan,nan,nan,15.372593879699707,16.572593879699706,0.0052928924560546875,nan,nan,nan,nan,0.7303094827222855,0.03967782015466466,0.028778484956538643,-0.004410385138336852,nan,nan,nan,nan
25.469205856323242,-0.2929162,-0.10876653,-2.6489613,0.005398904545036393,nan,nan,nan,nan,nan,15.468994617462158,16.668994617462157,0.005532503128051758,nan,nan,nan,nan,0.7302172027619825,0.04105924948054594,0.022605093630322388,-0.004694588820194887,nan,nan,nan,nan
25.578302145004272,-0.26160872,-0.15258412,-2.6470773,0.005652351894008237,nan,nan,nan,nan,nan,15.578120231628418,16.778120231628417,0.006151914596557617,nan,nan,nan,nan,0.7300499354084633,0.047030793650276376,0.027167409850823047,-0.004756173488210226,nan,nan,nan,nan
25.669018507003784,-0.23177582,-0.1868518,-2.6413858,0.0061078480736262205,nan,nan,nan,nan,nan,15.66888165473938,16.86888165473938,0.005750894546508789,nan,nan,nan,nan,0.7300420966798244,0.05076748028930696,0.02627683704287953,-0.004985677145481129,nan,nan,nan,nan
25.765352964401245,-0.19095467,-0.2283356,-2.637197,0.006833852688421715,nan,nan,nan,nan,nan,15.765175819396973,16.965175819396972,0.0066356658935546875,nan,nan,nan,nan,0.7300506680587473,0.049104425297919176,0.033416807895430854,-0.005103662234661697,nan,nan,nan,nan
25.874316930770874,-0.15527725,-0.2617549,-2.6385896,0.007194446103226934,nan,nan,nan,nan,nan,15.874227046966553,17.074227046966552,0.005138874053955078,nan,nan,nan,nan,0.7298508779789324,0.0444014962889262,0.02967157082130888,-0.005519945011470877,nan,nan,nan,nan
25.965449810028076,-0.12735066,-0.28663775,-2.641504,0.007064284253395693,nan,nan,nan,nan,nan,15.965242147445679,17.165242147445678,0.0070858001708984375,nan,nan,nan,nan,0.7296501442888199,0.04588555340832905,0.019929001357418333,-0.005814347401960618,nan,nan,nan,nan
26.07909870147705,-0.07811309,-0.32583037,-2.6471858,0.006284050858183194,nan,nan,nan,nan,nan,16.078913927078247,17.278913927078246,0.006819486618041992,nan,nan,nan,nan,0.7292065062543008,0.041733561588741794,0.025397023482823345,-0.0051296518397475135,nan,nan,nan,nan
26.163081169128418,-0.04262124,-0.34493998,-2.6489892,0.006402504645201874,nan,nan,nan,nan,nan,16.162890911102295,17.362890911102294,0.006737470626831055,nan,nan,nan,nan,0.7290252550313897,0.03715880642978035,0.02593975704523556,-0.005075713753632907,nan,nan,nan,nan
26.27220845222473,-0.0026842495,-0.36718687,-2.6511154,0.006356019318470593,nan,nan,nan,nan,nan,16.2719886302948,17.4719886302948,0.005086421966552734,nan,nan,nan,nan,0.7288341700715504,0.02743592251208129,0.02387835678053931,-0.0051589676401898425,nan,nan,nan,nan
26.372843027114868,0.024932561,-0.3809433,-2.6534212,0.0061193649358646,nan,nan,nan,nan,nan,16.37268614768982,17.57268614768982,0.007005929946899414,nan,nan,nan,nan,0.7287259820147649,0.027638335790159372,0.016013110840160442,-0.0053006652089094,nan,nan,nan,nan
26.477457761764526,0.05821196,-0.3942132,-2.6570346,0.0059404415801850245,nan,nan,nan,nan,nan,16.47726607322693,17.677266073226928,0.0068628787994384766,nan,nan,nan,nan,0.7285264252334209,0.020634379730098948,0.014177331607606801,-0.005180460047628494,nan,nan,nan,nan
26.577704906463623,0.098131366,-0.40266997,-2.659224,0.0056188224456167335,nan,nan,nan,nan,nan,16.577494621276855,17.777494621276855,0.006281137466430664,nan,nan,nan,nan,0.7284620718426248,0.0116168976461168,0.013434107145525773,-0.004897071013084411,nan,nan,nan,nan
26.68024492263794,0.12302022,-0.40593222,-2.6634398,0.005314819832126536,nan,nan,nan,nan,nan,16.680066347122192,17.88006634712219,0.009689092636108398,nan,nan,nan,nan,0.7283523515750565,0.010332518873198632,0.011133484282838066,-0.00489387201141955,nan,nan,nan,nan
26.77892518043518,0.16049744,-0.40199187,-2.672333,0.005124888354474232,nan,nan,nan,nan,nan,16.778724193572998,17.978724193572997,0.0066111087799072266,nan,nan,nan,nan,0.7280407521184195,-0.0003274871415069795,0.012960415838796287,-0.004518863116378705,nan,nan,nan,nan
26.868648290634155,0.18920548,-0.39086735,-2.6832983,0.005491057757415371,nan,nan,nan,nan,nan,16.868430852890015,18.068430852890014,0.0055577754974365234,nan,nan,nan,nan,0.7277698207776356,-0.006791891165516643,0.014934389360586827,-0.004569599275513825,nan,nan,nan,nan
26.96893000602722,0.21167275,-0.37764516,-2.693185,0.006130592091755652,nan,nan,nan,nan,nan,16.968809843063354,18.168809843063354,0.006880521774291992,nan,nan,nan,nan,0.7273820923293932,-0.010959200193966182,0.01415936120984535,-0.005053358532394229,nan,nan,nan,nan
27.076163053512573,0.24182113,-0.35151827,-2.7125814,0.006226644726188264,nan,nan,nan,nan,nan,17.076358795166016,18.276358795166015,0.0063588619232177734,nan,nan,nan,nan,0.7267400017602825,-0.02804240404153045,0.013832021382683352,-0.0050719567673708455,nan,nan,nan,nan
27.176767587661743,0.2609878,-0.33112764,-2.7202034,0.005934283771245469,nan,nan,nan,nan,nan,17.1768581867218,18.3768581867218,0.0050220489501953125,nan,nan,nan,nan,0.7265746212739145,-0.02269482069303964,0.01448965511440643,-0.005153833259271469,nan,nan,nan,nan
27.26816725730896,0.28333908,-0.30577976,-2.7309034,0.005055568145188179,nan,nan,nan,nan,nan,17.26795196533203,18.46795196533203,0.005977153778076172,nan,nan,nan,nan,0.7263559144398309,-0.031612179442100284,0.017993602182849996,-0.004439785457178215,nan,nan,nan,nan
27.367749214172363,0.30810773,-0.2760738,-2.7426412,0.0033720571436054673,nan,nan,nan,nan,nan,17.36753249168396,18.56753249168396,0.00629734992980957,nan,nan,nan,nan,0.7261281594987009,-0.02768375179942295,0.022149234008841,-0.0034727478014339873,nan,nan,nan,nan
27.47897171974182,0.33575946,-0.2405244,-2.7529056,0.0015157222542643983,nan,nan,nan,nan,nan,17.478845357894897,18.678845357894897,0.006313323974609375,nan,nan,nan,nan,0.7259392739134803,-0.028138595989224087,0.03084344979037139,-0.002248579934072595,nan,nan,nan,nan
27.572893619537354,0.3566437,-0.20892756,-2.7580752,0.00024213575842690384,nan,nan,nan,nan,nan,17.572691917419434,18.772691917419433,0.005457162857055664,nan,nan,nan,nan,0.7259731029349119,-0.026028236897393742,0.03472374746152855,-0.001425135791418448,nan,nan,nan,nan
27.671613216400146,0.37123606,-0.18253988,-2.7684917,-0.0009978483905892215,nan,nan,nan,nan,nan,17.671506643295288,18.871506643295287,0.0069963932037353516,nan,nan,nan,nan,0.7259568465552756,-0.01886688709649549,0.039304771674485796,-0.0011285104933943324,nan,nan,nan,nan
27.765209436416626,0.38639486,-0.15279001,-2.7767034,-0.0023945491053334513,nan,nan,nan,nan,nan,17.76506018638611,18.965060186386108,0.011401891708374023,nan,nan,nan,nan,0.725770826645431,-0.015473915721320052,0.039488398351954196,-0.0002709442504543572,nan,nan,nan,nan
27.864761114120483,0.40510067,-0.11155197,-2.7808616,-0.004555129649470656,nan,nan,nan,nan,nan,17.864700317382812,19.064700317382812,0.007184505462646484,nan,nan,nan,nan,0.7258564083732874,-0.01907274562876892,0.03373781051762564,0.0014640464949628288,nan,nan,nan,nan
27.965469121932983,0.41487756,-0.083860256,-2.779827,-0.005658905384175522,nan,nan,nan,nan,nan,17.965304374694824,19.165304374694824,0.006455898284912109,nan,nan,nan,nan,0.7261424593228971,-0.013873078511634121,0.03597387824402213,0.001926784924708749,nan,nan,nan,nan
28.075494289398193,0.43056926,-0.033861708,-2.7746444,-0.007370248368522797,nan,nan,nan,nan,nan,18.07543182373047,19.275431823730468,0.006101369857788086,nan,nan,nan,nan,0.7266698731183101,-0.019511191535451423,0.026737737312859045,0.0031839576191332324,nan,nan,nan,nan
28.16389226913452,0.43657228,0.00030346125,-2.7709107,-0.008053794713572662,nan,nan,nan,nan,nan,18.163729906082153,19.363729906082153,0.007707357406616211,nan,nan,nan,nan,0.727048876949991,-0.023097097423256177,0.022500777154453328,0.0037713590221365063,nan,nan,nan,nan
28.262108087539673,0.4413604,0.025967486,-2.7700653,-0.008471397632133178,nan,nan,nan,nan,nan,18.261994123458862,19.46199412345886,0.006706953048706055,nan,nan,nan,nan,0.7273844686212283,-0.02318781684470118,0.024260621529665266,0.0036840911864387425,nan,nan,nan,nan
28.378609657287598,0.45071867,0.079129,-2.7722182,-0.009118595696366366,nan,nan,nan,nan,nan,18.378496170043945,19.578496170043945,0.0057830810546875,nan,nan,nan,nan,0.7275119944509032,-0.03193752633069921,0.02467561557510218,0.003990650776664466,nan,nan,nan,nan
28.474785089492798,0.4489932,0.12202724,-2.7695472,-0.00972058289106424,nan,nan,nan,nan,nan,18.474614143371582,19.67461414337158,0.0052356719970703125,nan,nan,nan,nan,0.7277037238833002,-0.03785172725023398,0.016134356549860125,0.0046365316557447364,nan,nan,nan,nan
28.573917388916016,0.44426662,0.15613528,-2.7569377,-0.010135097409186531,nan,nan,nan,nan,nan,18.573710918426514,19.773710918426513,0.005173683166503906,nan,nan,nan,nan,0.7281815834238081,-0.041281073706351326,0.014890405792298984,0.004402817690416189,nan,nan,nan,nan
28.67214345932007,0.4335702,0.2073772,-2.736363,-0.010859552010148306,nan,nan,nan,nan,nan,18.671935558319092,19.87193555831909,0.0053081512451171875,nan,nan,nan,nan,0.729066276408014,-0.04748166003013231,-0.004497975383015536,0.005119663685834433,nan,nan,nan,nan
28.770048141479492,0.4202159,0.24017645,-2.725994,-0.011387555729946847,nan,nan,nan,nan,nan,18.769866704940796,19.969866704940795,0.0055675506591796875,nan,nan,nan,nan,0.7296415478628062,-0.05065908359137358,-0.0055937647994016805,0.004880129754112995,nan,nan,nan,nan
28.86613893508911,0.3931349,0.28316498,-2.7172697,-0.012013680675279316,nan,nan,nan,nan,nan,18.865999698638916,20.065999698638915,0.011696100234985352,nan,nan,nan,nan,0.7299020785985458,-0.0495655753802762,-0.025494860046370277,0.005755770992779259,nan,nan,nan,nan
28.97074866294861,0.37066773,0.31476822,-2.7102528,-0.012056056750633362,nan,nan,nan,nan,nan,18.970532655715942,20.17053265571594,0.005650520324707031,nan,nan,nan,nan,0.7301203682317009,-0.04604867066798776,-0.031039902201538502,0.0054735124583268685,nan,nan,nan,nan
29.071536779403687,0.33381143,0.35023028,-2.7041116,-0.011577004169147864,nan,nan,nan,nan,nan,19.07132911682129,20.27132911682129,0.00565338134765625,nan,nan,nan,nan,0.7302338041799158,-0.03692213394425686,-0.04176435327541911,0.005603354815581082,nan,nan,nan,nan
29.16964030265808,0.28977615,0.3792577,-2.7022278,-0.010452592030364671,nan,nan,nan,nan,nan,19.169471502304077,20.369471502304076,0.005537509918212891,nan,nan,nan,nan,0.73022275850449,-0.03221886062220151,-0.04546512936108052,0.0048318976783369855,nan,nan,nan,nan
29.264277458190918,0.26083007,0.39581883,-2.7019322,-0.009514846358283107,nan,nan,nan,nan,nan,19.264086484909058,20.464086484909057,0.005824089050292969,nan,nan,nan,nan,0.7301088611364294,-0.026965098544851643,-0.0516511161752112,0.003829148828117396,nan,nan,nan,nan
29.37677764892578,0.20368482,0.42567724,-2.7033453,-0.008188297344242784,nan,nan,nan,nan,nan,19.376630067825317,20.576630067825317,0.004958391189575195,nan,nan,nan,nan,0.7299154190026106,-0.025245309828031047,-0.05581589956640918,0.0030018777108501114,nan,nan,nan,nan
29.47207021713257,0.15037276,0.4484354,-2.7031634,-0.007149285867109358,nan,nan,nan,nan,nan,19.471853733062744,20.671853733062743,0.005196571350097656,nan,nan,nan,nan,0.7297773525957575,-0.018488342399975616,-0.05973548393721169,0.0027589959466484243,nan,nan,nan,nan
29.56621289253235,0.12138488,0.45386195,-2.7031968,-0.006351178839956617,nan,nan,nan,nan,nan,19.56599473953247,20.76599473953247,0.006930828094482422,nan,nan,nan,nan,0.7296980665895946,-0.017142240963807166,-0.05044156495560293,0.001979047848872458,nan,nan,nan,nan
29.680222272872925,0.07520978,0.45906672,-2.7016888,-0.00504050739752631,nan,nan,nan,nan,nan,19.68006682395935,20.88006682395935,0.0053217411041259766,nan,nan,nan,nan,0.729583070363864,-0.0059406578261469055,-0.037058528011351725,0.0014004332262187488,nan,nan,nan,nan
29.768674850463867,0.040632825,0.46154428,-2.697516,-0.00425190178895302,nan,nan,nan,nan,nan,19.76847219467163,20.96847219467163,0.006188869476318359,nan,nan,nan,nan,0.7295803146378329,0.007207268749258478,-0.026633545856786997,0.0011195467617953919,nan,nan,nan,nan
29.878063201904297,0.0008396277,0.46295744,-2.6897883,-0.0038132893149843937,nan,nan,nan,nan,nan,19.8779137134552,21.0779137134552,0.005347490310668945,nan,nan,nan,nan,0.7298415012749504,0.004577205076930744,-0.015745598335920496,0.0008576589496895267,nan,nan,nan,nan
29.967457056045532,-0.02724645,0.45942,-2.6872017,-0.0035937063084753654,nan,nan,nan,nan,nan,19.967264413833618,21.167264413833617,0.0063018798828125,nan,nan,nan,nan,0.7299136705346614,0.0002855261851102596,-0.012714291364573343,0.0005619176443367504,nan,nan,nan,nan
30.076303482055664,-0.07018118,0.44809952,-2.6800933,-0.0028103884141594676,nan,nan,nan,nan,nan,20.076128721237183,21.276128721237182,0.004995584487915039,nan,nan,nan,nan,0.7300423298479698,0.0013588479405807635,-0.013686709376792292,0.0002915973518487443,nan,nan,nan,nan
30.166394233703613,-0.10578668,0.43406627,-2.6719477,-0.0014344261797931412,nan,nan,nan,nan,nan,20.166173219680786,21.366173219680785,0.007277250289916992,nan,nan,nan,nan,0.730237041232829,0.008890293927809616,-0.01519501426076628,-0.00022899661792753052,nan,nan,nan,nan
30.27748131752014,-0.13929068,0.41448557,-2.6659129,0.0003662964486877418,nan,nan,nan,nan,nan,20.277894258499146,21.477894258499145,0.006254673004150391,nan,nan,nan,nan,0.7304240038513691,0.013085569620224691,-0.012962298886090011,-0.0012782029692539017,nan,nan,nan,nan
30.374544382095337,-0.1613582,0.39742082,-2.663858,0.0014404186165801608,nan,nan,nan,nan,nan,20.37435293197632,21.574352931976318,0.005230426788330078,nan,nan,nan,nan,0.7303746561124603,0.011524679993084602,-0.01117201019710414,-0.0021720169971274914,nan,nan,nan,nan
30.471582174301147,-0.19021894,0.37505192,-2.6651406,0.0019104135425599446,nan,nan,nan,nan,nan,20.471365451812744,21.671365451812743,0.005722522735595703,nan,nan,nan,nan,0.7301756914390368,0.015123502015232443,-0.011596531663016161,-0.0025843894952244186,nan,nan,nan,nan
30.568920373916626,-0.21124455,0.35962123,-2.6687472,0.0018802025247262946,nan,nan,nan,nan,nan,20.56878924369812,21.76878924369812,0.006926298141479492,nan,nan,nan,nan,0.7299753868861625,0.006260848478126725,-0.015283441725068889,-0.002764593322711304,nan,nan,nan,nan
30.66199278831482,-0.2403602,0.33576638,-2.6772547,0.001678948718378039,nan,nan,nan,nan,nan,20.661885499954224,21.861885499954223,0.005479335784912109,nan,nan,nan,nan,0.7295630609082661,0.006373519180964001,-0.019515719857734082,-0.002515626323869696,nan,nan,nan,nan
30.770666360855103,-0.26663363,0.30821136,-2.6879156,0.001631566364844024,nan,nan,nan,nan,nan,20.77046036720276,21.970460367202758,0.0057582855224609375,nan,nan,nan,nan,0.7290287218664976,0.0026199845004007344,-0.02504166108026863,-0.0023695174895775016,nan,nan,nan,nan
30.86239719390869,-0.28399226,0.28378898,-2.6956217,0.0019274695573021534,nan,nan,nan,nan,nan,20.8625590801239,22.0625590801239,0.005553007125854492,nan,nan,nan,nan,0.7286004419393457,0.005596724661188989,-0.03045206742723433,-0.0027298163680194156,nan,nan,nan,nan
30.975003719329834,-0.30765295,0.25312793,-2.705047,0.002358167776964489,nan,nan,nan,nan,nan,20.974783658981323,22.174783658981323,0.005361795425415039,nan,nan,nan,nan,0.7281699470427831,0.012519595527092921,-0.03448660021216006,-0.0030439723085578137,nan,nan,nan,nan
31.071427583694458,-0.3303175,0.21746035,-2.7098594,0.002693512890812615,nan,nan,nan,nan,nan,21.071207523345947,22.271207523345947,0.005534648895263672,nan,nan,nan,nan,0.7280086855486828,0.019030271442709936,-0.03178478531441542,-0.0029651685005796244,nan,nan,nan,nan
31.16368556022644,-0.33993343,0.19401993,-2.7089076,0.00267849163043476,nan,nan,nan,nan,nan,21.163486003875732,22.36348600387573,0.005394697189331055,nan,nan,nan,nan,0.7280505123240967,0.015482957092412595,-0.035350841019408115,-0.0033227023682051095,nan,nan,nan,nan
31.27588653564453,-0.34594387,0.16317101,-2.7064664,0.0025963606745358844,nan,nan,nan,nan,nan,21.275676727294922,22.47567672729492,0.005700111389160156,nan,nan,nan,nan,0.7283318562133096,0.013974197370576473,-0.027365120595501193,-0.0032792907601803846,nan,nan,nan,nan
31.37119698524475,-0.34425828,0.1265755,-2.7113159,0.0026367151809135233,nan,nan,nan,nan,nan,21.371007442474365,22.571007442474365,0.005643129348754883,nan,nan,nan,nan,0.728225822676223,0.0199131518192467,-0.006835323170585782,-0.0028014191673724096,nan,nan,nan,nan
31.46583914756775,-0.34326157,0.10495528,-2.7143953,0.0025436580008888,nan,nan,nan,nan,nan,21.465654373168945,22.665654373168945,0.00770115852355957,nan,nan,nan,nan,0.7281345399756357,0.01713574793979602,-0.00730387033830063,-0.003110295883887316,nan,nan,nan,nan
31.562904119491577,-0.34325325,0.079170026,-2.7175565,0.0024817656736841045,nan,nan,nan,nan,nan,21.562965631484985,22.762965631484985,0.006500720977783203,nan,nan,nan,nan,0.7279768101826881,0.01873711558010974,-0.0010227009065215704,-0.0028361809369846364,nan,nan,nan,nan
31.676047325134277,-0.33910877,0.032916248,-2.7194889,0.002647787470155154,nan,nan,nan,nan,nan,21.675831079483032,22.87583107948303,0.005250215530395508,nan,nan,nan,nan,0.7279465630463483,0.019837471383804595,-0.0016241701489543975,-0.0028438380202410523,nan,nan,nan,nan
31.770677089691162,-0.33340415,0.0066423775,-2.7185717,0.002629138853500991,nan,nan,nan,nan,nan,21.77046227455139,22.97046227455139,0.006865501403808594,nan,nan,nan,nan,0.728039141838637,0.02388468882840716,-0.006686716857171459,-0.0031596803292298975,nan,nan,nan,nan
31.866784811019897,-0.31875235,-0.033544008,-2.7143974,0.002339849117310443,nan,nan,nan,nan,nan,21.86658477783203,23.06658477783203,0.0065364837646484375,nan,nan,nan,nan,0.728271523805869,0.03751925099689995,0.006084870701426799,-0.0026474229566325596,nan,nan,nan,nan
31.98069143295288,-0.30340314,-0.07392926,-2.7039185,0.001804296851014269,nan,nan,nan,nan,nan,21.980670928955078,23.180670928955077,0.006390094757080078,nan,nan,nan,nan,0.7286020334861444,0.043998443306737696,-0.0009054269226069229,-0.002829073475550732,nan,nan,nan,nan
32.07055354118347,-0.2892583,-0.10787833,-2.697211,0.0012898032122272407,nan,nan,nan,nan,nan,22.070348024368286,23.270348024368285,0.006999015808105469,nan,nan,nan,nan,0.7289818214360668,0.05115728887012565,0.0015525498394570166,-0.0025625803490942354,nan,nan,nan,nan
32.168564319610596,-0.2690416,-0.14892884,-2.691967,0.0008929256616329187,nan,nan,nan,nan,nan,22.168404817581177,23.368404817581176,0.007035732269287109,nan,nan,nan,nan,0.7292612363325669,0.05522424249809695,0.007266600699707886,-0.0019348817493471241,nan,nan,nan,nan
32.265193939208984,-0.25294957,-0.17644984,-2.6896744,0.0008945148689841896,nan,nan,nan,nan,nan,22.26504349708557,23.46504349708557,0.006264448165893555,nan,nan,nan,nan,0.7293443074571793,0.055313667808973004,0.0033730313465317185,-0.002242722365145216,nan,nan,nan,nan
