time,x,y,z,yaw,platform,trajectory,traj_double,traj_short,traj_spin,traj_time,ref_time,comptime,x_ref,y_ref,yaw_ref,z_ref,throttle_input,p_input,q_input,r_input,cbf_term_pitch_cbf,cbf_term_roll_cbf,cbf_term_thrust_cbf,cbf_term_yaw_cbf
10.034468412399292,-0.025293132,0.025547653,-2.9880943,-0.0014492637645350261,SIM,HELIX,NormSpd,Not Short,NoSpin,0.03386664390563965,1.2338666439056396,0.0056340694427490234,nan,nan,nan,nan,0.6883417705633904,-0.10328271554401658,-0.1437954397478987,0.0033432406381393434,nan,nan,nan,nan
10.129743576049805,-0.026281372,0.028008927,-2.9841313,-0.0015710292178090016,nan,nan,nan,nan,nan,0.1290724277496338,1.3290724277496337,0.00728917121887207,nan,nan,nan,nan,0.6896000819347412,-0.06499180878558233,-0.20481339360357098,0.0008747198006298302,nan,nan,nan,nan
10.225603342056274,-0.02621239,0.028300073,-2.9723892,-0.0015386340775821292,nan,nan,nan,nan,nan,0.22496438026428223,1.4249643802642822,0.005884408950805664,nan,nan,nan,nan,0.6936099063631517,-1.0528883684659716e-05,-0.16604007768246037,0.0013441735345442684,nan,nan,nan,nan
10.340426683425903,-0.02424568,0.025914334,-2.9503477,-0.00114350228769726,nan,nan,nan,nan,nan,0.3399543762207031,1.539954376220703,0.005469083786010742,nan,nan,nan,nan,0.699243402095924,0.07135809613674393,-0.08420986198500374,0.000656132405781985,nan,nan,nan,nan
10.43542766571045,-0.019771758,0.021261692,-2.9287872,-0.0007226652182569372,nan,nan,nan,nan,nan,0.4348108768463135,1.6348108768463134,0.005509614944458008,nan,nan,nan,nan,0.703443258980682,0.11793391392006389,-0.009849477611079283,-0.0004929113468356638,nan,nan,nan,nan
10.531153678894043,-0.008117588,0.010888969,-2.894047,-0.00016367457560825674,nan,nan,nan,nan,nan,0.5305843353271484,1.7305843353271484,0.006847381591796875,nan,nan,nan,nan,0.7084900632235729,0.13939387046045468,0.08708310887216301,-0.0008974966580769209,nan,nan,nan,nan
10.631399869918823,-0.0009113038,0.010089447,-2.8587291,0.0008415087385562053,nan,nan,nan,nan,nan,0.6307632923126221,1.830763292312622,0.0062792301177978516,nan,nan,nan,nan,0.7121706987545685,0.13842896417908343,0.14943374720340782,-0.002155223319558175,nan,nan,nan,nan
10.736492156982422,0.02143842,0.012335274,-2.7975245,0.003992234768085818,nan,nan,nan,nan,nan,0.735842227935791,1.935842227935791,0.005403757095336914,nan,nan,nan,nan,0.7174239724660589,0.0751551561683898,0.19268702711777114,-0.001784735262315548,nan,nan,nan,nan
10.834465503692627,0.036614742,0.018843995,-2.7614992,0.007199417900331219,nan,nan,nan,nan,nan,0.8338720798492432,2.0338720798492433,0.005942106246948242,nan,nan,nan,nan,0.7203755290104218,0.03614528917909059,0.22166834146770562,-0.005529155445274553,nan,nan,nan,nan
10.940203189849854,0.063441955,0.03949468,-2.6949778,0.01507659697365903,nan,nan,nan,nan,nan,0.9395697116851807,2.139569711685181,0.005520343780517578,nan,nan,nan,nan,0.7245778324660043,-0.0573814709687463,0.1973324880765653,-0.007583601251887916,nan,nan,nan,nan
11.034343242645264,0.07704548,0.054814015,-2.6558926,0.018462721147430708,nan,nan,nan,nan,nan,1.0336971282958984,2.2336971282958986,0.006404399871826172,nan,nan,nan,nan,0.7272675361401048,-0.111524277741174,0.17887057973039744,-0.013191103992857289,nan,nan,nan,nan
11.132286787033081,0.09594055,0.08195315,-2.5985978,0.023961291588868054,nan,nan,nan,nan,nan,1.1316359043121338,2.331635904312134,0.005950212478637695,nan,nan,nan,nan,0.7300593724351057,-0.15991261723823727,0.11571381737296405,-0.014198428526397232,nan,nan,nan,nan
11.225473880767822,0.10387538,0.097425826,-2.5653284,0.025326493493392686,nan,nan,nan,nan,nan,1.2248451709747314,2.4248451709747316,0.005212068557739258,nan,nan,nan,nan,0.7318094179604165,-0.18498788029165308,0.08427159815335629,-0.018243310334641497,nan,nan,nan,nan
11.336246013641357,0.1073151,0.12603053,-2.5099058,0.02494879627437712,nan,nan,nan,nan,nan,1.3356146812438965,2.5356146812438967,0.005254983901977539,nan,nan,nan,nan,0.7340601749377881,-0.17665096275629538,0.0038493777757897998,-0.017497036330732105,nan,nan,nan,nan
11.432194948196411,0.10139305,0.1468971,-2.475013,0.024617388801820666,nan,nan,nan,nan,nan,1.4315316677093506,2.6315316677093508,0.006899833679199219,nan,nan,nan,nan,0.735467064491371,-0.1535020489085667,-0.05553353456553435,-0.01726821897906897,nan,nan,nan,nan
11.52878475189209,0.091871746,0.1667529,-2.4448311,0.025093438835098975,nan,nan,nan,nan,nan,1.528132677078247,2.7281326770782472,0.006773233413696289,nan,nan,nan,nan,0.7364553573072954,-0.15588526434765201,-0.0864506788242554,-0.019727854262344063,nan,nan,nan,nan
11.623970985412598,0.06528453,0.19078965,-2.4001036,0.025944401844935055,nan,nan,nan,nan,nan,1.623363733291626,2.823363733291626,0.005629062652587891,nan,nan,nan,nan,0.7375421202323654,-0.1060682547508385,-0.13702481834927827,-0.01852528410519492,nan,nan,nan,nan
11.739006042480469,0.040901385,0.20242569,-2.3705838,0.026477956535660138,nan,nan,nan,nan,nan,1.738349199295044,2.938349199295044,0.005113840103149414,nan,nan,nan,nan,0.7384984865672481,-0.07656754294032983,-0.1717969858413869,-0.021585204277922137,nan,nan,nan,nan
11.832357406616211,0.009036495,0.21072063,-2.3359046,0.02558001101989323,nan,nan,nan,nan,nan,1.831695556640625,3.031695556640625,0.006079435348510742,nan,nan,nan,nan,0.7390551952710915,-0.02978278424944161,-0.18788279933593593,-0.02034668771641234,nan,nan,nan,nan
11.925916910171509,-0.013043533,0.21192814,-2.311968,0.023111871212160653,nan,nan,nan,nan,nan,1.925295352935791,3.125295352935791,0.005297422409057617,nan,nan,nan,nan,0.7395114264348344,-0.0010578540553109544,-0.19240149871065856,-0.01999903541803757,nan,nan,nan,nan
12.040438175201416,-0.05111181,0.20473357,-2.2860212,0.019583158081440778,nan,nan,nan,nan,nan,2.0398898124694824,3.2398898124694826,0.005117893218994141,nan,nan,nan,nan,0.7398164450443068,0.04565841286794258,-0.18853253470709064,-0.017116562552670068,nan,nan,nan,nan
12.13361406326294,-0.09012811,0.18338507,-2.2553773,0.020197323268314867,nan,nan,nan,nan,nan,2.1329469680786133,3.3329469680786135,0.006047487258911133,nan,nan,nan,nan,0.7399875675631565,0.09511171407960813,-0.16440131733124172,-0.014234595694875663,nan,nan,nan,nan
12.227595090866089,-0.116388425,0.16285527,-2.234085,0.020396969785298334,nan,nan,nan,nan,nan,2.2272050380706787,3.427205038070679,0.005533456802368164,nan,nan,nan,nan,0.7403396679656312,0.12746460974751242,-0.15193171452394982,-0.016329502243512883,nan,nan,nan,nan
12.337913990020752,-0.15021107,0.12231781,-2.2067506,0.021132894304718382,nan,nan,nan,nan,nan,2.3372440338134766,3.5372440338134767,0.006921291351318359,nan,nan,nan,nan,0.7406291568637622,0.16317382924770912,-0.11592562770031282,-0.015821588189634733,nan,nan,nan,nan
12.435921907424927,-0.16315927,0.09673632,-2.1944304,0.022408550340227446,nan,nan,nan,nan,nan,2.435326099395752,3.635326099395752,0.005512714385986328,nan,nan,nan,nan,0.7406101053947736,0.1855958444216335,-0.088645474941246,-0.01689523551849091,nan,nan,nan,nan
12.52739667892456,-0.1734395,0.05835066,-2.168619,0.024567137451898022,nan,nan,nan,nan,nan,2.5269999504089355,3.7269999504089357,0.0066051483154296875,nan,nan,nan,nan,0.7403924561384677,0.17804096481566228,-0.013138429001447701,-0.0164014203648829,nan,nan,nan,nan
12.622819423675537,-0.17602198,0.03334052,-2.1559892,0.02562976967280004,nan,nan,nan,nan,nan,2.6221776008605957,3.822177600860596,0.005556344985961914,nan,nan,nan,nan,0.7405888690620948,0.18272837082775165,0.0169549178773781,-0.019892712147470588,nan,nan,nan,nan
12.730510234832764,-0.1616513,-0.012071247,-2.1438336,0.027773882742657068,nan,nan,nan,nan,nan,2.729840040206909,3.9298400402069094,0.006753683090209961,nan,nan,nan,nan,0.7402083256037789,0.1532089409681276,0.07948951558637697,-0.019333192858384148,nan,nan,nan,nan
12.82309079170227,-0.14287248,-0.036552425,-2.140323,0.029841292739713747,nan,nan,nan,nan,nan,2.8224124908447266,4.022412490844727,0.0050754547119140625,nan,nan,nan,nan,0.7399986409041975,0.1477095460867437,0.1125158698979659,-0.023268417067430932,nan,nan,nan,nan
12.940503358840942,-0.104173526,-0.06827396,-2.1350825,0.03490028223705188,nan,nan,nan,nan,nan,2.939833641052246,4.139833641052246,0.005345821380615234,nan,nan,nan,nan,0.7394577234338614,0.1119417765866938,0.1677212229832137,-0.027237785925734965,nan,nan,nan,nan
13.034417867660522,-0.04999243,-0.09342865,-2.1300292,0.04139680692255743,nan,nan,nan,nan,nan,3.0337448120117188,4.233744812011719,0.0070917606353759766,nan,nan,nan,nan,0.7389986664719779,0.06596348172486419,0.19989648336543112,-0.028431564749296576,nan,nan,nan,nan
13.127443790435791,-0.014504371,-0.09966264,-2.1257932,0.04604334721801784,nan,nan,nan,nan,nan,3.1268084049224854,4.3268084049224855,0.005383491516113281,nan,nan,nan,nan,0.7386790317829481,0.018411687330925363,0.21084314560083942,-0.032241172316249574,nan,nan,nan,nan
13.238694906234741,0.028407944,-0.096826,-2.1239595,0.053473521108456934,nan,nan,nan,nan,nan,3.238046646118164,4.438046646118164,0.0076830387115478516,nan,nan,nan,nan,0.7383494062866852,-0.0361548746179212,0.20596545979973768,-0.034213205805637664,nan,nan,nan,nan
13.339162826538086,0.05766413,-0.087663986,-2.1251395,0.05887225618930094,nan,nan,nan,nan,nan,3.3385016918182373,4.5385016918182375,0.005084991455078125,nan,nan,nan,nan,0.7381428221679939,-0.07429463299061456,0.19942428961724684,-0.040258084420691904,nan,nan,nan,nan
13.430318355560303,0.095236674,-0.065413915,-2.1321933,0.06490458784545682,nan,nan,nan,nan,nan,3.4297168254852295,4.62971682548523,0.007597923278808594,nan,nan,nan,nan,0.7373546309146174,-0.12808215276709264,0.15591276336464566,-0.0418255271173929,nan,nan,nan,nan
13.526241064071655,0.11412543,-0.044290047,-2.1430237,0.06743121796273042,nan,nan,nan,nan,nan,3.5256927013397217,4.725692701339722,0.0065996646881103516,nan,nan,nan,nan,0.7367737406022578,-0.1578810066984488,0.13537005033316452,-0.04575761127981939,nan,nan,nan,nan
13.640157699584961,0.13918608,-0.0033097346,-2.1509986,0.07002649648080447,nan,nan,nan,nan,nan,3.639486789703369,4.839486789703369,0.005370140075683594,nan,nan,nan,nan,0.7360853524354133,-0.18935925955074742,0.09192707479831358,-0.047467978302169214,nan,nan,nan,nan
13.736426591873169,0.1513073,0.03618912,-2.1573207,0.07015818655662408,nan,nan,nan,nan,nan,3.735755443572998,4.935755443572998,0.005842447280883789,nan,nan,nan,nan,0.7355491741495549,-0.19518914713085467,0.026176816528534454,-0.04574492702626665,nan,nan,nan,nan
13.833428859710693,0.15396403,0.0611712,-2.1630242,0.06904803511118802,nan,nan,nan,nan,nan,3.832789659500122,5.032789659500122,0.00697636604309082,nan,nan,nan,nan,0.7354805451067239,-0.20451359402909397,0.0007678842413899837,-0.048411028399543504,nan,nan,nan,nan
13.92803406715393,0.15358087,0.09909114,-2.1747088,0.06568772432061062,nan,nan,nan,nan,nan,3.927435874938965,5.127435874938965,0.0060520172119140625,nan,nan,nan,nan,0.7349560609759124,-0.18636353156096083,-0.04689148027632817,-0.04550036404518761,nan,nan,nan,nan
14.023688077926636,0.14757521,0.12309267,-2.1857545,0.06234613344528193,nan,nan,nan,nan,nan,4.023014545440674,5.223014545440674,0.005333423614501953,nan,nan,nan,nan,0.7347121920227644,-0.179142210203035,-0.07783846449846099,-0.04614255379206411,nan,nan,nan,nan
14.13852834701538,0.12656926,0.15074615,-2.2036564,0.058222498375743975,nan,nan,nan,nan,nan,4.137877702713013,5.337877702713013,0.00531315803527832,nan,nan,nan,nan,0.7338071327478858,-0.12094887580621898,-0.13282159264436,-0.041735816379276806,nan,nan,nan,nan
14.23047423362732,0.10598718,0.17120993,-2.217417,0.05488516785194565,nan,nan,nan,nan,nan,4.22981858253479,5.42981858253479,0.008517026901245117,nan,nan,nan,nan,0.7334091047597857,-0.08993035542179968,-0.16350419522758766,-0.04003920180463321,nan,nan,nan,nan
14.329498529434204,0.07560075,0.19732314,-2.2356255,0.04774135216799824,nan,nan,nan,nan,nan,4.328831434249878,5.528831434249878,0.007144927978515625,nan,nan,nan,nan,0.7331003261483492,-0.057776261941628874,-0.18082889077208958,-0.03580838138509118,nan,nan,nan,nan
14.422747373580933,0.047110908,0.20511915,-2.2509537,0.0433821189952818,nan,nan,nan,nan,nan,4.422077655792236,5.6220776557922365,0.005737781524658203,nan,nan,nan,nan,0.7327886982465144,-0.03147353994529594,-0.2041186484125053,-0.03523390229196325,nan,nan,nan,nan
14.522932052612305,0.0052713626,0.20101209,-2.2738447,0.040025129316293886,nan,nan,nan,nan,nan,4.5222649574279785,5.722264957427979,0.005767107009887695,nan,nan,nan,nan,0.7319166371818393,0.038393325579051917,-0.20122774731713183,-0.028002595251330687,nan,nan,nan,nan
14.632131576538086,-0.03014333,0.18094122,-2.2932565,0.03807297580094792,nan,nan,nan,nan,nan,4.6315224170684814,5.831522417068482,0.006417989730834961,nan,nan,nan,nan,0.7313490070663665,0.0867147066110593,-0.19586832682378558,-0.02746886722038197,nan,nan,nan,nan
14.728492021560669,-0.057643756,0.15708931,-2.308367,0.03611299609235978,nan,nan,nan,nan,nan,4.72790789604187,5.92790789604187,0.005431175231933594,nan,nan,nan,nan,0.7309964719171407,0.12063075340646569,-0.19110381007899097,-0.028229353818174183,nan,nan,nan,nan
14.823952913284302,-0.09222911,0.11659038,-2.330656,0.03220314117354135,nan,nan,nan,nan,nan,4.823285102844238,6.0232851028442385,0.005166292190551758,nan,nan,nan,nan,0.7301718104176715,0.16015128134742665,-0.1424501255162594,-0.022134108119871928,nan,nan,nan,nan
14.93971586227417,-0.12411418,0.055838913,-2.3689103,0.02916083945127085,nan,nan,nan,nan,nan,4.939045190811157,6.139045190811157,0.005595684051513672,nan,nan,nan,nan,0.7290891739377009,0.179931576775248,-0.10026700165140111,-0.020132561201097528,nan,nan,nan,nan
15.036925077438354,-0.13301495,0.025605714,-2.3875427,0.02719199338412,nan,nan,nan,nan,nan,5.03626275062561,6.2362627506256105,0.006135225296020508,nan,nan,nan,nan,0.7284638348334237,0.18305607069332624,-0.07500398796628056,-0.021805173332562506,nan,nan,nan,nan
15.136244058609009,-0.14113986,-0.029276963,-2.4224002,0.023269187561378805,nan,nan,nan,nan,nan,5.135818958282471,6.335818958282471,0.0067348480224609375,nan,nan,nan,nan,0.72736696334128,0.16228490593371356,-0.0017087299440492509,-0.017009112498240542,nan,nan,nan,nan
15.227649450302124,-0.13791391,-0.06603281,-2.445395,0.020959088953406,nan,nan,nan,nan,nan,5.227091550827026,6.4270915508270265,0.005392551422119141,nan,nan,nan,nan,0.7266395063963947,0.14436122911239305,0.04219649770172745,-0.017946738694797928,nan,nan,nan,nan
15.335224390029907,-0.12269745,-0.11446488,-2.4743562,0.018697616072211067,nan,nan,nan,nan,nan,5.334604978561401,6.5346049785614015,0.00770115852355957,nan,nan,nan,nan,0.7256166853161718,0.11119131540035901,0.11003681103236689,-0.01657004210565253,nan,nan,nan,nan
15.427635669708252,-0.09643479,-0.16863878,-2.5025802,0.017219226848733286,nan,nan,nan,nan,nan,5.427029132843018,6.627029132843018,0.00524592399597168,nan,nan,nan,nan,0.7247031346143733,0.07356008691637721,0.1689496279919089,-0.014046561961469082,nan,nan,nan,nan
15.539394855499268,-0.06397637,-0.2075919,-2.5221047,0.017573690681920252,nan,nan,nan,nan,nan,5.538739442825317,6.738739442825318,0.00572967529296875,nan,nan,nan,nan,0.7239649187630628,0.043728689420461105,0.21807198142790263,-0.013952909945474991,nan,nan,nan,nan
15.640747547149658,-0.018310614,-0.2507015,-2.5385048,0.018447815000841764,nan,nan,nan,nan,nan,5.640087366104126,6.840087366104126,0.0052645206451416016,nan,nan,nan,nan,0.7235434659316696,0.011825709899078735,0.2461784662731899,-0.013737591182600354,nan,nan,nan,nan
15.737770318984985,0.015539382,-0.27402517,-2.5479696,0.019530886308888107,nan,nan,nan,nan,nan,5.737106561660767,6.937106561660767,0.006018400192260742,nan,nan,nan,nan,0.723357094489642,-0.00692690933465745,0.26845575564149315,-0.014789131933745887,nan,nan,nan,nan
15.836446285247803,0.073167905,-0.30013937,-2.566317,0.023330096883838976,nan,nan,nan,nan,nan,5.835776329040527,7.0357763290405275,0.0065631866455078125,nan,nan,nan,nan,0.7230271606467403,-0.03492716589904143,0.2497557279608641,-0.01474587803895118,nan,nan,nan,nan
15.93268084526062,0.11708695,-0.31120738,-2.5824885,0.026932835714493154,nan,nan,nan,nan,nan,5.932042598724365,7.132042598724365,0.006064414978027344,nan,nan,nan,nan,0.7225152291265258,-0.041961040909273294,0.25242082008151995,-0.0170723235060529,nan,nan,nan,nan
16.030999898910522,0.15824269,-0.31829906,-2.591734,0.029711713805030293,nan,nan,nan,nan,nan,6.030375719070435,7.230375719070435,0.0059814453125,nan,nan,nan,nan,0.7221704485137092,-0.040317015350042895,0.2301479756585156,-0.01815040291429476,nan,nan,nan,nan
16.133575916290283,0.20445876,-0.32552925,-2.6004303,0.03230194610181613,nan,nan,nan,nan,nan,6.132951736450195,7.3329517364501955,0.010326385498046875,nan,nan,nan,nan,0.7220929475141094,-0.027661873338797244,0.15798249359323194,-0.018972572020953333,nan,nan,nan,nan
16.230897426605225,0.22382607,-0.3270249,-2.6084874,0.03253396486408001,nan,nan,nan,nan,nan,6.23028826713562,7.43028826713562,0.00614166259765625,nan,nan,nan,nan,0.7221905961373838,-0.0018941299210024976,0.0833736526238827,-0.018583880817501553,nan,nan,nan,nan
16.323772430419922,0.23029426,-0.32622486,-2.6149545,0.031906213958966374,nan,nan,nan,nan,nan,6.323107957839966,7.523107957839966,0.005670309066772461,nan,nan,nan,nan,0.7219055942622438,0.029548116584626163,0.04386810365133517,-0.017359163618213002,nan,nan,nan,nan
16.417861461639404,0.2313702,-0.32268888,-2.6279137,0.03016549301147761,nan,nan,nan,nan,nan,6.4172163009643555,7.617216300964356,0.010598182678222656,nan,nan,nan,nan,0.721770669742994,0.048838134801939714,-0.05976107409552784,-0.016506865065640905,nan,nan,nan,nan
16.539936780929565,0.2101777,-0.31553787,-2.6177664,0.028328417368260226,nan,nan,nan,nan,nan,6.539282321929932,7.739282321929932,0.005953550338745117,nan,nan,nan,nan,0.7221686802125541,0.06319433625752234,-0.1491926930805583,-0.01491742556976372,nan,nan,nan,nan
16.630943775177002,0.18933494,-0.30775395,-2.6125817,0.027227776479133756,nan,nan,nan,nan,nan,6.63029146194458,7.83029146194458,0.005697011947631836,nan,nan,nan,nan,0.7224914932346675,0.07631248860121743,-0.2000575596903189,-0.011844641782975904,nan,nan,nan,nan
16.727665185928345,0.14480256,-0.28919023,-2.6028867,0.02509530435467048,nan,nan,nan,nan,nan,6.7270495891571045,7.927049589157105,0.006750345230102539,nan,nan,nan,nan,0.7229648740428417,0.04748929301415818,-0.25464886454502217,-0.012664638301134356,nan,nan,nan,nan
16.827581644058228,0.11401875,-0.27467576,-2.5947857,0.023182907901689438,nan,nan,nan,nan,nan,6.8269124031066895,8.026912403106689,0.005213737487792969,nan,nan,nan,nan,0.7232674089344974,0.03256337126526223,-0.28847976282011406,-0.00937237143910076,nan,nan,nan,nan
16.939574480056763,0.058145043,-0.2503829,-2.5854504,0.02050707161926732,nan,nan,nan,nan,nan,6.938930511474609,8.138930511474609,0.005753040313720703,nan,nan,nan,nan,0.7237513648673427,-0.014146359298983373,-0.3008306731986812,-0.007844670624621705,nan,nan,nan,nan
17.035858869552612,-0.0076180417,-0.21944451,-2.5765574,0.01881011441180644,nan,nan,nan,nan,nan,7.035261869430542,8.235261869430541,0.011174917221069336,nan,nan,nan,nan,0.7240966694835284,-0.06018829197000113,-0.27734128329633506,-0.010146244062367528,nan,nan,nan,nan
17.135327339172363,-0.04950996,-0.19179837,-2.5732265,0.017596373984527087,nan,nan,nan,nan,nan,7.134764909744263,8.334764909744262,0.0060882568359375,nan,nan,nan,nan,0.7241574696632631,-0.08991330892480771,-0.2738373443571389,-0.006850872618467271,nan,nan,nan,nan
17.225676774978638,-0.09953029,-0.1493084,-2.5677059,0.015658217668531815,nan,nan,nan,nan,nan,7.2250001430511475,8.425000143051147,0.005773305892944336,nan,nan,nan,nan,0.7242860297360052,-0.13185253935831837,-0.2152328771951853,-0.009231199364925636,nan,nan,nan,nan
17.326266527175903,-0.13352601,-0.11285722,-2.5610006,0.014437931688867124,nan,nan,nan,nan,nan,7.325591087341309,8.525591087341308,0.005425930023193359,nan,nan,nan,nan,0.724460182903161,-0.16844998370210493,-0.18594002190245784,-0.004914289741964881,nan,nan,nan,nan
17.435245037078857,-0.16480947,-0.068135865,-2.5543268,0.01295400579715753,nan,nan,nan,nan,nan,7.434618949890137,8.634618949890136,0.0074520111083984375,nan,nan,nan,nan,0.724785586654342,-0.20098478238121623,-0.10659770609002985,-0.0033117806280505255,nan,nan,nan,nan
17.532488107681274,-0.19239494,-0.00041020976,-2.5403948,0.009498533369889865,nan,nan,nan,nan,nan,7.531832695007324,8.731832695007324,0.0057981014251708984,nan,nan,nan,nan,0.7251693525542272,-0.20849224448199832,-0.0151847591256473,-0.004690563492663737,nan,nan,nan,nan
17.640769958496094,-0.1911211,0.056325942,-2.5267584,0.004606726605080675,nan,nan,nan,nan,nan,7.640102386474609,8.840102386474609,0.0053348541259765625,nan,nan,nan,nan,0.7256369056520425,-0.2038460601554142,0.07051462498658617,-0.00023763674461487624,nan,nan,nan,nan
17.735191106796265,-0.18132743,0.08558822,-2.5177858,0.001515158535384517,nan,nan,nan,nan,nan,7.734631061553955,8.934631061553954,0.006562232971191406,nan,nan,nan,nan,0.7258343396487028,-0.1951115841933085,0.1283257668473101,0.0064138453179860685,nan,nan,nan,nan
17.82822847366333,-0.15253457,0.13090242,-2.4946902,-0.005447823236839164,nan,nan,nan,nan,nan,7.8276145458221436,9.027614545822143,0.005185842514038086,nan,nan,nan,nan,0.7264008182338907,-0.14574673178399666,0.19628380067358728,0.007000058421601062,nan,nan,nan,nan
17.924811363220215,-0.1143523,0.15710773,-2.4778843,-0.012550980244674874,nan,nan,nan,nan,nan,7.924359560012817,9.124359560012817,0.00554347038269043,nan,nan,nan,nan,0.7267300239232861,-0.1243441593704117,0.24040361470915425,0.014987916139315334,nan,nan,nan,nan
18.02442717552185,-0.04644283,0.1823739,-2.4534256,-0.02304409795928305,nan,nan,nan,nan,nan,8.023755311965942,9.223755311965942,0.005670070648193359,nan,nan,nan,nan,0.7273705354578678,-0.044562448449778115,0.28460520849775073,0.017171207849290653,nan,nan,nan,nan
18.134143590927124,0.02723524,0.18672661,-2.433012,-0.0325521993295655,nan,nan,nan,nan,nan,8.133545637130737,9.333545637130737,0.008924722671508789,nan,nan,nan,nan,0.7278100152884232,0.025874369000919786,0.3009466186964297,0.022427946555404782,nan,nan,nan,nan
18.23491621017456,0.079991624,0.17903905,-2.419307,-0.0390017112117197,nan,nan,nan,nan,nan,8.234308958053589,9.434308958053588,0.0070934295654296875,nan,nan,nan,nan,0.7279720484869913,0.0699970289900324,0.31120218762161117,0.030736670785777635,nan,nan,nan,nan
18.32777214050293,0.14514776,0.15475789,-2.400841,-0.046569061345649254,nan,nan,nan,nan,nan,8.327102899551392,9.527102899551391,0.005720376968383789,nan,nan,nan,nan,0.7282941031347536,0.14037324071777946,0.2661085741109023,0.031079138486244523,nan,nan,nan,nan
18.42624807357788,0.18009363,0.12962386,-2.390018,-0.04975807080644596,nan,nan,nan,nan,nan,8.425575017929077,9.625575017929076,0.005697011947631836,nan,nan,nan,nan,0.7283840336259236,0.17850732879435746,0.23813098987729972,0.03656285719102698,nan,nan,nan,nan
18.535793781280518,0.22580644,0.08261235,-2.3728285,-0.0526863529181623,nan,nan,nan,nan,nan,8.53517746925354,9.73517746925354,0.006849527359008789,nan,nan,nan,nan,0.7284434429548985,0.21987822512829144,0.17938067472561287,0.03797595312385554,nan,nan,nan,nan
18.625272512435913,0.25542942,0.027038218,-2.3531365,-0.05392974106676842,nan,nan,nan,nan,nan,8.62459945678711,9.824599456787109,0.005455732345581055,nan,nan,nan,nan,0.7285920342105098,0.23854117265890337,0.08659074125932417,0.03552832332882691,nan,nan,nan,nan
18.739405393600464,0.26411086,-0.033446178,-2.3284812,-0.05449418249533405,nan,nan,nan,nan,nan,8.73876404762268,9.93876404762268,0.005876779556274414,nan,nan,nan,nan,0.7288367649031539,0.24394535810589146,0.0007847562412165514,0.03597146100709655,nan,nan,nan,nan
18.834084033966064,0.25620085,-0.08091987,-2.305729,-0.0545939622977059,nan,nan,nan,nan,nan,8.833504915237427,10.033504915237426,0.0063321590423583984,nan,nan,nan,nan,0.7291428767644683,0.2464658776056835,-0.05514331565378838,0.04136219968925682,nan,nan,nan,nan
18.92611312866211,0.24189815,-0.11973227,-2.2909822,-0.05436895070692198,nan,nan,nan,nan,nan,8.925445795059204,10.125445795059203,0.005769968032836914,nan,nan,nan,nan,0.7293985907846081,0.2290432694800689,-0.11780549733821437,0.04231029597774573,nan,nan,nan,nan
19.0215482711792,0.20344462,-0.17438446,-2.2660701,-0.05390406516902787,nan,nan,nan,nan,nan,9.020897388458252,10.220897388458251,0.008917570114135742,nan,nan,nan,nan,0.7296262442082297,0.17711019480928497,-0.18270723275380188,0.03855640113199313,nan,nan,nan,nan
19.139803409576416,0.14894442,-0.21450655,-2.2365983,-0.05469339493017801,nan,nan,nan,nan,nan,9.139153480529785,10.339153480529784,0.006319284439086914,nan,nan,nan,nan,0.7298157750943712,0.11289333124138097,-0.23298231016529766,0.038500872855645706,nan,nan,nan,nan
19.223371982574463,0.11259049,-0.23111089,-2.2166798,-0.055421252848005,nan,nan,nan,nan,nan,9.222740411758423,10.422740411758422,0.006640911102294922,nan,nan,nan,nan,0.7301134413980899,0.06753540612799466,-0.25590329457668926,0.03988576383827541,nan,nan,nan,nan
19.3370418548584,0.06132925,-0.24121921,-2.181624,-0.05776900008144576,nan,nan,nan,nan,nan,9.336458921432495,10.536458921432494,0.007378339767456055,nan,nan,nan,nan,0.7306861711726816,-0.013899194926407185,-0.25532900542910425,0.0405534101072355,nan,nan,nan,nan
19.42901372909546,0.024145648,-0.23460421,-2.155819,-0.06001944645920522,nan,nan,nan,nan,nan,9.428342342376709,10.628342342376708,0.005149126052856445,nan,nan,nan,nan,0.7309107947444511,-0.04774235290471513,-0.2609222638699089,0.04509010181457898,nan,nan,nan,nan
19.54049825668335,-0.038720127,-0.21395284,-2.1132278,-0.06307867930298591,nan,nan,nan,nan,nan,9.53982949256897,10.739829492568969,0.007666826248168945,nan,nan,nan,nan,0.7315165967526257,-0.12081124895162748,-0.2383690224137248,0.04578395072199047,nan,nan,nan,nan
19.63663148880005,-0.0847196,-0.18753335,-2.082062,-0.06439068650292015,nan,nan,nan,nan,nan,9.63598108291626,10.835981082916259,0.007032155990600586,nan,nan,nan,nan,0.7319720973671364,-0.1687236279907958,-0.20681714347531793,0.04589221241682416,nan,nan,nan,nan
19.72347331047058,-0.11987666,-0.15441586,-2.0572965,-0.06531692225383898,nan,nan,nan,nan,nan,9.72279953956604,10.92279953956604,0.0064220428466796875,nan,nan,nan,nan,0.732061040501303,-0.20070525908264528,-0.17556685756829157,0.045769653416977786,nan,nan,nan,nan
19.839279890060425,-0.1532673,-0.09949386,-2.0272892,-0.06655610748726878,nan,nan,nan,nan,nan,9.838612794876099,11.038612794876098,0.00923776626586914,nan,nan,nan,nan,0.7321837579567989,-0.23268795280467655,-0.10316241066640777,0.046125117965941896,nan,nan,nan,nan
19.933958768844604,-0.17916383,-0.045330364,-2.0014882,-0.06614931136680417,nan,nan,nan,nan,nan,9.933386087417603,11.133386087417602,0.006148099899291992,nan,nan,nan,nan,0.7322441961402393,-0.23378463798778548,-0.03316949372829377,0.04320310763554666,nan,nan,nan,nan
20.026243686676025,-0.19099104,-0.0031451501,-1.9805392,-0.06497061043354717,nan,nan,nan,nan,nan,10.025577545166016,11.225577545166015,0.00597834587097168,nan,nan,nan,nan,0.7321073972404377,-0.24036300999707938,-0.011175627394087133,0.04633402239996785,nan,nan,nan,nan
20.14051342010498,-0.19393562,0.053958435,-1.9512756,-0.06301357513631982,nan,nan,nan,nan,nan,10.13984203338623,11.33984203338623,0.006138801574707031,nan,nan,nan,nan,0.7322721642857811,-0.22032677218214503,0.05069210607092997,0.04606213288290815,nan,nan,nan,nan
20.229320526123047,-0.1813683,0.10522981,-1.9240714,-0.060999665903122974,nan,nan,nan,nan,nan,10.228644132614136,11.428644132614135,0.005147695541381836,nan,nan,nan,nan,0.7323116281727993,-0.17167607693935089,0.11205741226152853,0.04307573730484079,nan,nan,nan,nan
20.324490785598755,-0.16250578,0.14156464,-1.897886,-0.05964341211078312,nan,nan,nan,nan,nan,10.323823690414429,11.523823690414428,0.00642085075378418,nan,nan,nan,nan,0.7324243667956561,-0.138278388179663,0.1511532507948534,0.04329614654245205,nan,nan,nan,nan
20.436412811279297,-0.13553394,0.1685118,-1.8731613,-0.05872196069792491,nan,nan,nan,nan,nan,10.435855627059937,11.635855627059936,0.009593009948730469,nan,nan,nan,nan,0.732501085843749,-0.09267944486370816,0.1902934041126625,0.04275865167154027,nan,nan,nan,nan
20.524739980697632,-0.0969356,0.18772222,-1.8480529,-0.05841493753068025,nan,nan,nan,nan,nan,10.524093389511108,11.724093389511108,0.007648468017578125,nan,nan,nan,nan,0.7324588208735916,-0.058798291998713954,0.2136204289576955,0.04421252589214559,nan,nan,nan,nan
20.628541469573975,-0.046311423,0.1962279,-1.822746,-0.059308097441992225,nan,nan,nan,nan,nan,10.627869844436646,11.827869844436645,0.0051538944244384766,nan,nan,nan,nan,0.7324452216986217,0.019822686038774212,0.2330087085543271,0.04142462288486827,nan,nan,nan,nan
20.72259211540222,0.015377681,0.19021995,-1.7964623,-0.061104653007892556,nan,nan,nan,nan,nan,10.722024917602539,11.922024917602538,0.006498575210571289,nan,nan,nan,nan,0.7324248074374343,0.08078753352374218,0.23626063313938758,0.04121521037159349,nan,nan,nan,nan
20.83857250213623,0.07794834,0.16881733,-1.772686,-0.061998386628760054,nan,nan,nan,nan,nan,10.837938785552979,12.037938785552978,0.006844758987426758,nan,nan,nan,nan,0.7323381630668222,0.13335891353486828,0.2262607249859388,0.041866092480757046,nan,nan,nan,nan
20.929548263549805,0.1226246,0.14199635,-1.7535728,-0.06235602733688628,nan,nan,nan,nan,nan,10.928873777389526,12.128873777389526,0.005213737487792969,nan,nan,nan,nan,0.7322489959116787,0.1639620389984118,0.22057393444577736,0.044191510504824894,nan,nan,nan,nan
21.02864384651184,0.18042447,0.09434405,-1.7273508,-0.06168590208535759,nan,nan,nan,nan,nan,11.027970552444458,12.227970552444457,0.006526470184326172,nan,nan,nan,nan,0.732424876785345,0.20456025748674878,0.15732720012795148,0.040251186913516014,nan,nan,nan,nan
21.133406162261963,0.21300079,0.05955828,-1.710525,-0.06020952143279876,nan,nan,nan,nan,nan,11.132851839065552,12.332851839065551,0.005265712738037109,nan,nan,nan,nan,0.7323116837074262,0.2233045480202218,0.1305769422862865,0.04292635364501339,nan,nan,nan,nan
21.22958278656006,0.2504194,0.008886048,-1.6865216,-0.056439605595621195,nan,nan,nan,nan,nan,11.228913068771362,12.428913068771362,0.005287647247314453,nan,nan,nan,nan,0.732364586037324,0.21567893577209662,0.05759764706372424,0.038137590988055456,nan,nan,nan,nan
21.32250165939331,0.26260415,-0.021357005,-1.6732934,-0.054013917548244444,nan,nan,nan,nan,nan,11.321913242340088,12.521913242340087,0.00691676139831543,nan,nan,nan,nan,0.7322557241307678,0.21695939521965685,0.02138464654287898,0.03997373325571013,nan,nan,nan,nan
21.43543243408203,0.2707931,-0.07769667,-1.6502032,-0.04927362199391475,nan,nan,nan,nan,nan,11.434897184371948,12.634897184371948,0.006047725677490234,nan,nan,nan,nan,0.7320921203349704,0.20166587521197632,-0.043814747810659124,0.03823102967096493,nan,nan,nan,nan
21.53063416481018,0.2609076,-0.11799831,-1.6301239,-0.046127075819727026,nan,nan,nan,nan,nan,11.529956817626953,12.729956817626952,0.0056247711181640625,nan,nan,nan,nan,0.7319400175614789,0.17961233197896057,-0.10085330312345232,0.03700587302456045,nan,nan,nan,nan
21.626437664031982,0.23451903,-0.15180436,-1.6071663,-0.044269423447061,nan,nan,nan,nan,nan,11.625770568847656,12.825770568847656,0.005674123764038086,nan,nan,nan,nan,0.732037086152779,0.11623977284734148,-0.1732710138027945,0.03315763358146124,nan,nan,nan,nan
21.739879608154297,0.18916231,-0.17358464,-1.5860673,-0.044283895972648715,nan,nan,nan,nan,nan,11.739220380783081,12.93922038078308,0.009198904037475586,nan,nan,nan,nan,0.7317019923723291,0.05433910400621657,-0.22181996123298747,0.032154363858096724,nan,nan,nan,nan
21.83970332145691,0.14809561,-0.17856947,-1.5632678,-0.04489120245146923,nan,nan,nan,nan,nan,11.839051961898804,13.039051961898803,0.011076927185058594,nan,nan,nan,nan,0.7316798142144478,0.010446862158423937,-0.25224382058958933,0.0356064313549352,nan,nan,nan,nan
21.933992624282837,0.08261805,-0.1717478,-1.5294753,-0.04664557037577891,nan,nan,nan,nan,nan,11.93335485458374,13.13335485458374,0.0053288936614990234,nan,nan,nan,nan,0.7321318597290472,-0.07109012503311726,-0.26375331717480566,0.03217605546265542,nan,nan,nan,nan
22.028629541397095,0.039986026,-0.16099639,-1.5096166,-0.04770277744877861,nan,nan,nan,nan,nan,12.027947664260864,13.227947664260864,0.00564122200012207,nan,nan,nan,nan,0.7322912442403766,-0.10216547335406881,-0.27510677209396767,0.03588962362370791,nan,nan,nan,nan
22.12552046775818,-0.0258802,-0.13204753,-1.4829928,-0.04970430504546654,nan,nan,nan,nan,nan,12.124878406524658,13.324878406524657,0.005977630615234375,nan,nan,nan,nan,0.732585676630478,-0.14868768676846666,-0.23427750164777134,0.03259588440576238,nan,nan,nan,nan
22.23810648918152,-0.077505864,-0.09001086,-1.4648831,-0.05111690222371472,nan,nan,nan,nan,nan,12.237510681152344,13.437510681152343,0.0070953369140625,nan,nan,nan,nan,0.7324775415850914,-0.17478389145933346,-0.17422858841050184,0.032144933021685,nan,nan,nan,nan
22.327842473983765,-0.094506405,-0.060685217,-1.4521528,-0.05156635408259159,nan,nan,nan,nan,nan,12.32717752456665,13.52717752456665,0.005783796310424805,nan,nan,nan,nan,0.7325068805509826,-0.18148876931015837,-0.13672381497465408,0.03598751459658358,nan,nan,nan,nan
22.439363956451416,-0.11624987,-0.0053349924,-1.4296733,-0.05087203397939022,nan,nan,nan,nan,nan,12.438714742660522,13.638714742660522,0.006036996841430664,nan,nan,nan,nan,0.7326354088363314,-0.17870101596309787,-0.06401734476477329,0.035380003568778295,nan,nan,nan,nan
22.53754234313965,-0.12532447,0.0573842,-1.4060123,-0.04913380767508793,nan,nan,nan,nan,nan,12.536885023117065,13.736885023117065,0.005990266799926758,nan,nan,nan,nan,0.732891853241086,-0.15675162543772658,0.02184698993382193,0.0321052292251031,nan,nan,nan,nan
22.63005304336548,-0.1238801,0.094128974,-1.3930001,-0.04782035641578869,nan,nan,nan,nan,nan,12.62937593460083,13.82937593460083,0.005268573760986328,nan,nan,nan,nan,0.7330917093354833,-0.1372630739718186,0.06719018075802106,0.03392312535884263,nan,nan,nan,nan
22.724900484085083,-0.10561151,0.15752403,-1.3716272,-0.046412179650272924,nan,nan,nan,nan,nan,12.724255323410034,13.924255323410033,0.006666898727416992,nan,nan,nan,nan,0.733311541506165,-0.10076298130628514,0.1314977603553405,0.03129329871408598,nan,nan,nan,nan
22.835059642791748,-0.07566242,0.20249957,-1.3558116,-0.045460620786586685,nan,nan,nan,nan,nan,12.834432125091553,14.034432125091552,0.0060651302337646484,nan,nan,nan,nan,0.7335304370203604,-0.061420961166641086,0.1816489471881055,0.03087694348071375,nan,nan,nan,nan
22.9239342212677,-0.04536877,0.2338812,-1.3440076,-0.044805390623975254,nan,nan,nan,nan,nan,12.923328638076782,14.123328638076782,0.00627446174621582,nan,nan,nan,nan,0.7337219225649311,-0.03919790562005924,0.20788436777628308,0.031747005323795735,nan,nan,nan,nan
23.026922941207886,-0.00022456294,0.26547146,-1.330488,-0.04409872171246143,nan,nan,nan,nan,nan,13.026355028152466,14.226355028152465,0.006122589111328125,nan,nan,nan,nan,0.7339284480039474,-0.0012046735946513528,0.23069164963421657,0.03096798748165126,nan,nan,nan,nan
23.13008141517639,0.058307726,0.28899547,-1.3186558,-0.048270282864732214,nan,nan,nan,nan,nan,13.129433870315552,14.329433870315551,0.005472421646118164,nan,nan,nan,nan,0.7341201701214646,0.04071284735992594,0.233388663445594,0.028786663982076237,nan,nan,nan,nan
23.236307382583618,0.0938369,0.301232,-1.3176794,-0.07029441893504006,nan,nan,nan,nan,nan,13.235676527023315,14.435676527023315,0.006073713302612305,nan,nan,nan,nan,0.7302222714185488,-0.05844652157730827,0.21651426314257013,0.037699430170934176,nan,nan,nan,nan
23.331241130828857,0.13028955,0.30507192,-1.3215181,-0.07618894461211106,nan,nan,nan,nan,nan,13.330564737319946,14.530564737319946,0.005756378173828125,nan,nan,nan,nan,0.7238679793201802,-0.1050677899645806,0.1699715922129528,0.04859772159974364,nan,nan,nan,nan
23.426069498062134,0.14849105,0.30712104,-1.3223282,-0.0755940125357416,nan,nan,nan,nan,nan,13.425453186035156,14.625453186035156,0.009947538375854492,nan,nan,nan,nan,0.7245090958603713,-0.07860929785856727,0.16075607100239078,0.0473489326909337,nan,nan,nan,nan
23.540863037109375,0.17244716,0.3077191,-1.3207911,-0.07308958750489643,nan,nan,nan,nan,nan,13.540243864059448,14.740243864059448,0.0077056884765625,nan,nan,nan,nan,0.7259935196436276,-0.025521714397109395,0.12124365528111308,0.046225887963974706,nan,nan,nan,nan
23.624117612838745,0.17993374,0.30450276,-1.3204089,-0.07086640671046868,nan,nan,nan,nan,nan,13.623644590377808,14.823644590377807,0.009498357772827148,nan,nan,nan,nan,0.7269349919801866,-0.0012735446504975594,0.09574246710333183,0.04507487354375546,nan,nan,nan,nan
23.725539445877075,0.18113557,0.2988327,-1.333804,-0.06565751292606678,nan,nan,nan,nan,nan,13.72488808631897,14.924888086318969,0.0060558319091796875,nan,nan,nan,nan,0.7277931268128373,0.03771368357014435,0.007927456943609575,0.041607949369941145,nan,nan,nan,nan
23.836968183517456,0.17535734,0.29026636,-1.3491195,-0.06013056565783382,nan,nan,nan,nan,nan,13.836326837539673,15.036326837539672,0.0054628849029541016,nan,nan,nan,nan,0.7282993694526195,0.02854155012782823,-0.04436528263082894,0.03779012723819791,nan,nan,nan,nan
23.92799687385559,0.16139522,0.28512266,-1.3578387,-0.05613388830442886,nan,nan,nan,nan,nan,13.92732572555542,15.12732572555542,0.00556635856628418,nan,nan,nan,nan,0.7286292566118733,0.00952564339673137,-0.07726938169092674,0.03450332356895194,nan,nan,nan,nan
24.027945041656494,0.12783574,0.27503514,-1.3709607,-0.04974240140161118,nan,nan,nan,nan,nan,14.027337074279785,15.227337074279784,0.0061435699462890625,nan,nan,nan,nan,0.7288946875335666,0.00039592128369236233,-0.14431619078346797,0.03072068728190039,nan,nan,nan,nan
24.12649917602539,0.105370276,0.26490358,-1.3809655,-0.04565382265721673,nan,nan,nan,nan,nan,14.125852823257446,15.325852823257446,0.006278038024902344,nan,nan,nan,nan,0.7292202536285883,-0.01596657379083138,-0.1771909165275463,0.02695443158309708,nan,nan,nan,nan
24.237457752227783,0.06517856,0.24352704,-1.3896962,-0.03976287354299279,nan,nan,nan,nan,nan,14.236809730529785,15.436809730529784,0.00628209114074707,nan,nan,nan,nan,0.7295902862993595,-0.009246777559880683,-0.20705188147794695,0.02316788173290436,nan,nan,nan,nan
24.334158420562744,0.01533406,0.21416232,-1.3957531,-0.03364543863819048,nan,nan,nan,nan,nan,14.333522081375122,15.533522081375121,0.005254983901977539,nan,nan,nan,nan,0.7299530411181866,0.02449603722216908,-0.2133316268556711,0.02103643888373112,nan,nan,nan,nan
24.423384189605713,-0.02592152,0.18829715,-1.402004,-0.028855137923660592,nan,nan,nan,nan,nan,14.42273736000061,15.62273736000061,0.008988618850708008,nan,nan,nan,nan,0.7303985336761011,0.04363893591489689,-0.22054246825847215,0.017582748784231182,nan,nan,nan,nan
24.54169535636902,-0.081148036,0.14928842,-1.4119419,-0.02258983717553121,nan,nan,nan,nan,nan,14.541031122207642,15.741031122207641,0.010817766189575195,nan,nan,nan,nan,0.7307603194307171,0.07976078622617656,-0.2025800240711084,0.01459232181238971,nan,nan,nan,nan
24.626389265060425,-0.11533243,0.1203645,-1.418684,-0.018772498627604835,nan,nan,nan,nan,nan,14.62572193145752,15.825721931457519,0.009734153747558594,nan,nan,nan,nan,0.7310585340530497,0.1027275806436239,-0.18582513739723958,0.012113936826530653,nan,nan,nan,nan
24.73905301094055,-0.15396048,0.07493831,-1.4208248,-0.013275554545274727,nan,nan,nan,nan,nan,14.738474369049072,15.938474369049072,0.006260871887207031,nan,nan,nan,nan,0.7315744279632672,0.1344576916667796,-0.13537159187361597,0.008369833271736838,nan,nan,nan,nan
24.832803964614868,-0.17399372,0.039528333,-1.4217594,-0.009859701156507134,nan,nan,nan,nan,nan,14.832143545150757,16.032143545150756,0.005315303802490234,nan,nan,nan,nan,0.732120608415052,0.15596552021640242,-0.11055131733038691,0.003803474301362014,nan,nan,nan,nan
24.93374466896057,-0.18918851,-0.019211706,-1.423575,-0.004955918685649747,nan,nan,nan,nan,nan,14.933093786239624,16.133093786239623,0.0053730010986328125,nan,nan,nan,nan,0.7325753757117995,0.16955844183922653,-0.033244480716852445,0.0026848593725316205,nan,nan,nan,nan
25.028486013412476,-0.19043383,-0.051541016,-1.4254094,-0.0024483701644226388,nan,nan,nan,nan,nan,15.027836084365845,16.227836084365844,0.005901813507080078,nan,nan,nan,nan,0.7331006887634725,0.1903517036973851,-0.005741720245835969,-0.0022857395836374974,nan,nan,nan,nan
25.138529062271118,-0.17365569,-0.10743474,-1.4322213,0.002341951483531078,nan,nan,nan,nan,nan,15.137927532196045,16.337927532196044,0.0069751739501953125,nan,nan,nan,nan,0.7333099708208809,0.18757462369583608,0.07164808045602744,-0.006486698710548114,nan,nan,nan,nan
25.233012199401855,-0.136859,-0.15831214,-1.4468125,0.007159485259835091,nan,nan,nan,nan,nan,15.232333421707153,16.432333421707153,0.0057239532470703125,nan,nan,nan,nan,0.7330816735439241,0.16132464818613568,0.1399401869333448,-0.007437524649743662,nan,nan,nan,nan
25.32714557647705,-0.10660726,-0.18971686,-1.4587523,0.010684345262700564,nan,nan,nan,nan,nan,15.326528072357178,16.526528072357177,0.006958484649658203,nan,nan,nan,nan,0.7332079217305718,0.16028123425645796,0.17164586477516763,-0.012749072138207734,nan,nan,nan,nan
25.422974824905396,-0.0584226,-0.22157885,-1.4746171,0.015243446613877588,nan,nan,nan,nan,nan,15.422359704971313,16.622359704971313,0.006554841995239258,nan,nan,nan,nan,0.7327090546465843,0.10087633070442222,0.20724688988146697,-0.013953095984885413,nan,nan,nan,nan
25.532188415527344,0.0070848996,-0.24083707,-1.4902536,0.020284526800655588,nan,nan,nan,nan,nan,15.531512022018433,16.731512022018432,0.005817890167236328,nan,nan,nan,nan,0.7326349879999039,0.05442871711296753,0.23702735887695398,-0.016804546075578682,nan,nan,nan,nan
25.62552237510681,0.055132974,-0.24225484,-1.4990625,0.024264069380725638,nan,nan,nan,nan,nan,15.624845743179321,16.82484574317932,0.006982564926147461,nan,nan,nan,nan,0.7327890977083669,0.012155777048748203,0.2531490153877136,-0.021605050108799817,nan,nan,nan,nan
25.73289203643799,0.11709696,-0.22922347,-1.5081562,0.02956125703588436,nan,nan,nan,nan,nan,15.732345342636108,16.932345342636108,0.005686521530151367,nan,nan,nan,nan,0.7329321545695678,-0.05558133821403268,0.2512170365770184,-0.024265362438191652,nan,nan,nan,nan
25.824787378311157,0.17528157,-0.20234896,-1.5164096,0.034182911126669976,nan,nan,nan,nan,nan,15.824223041534424,17.024223041534423,0.00615382194519043,nan,nan,nan,nan,0.7329064185508591,-0.13127863480808455,0.2096856717175925,-0.022953424737260492,nan,nan,nan,nan
25.933620929718018,0.22496678,-0.15892383,-1.5288289,0.038084649384448666,nan,nan,nan,nan,nan,15.933203220367432,17.13320322036743,0.005502462387084961,nan,nan,nan,nan,0.7331350069909963,-0.1754361369066436,0.18043662615616043,-0.026160950319752404,nan,nan,nan,nan
26.041268825531006,0.2591021,-0.1020733,-1.5436249,0.040510735347666464,nan,nan,nan,nan,nan,16.040616750717163,17.240616750717162,0.007859468460083008,nan,nan,nan,nan,0.732913887676333,-0.2141048459388726,0.11633456407222159,-0.026864499154632005,nan,nan,nan,nan
26.123519897460938,0.27704215,-0.05471424,-1.551672,0.04132272953561896,nan,nan,nan,nan,nan,16.12288236618042,17.32288236618042,0.006922006607055664,nan,nan,nan,nan,0.7329620833019592,-0.23388103569684102,0.06891292534042955,-0.027031146007851763,nan,nan,nan,nan
26.235950231552124,0.28336394,0.00308104,-1.562977,0.041855143062477215,nan,nan,nan,nan,nan,16.23545241355896,17.43545241355896,0.006054401397705078,nan,nan,nan,nan,0.7332253961301063,-0.2574946550743645,0.028566642328988215,-0.03187290341292579,nan,nan,nan,nan
26.329842805862427,0.27464914,0.07193037,-1.579517,0.04228869215675317,nan,nan,nan,nan,nan,16.329182624816895,17.529182624816894,0.005738019943237305,nan,nan,nan,nan,0.7329058463191592,-0.24052392243564394,-0.05658116500536769,-0.029027261192668338,nan,nan,nan,nan
26.430907487869263,0.25077188,0.12842704,-1.5937364,0.04275923326289634,nan,nan,nan,nan,nan,16.430241346359253,17.630241346359252,0.005954742431640625,nan,nan,nan,nan,0.7330175158093258,-0.2363308592777413,-0.09716916372803391,-0.03419329242677404,nan,nan,nan,nan
26.526305198669434,0.22396488,0.16573887,-1.6030076,0.0429668332159624,nan,nan,nan,nan,nan,16.52568030357361,17.725680303573608,0.007776498794555664,nan,nan,nan,nan,0.7330780632793394,-0.20181550311515584,-0.15339549504070885,-0.03548914956671567,nan,nan,nan,nan
26.640102863311768,0.17467114,0.20187253,-1.6193731,0.04395853892996868,nan,nan,nan,nan,nan,16.63947558403015,17.83947558403015,0.0066182613372802734,nan,nan,nan,nan,0.7330068473330735,-0.14340403558641682,-0.20792644628149232,-0.03667372599203847,nan,nan,nan,nan
26.73231077194214,0.11650661,0.22444494,-1.6360781,0.045692918256416915,nan,nan,nan,nan,nan,16.731749773025513,17.931749773025512,0.0057103633880615234,nan,nan,nan,nan,0.7326578791559716,-0.05453384283549758,-0.23829148302473965,-0.03342700349515011,nan,nan,nan,nan
26.825074672698975,0.07509087,0.23212777,-1.6474694,0.04685934036347161,nan,nan,nan,nan,nan,16.8244891166687,18.0244891166687,0.007951498031616211,nan,nan,nan,nan,0.7327828987315187,-0.01841999103460687,-0.2548612825686744,-0.03804976361948221,nan,nan,nan,nan
26.92392349243164,0.0043688677,0.22941181,-1.6656382,0.04853646026787375,nan,nan,nan,nan,nan,16.92328429222107,18.12328429222107,0.0072896480560302734,nan,nan,nan,nan,0.7325392578377761,0.051864469285353314,-0.2523276874661431,-0.035185899064006994,nan,nan,nan,nan
27.0358624458313,-0.05329109,0.20453224,-1.6796184,0.05002707278711345,nan,nan,nan,nan,nan,17.03523850440979,18.23523850440979,0.00548243522644043,nan,nan,nan,nan,0.7325075235048069,0.12482967870687568,-0.22242392314360407,-0.0339724013611151,nan,nan,nan,nan
27.131304264068604,-0.088449806,0.17920904,-1.6920053,0.05032369102210398,nan,nan,nan,nan,nan,17.130630016326904,18.330630016326904,0.005882978439331055,nan,nan,nan,nan,0.7326591415477888,0.1586910292727354,-0.21051104536814302,-0.03755809218453915,nan,nan,nan,nan
27.231818914413452,-0.13522753,0.12735406,-1.7207803,0.04995963694736684,nan,nan,nan,nan,nan,17.23115062713623,18.43115062713623,0.006037473678588867,nan,nan,nan,nan,0.7321225143830453,0.20414788024933114,-0.14576665947174947,-0.032913132348523395,nan,nan,nan,nan
27.338451623916626,-0.16265471,0.08046676,-1.7403493,0.0490282429883785,nan,nan,nan,nan,nan,17.337865114212036,18.537865114212035,0.005640268325805664,nan,nan,nan,nan,0.7320163081158344,0.23075707095077805,-0.12243926813479081,-0.036155481336852494,nan,nan,nan,nan
27.4354248046875,-0.18138817,0.026694072,-1.7593944,0.04739555117957723,nan,nan,nan,nan,nan,17.43474793434143,18.63474793434143,0.005316972732543945,nan,nan,nan,nan,0.7317058488214991,0.2386597558850973,-0.04636655450278576,-0.03271227824655873,nan,nan,nan,nan
27.531342267990112,-0.18820776,-0.019290684,-1.7758745,0.045519724082580315,nan,nan,nan,nan,nan,17.530721187591553,18.730721187591552,0.005588531494140625,nan,nan,nan,nan,0.7318101095937544,0.2473924753189026,-0.016011604657242537,-0.03533207734918042,nan,nan,nan,nan
27.628785371780396,-0.18704657,-0.0580605,-1.7938992,0.04383728917546994,nan,nan,nan,nan,nan,17.628155946731567,18.828155946731567,0.006084442138671875,nan,nan,nan,nan,0.731629781211932,0.23411942855934756,0.03887822391614448,-0.03483500637759148,nan,nan,nan,nan
27.724053382873535,-0.16471913,-0.11656098,-1.8164746,0.04167187651813746,nan,nan,nan,nan,nan,17.72347617149353,18.92347617149353,0.006659269332885742,nan,nan,nan,nan,0.7312257336730578,0.18557813053049965,0.11233920969736454,-0.03064794830493627,nan,nan,nan,nan
27.824461460113525,-0.137858,-0.1543274,-1.828171,0.04077598439994952,nan,nan,nan,nan,nan,17.823909044265747,19.023909044265746,0.007448911666870117,nan,nan,nan,nan,0.7314274780711026,0.1718801268917327,0.15564120582529797,-0.034489739261383524,nan,nan,nan,nan
27.924301147460938,-0.08306734,-0.20426041,-1.84343,0.040538819593054526,nan,nan,nan,nan,nan,17.9236843585968,19.1236843585968,0.006740570068359375,nan,nan,nan,nan,0.7316612169078083,0.11646359641206187,0.2127311085652623,-0.031262103932790476,nan,nan,nan,nan
28.027350187301636,-0.03283239,-0.23171131,-1.8592814,0.04136416144524989,nan,nan,nan,nan,nan,18.026702165603638,19.226702165603637,0.007736921310424805,nan,nan,nan,nan,0.731885410977091,0.08150398060850385,0.2449240924689911,-0.03387597558631792,nan,nan,nan,nan
28.131869792938232,0.013474995,-0.24124199,-1.8711544,0.04282267498597234,nan,nan,nan,nan,nan,18.131259441375732,19.33125944137573,0.00551915168762207,nan,nan,nan,nan,0.7321198266259177,0.03884869397064981,0.2685774919387723,-0.03586580388222257,nan,nan,nan,nan
28.23611807823181,0.08038118,-0.23915707,-1.8869479,0.04558506717821788,nan,nan,nan,nan,nan,18.23546576499939,19.43546576499939,0.005615949630737305,nan,nan,nan,nan,0.7321453130423775,-0.04943616825172114,0.25989697077243357,-0.031983533209204044,nan,nan,nan,nan
28.33330774307251,0.123461716,-0.2266501,-1.9006172,0.04736578097129134,nan,nan,nan,nan,nan,18.3326632976532,19.532663297653198,0.005920886993408203,nan,nan,nan,nan,0.732443448370022,-0.09880550306874232,0.25418829342255383,-0.03687705688646848,nan,nan,nan,nan
28.433131217956543,0.18431531,-0.19003505,-1.927466,0.049223299670490224,nan,nan,nan,nan,nan,18.432478189468384,19.632478189468383,0.0060977935791015625,nan,nan,nan,nan,0.7320336523037605,-0.17436304787175258,0.19917074761796716,-0.03264461884314455,nan,nan,nan,nan
28.531896352767944,0.22008938,-0.1521958,-1.9459219,0.050327095058220805,nan,nan,nan,nan,nan,18.531230211257935,19.731230211257934,0.00576019287109375,nan,nan,nan,nan,0.7320520984949721,-0.2210242778145624,0.17903815611521987,-0.037407244793838564,nan,nan,nan,nan
28.625174283981323,0.25028953,-0.10446343,-1.9648163,0.05070898189681192,nan,nan,nan,nan,nan,18.624587297439575,19.824587297439574,0.007083892822265625,nan,nan,nan,nan,0.7318544725218377,-0.2609864551255329,0.1260985917824513,-0.03783466074438782,nan,nan,nan,nan
28.739035606384277,0.2776292,-0.0398626,-1.9877179,0.04957053315963518,nan,nan,nan,nan,nan,18.7385413646698,19.9385413646698,0.005887746810913086,nan,nan,nan,nan,0.7317706495708604,-0.28343346782435036,0.060314898916220876,-0.03783470522796509,nan,nan,nan,nan
28.831310272216797,0.2879675,0.02747615,-2.0064545,0.04689258409282607,nan,nan,nan,nan,nan,18.830643892288208,20.030643892288207,0.0064697265625,nan,nan,nan,nan,0.7315907646643197,-0.2668619219986292,-0.015935222936808633,-0.03290692198424999,nan,nan,nan,nan
28.93494153022766,0.2774337,0.09448564,-2.0218368,0.04388583322506775,nan,nan,nan,nan,nan,18.934282779693604,20.134282779693603,0.005374431610107422,nan,nan,nan,nan,0.7318895590805534,-0.24538789474026074,-0.08391047888251241,-0.03294402904745894,nan,nan,nan,nan
29.029402017593384,0.2583588,0.14165445,-2.0369415,0.04184775456675539,nan,nan,nan,nan,nan,19.02875280380249,20.22875280380249,0.006645679473876953,nan,nan,nan,nan,0.7320568583271952,-0.21983043192187113,-0.13453213278446893,-0.03459939764764335,nan,nan,nan,nan
29.13932704925537,0.21152394,0.18953033,-2.0564973,0.041201483353221394,nan,nan,nan,nan,nan,19.13876175880432,20.33876175880432,0.005464315414428711,nan,nan,nan,nan,0.7320620544754146,-0.16203191874670372,-0.1976832724918316,-0.032690327744479254,nan,nan,nan,nan
29.23641276359558,0.16818048,0.21292049,-2.0715075,0.04196817372266215,nan,nan,nan,nan,nan,19.23574161529541,20.43574161529541,0.007251262664794922,nan,nan,nan,nan,0.7321931150813547,-0.12217302556775217,-0.24019347948218278,-0.0369313473261665,nan,nan,nan,nan
29.33847451210022,0.09688257,0.23338108,-2.0964305,0.044243087569342414,nan,nan,nan,nan,nan,19.33796715736389,20.53796715736389,0.005822896957397461,nan,nan,nan,nan,0.7319241380429244,-0.023285187143508464,-0.27429590915923385,-0.03289542631318654,nan,nan,nan,nan
29.43688702583313,0.047614735,0.23672748,-2.113871,0.04579324638124194,nan,nan,nan,nan,nan,19.43622922897339,20.636229228973388,0.005280494689941406,nan,nan,nan,nan,0.7318857021503242,0.023998859264951603,-0.2920546110980029,-0.03845210772121009,nan,nan,nan,nan
29.54045557975769,-0.026471961,0.22140874,-2.1356425,0.048005519937423455,nan,nan,nan,nan,nan,19.539929628372192,20.73992962837219,0.005537748336791992,nan,nan,nan,nan,0.7315215145433311,0.10924980866080809,-0.2684896433879478,-0.03376348603172524,nan,nan,nan,nan
29.63415551185608,-0.06741873,0.20070936,-2.1499739,0.0491119404626989,nan,nan,nan,nan,nan,19.633519172668457,20.833519172668456,0.005501747131347656,nan,nan,nan,nan,0.7314826758063424,0.14647874868915156,-0.259106174594295,-0.03838642869662861,nan,nan,nan,nan
29.734557628631592,-0.12988295,0.16073541,-2.172756,0.049565150504234726,nan,nan,nan,nan,nan,19.733879327774048,20.933879327774047,0.0057981014251708984,nan,nan,nan,nan,0.7310688310708324,0.18987924781595716,-0.20064196679166213,-0.03344887650283353,nan,nan,nan,nan
29.831452131271362,-0.16279955,0.12908101,-2.1887655,0.04881032858662557,nan,nan,nan,nan,nan,19.8307843208313,21.030784320831298,0.005747318267822266,nan,nan,nan,nan,0.7309745604854219,0.19936465322432084,-0.18043391850066193,-0.0371528201952449,nan,nan,nan,nan
29.939512729644775,-0.18905623,0.08044965,-2.211248,0.04683846521413143,nan,nan,nan,nan,nan,19.938929319381714,21.138929319381713,0.005437374114990234,nan,nan,nan,nan,0.7303307020110767,0.2004590095433258,-0.10565648203734047,-0.03539347326358678,nan,nan,nan,nan
30.034637689590454,-0.19396658,0.014910707,-2.226707,0.04467251808867821,nan,nan,nan,nan,nan,20.033981323242188,21.233981323242187,0.0058443546295166016,nan,nan,nan,nan,0.7298148657897727,0.1896955439763194,-0.007940502036530885,-0.030258552779775957,nan,nan,nan,nan
30.129987239837646,-0.19104618,-0.03093865,-2.235274,0.04336880547147534,nan,nan,nan,nan,nan,20.12935757637024,21.32935757637024,0.006368160247802734,nan,nan,nan,nan,0.7296378629318926,0.18417415094227008,0.03531961138423618,-0.03326628207498929,nan,nan,nan,nan
30.22272753715515,-0.17667413,-0.104144804,-2.2488248,0.04167575642052338,nan,nan,nan,nan,nan,20.22235870361328,21.42235870361328,0.005327463150024414,nan,nan,nan,nan,0.7291887218677301,0.15375193644090424,0.12295160928336636,-0.029452783800580255,nan,nan,nan,nan
30.336825847625732,-0.15174805,-0.16278552,-2.2606025,0.04100102105602225,nan,nan,nan,nan,nan,20.336150884628296,21.536150884628295,0.0058209896087646484,nan,nan,nan,nan,0.7288003042140954,0.11913034757273988,0.17633680004571617,-0.03005904796641022,nan,nan,nan,nan
30.43048906326294,-0.12652439,-0.20031527,-2.2695618,0.04100032157165226,nan,nan,nan,nan,nan,20.429829120635986,21.629829120635986,0.0071642398834228516,nan,nan,nan,nan,0.7284404533933461,0.09436083871543201,0.2143186641006921,-0.03181677898633381,nan,nan,nan,nan
30.525696754455566,-0.06681854,-0.25226772,-2.289087,0.04127279060757382,nan,nan,nan,nan,nan,20.525405645370483,21.725405645370483,0.006745576858520508,nan,nan,nan,nan,0.7276934647875625,0.04107657295602366,0.2545382767954876,-0.02947313892009408,nan,nan,nan,nan
30.64111638069153,-0.00011702569,-0.29456106,-2.3079772,0.042102383536612845,nan,nan,nan,nan,nan,20.640520095825195,21.840520095825195,0.005644321441650391,nan,nan,nan,nan,0.7268396991733427,0.00023224419071525394,0.2836366956081242,-0.029413596649833382,nan,nan,nan,nan
30.733874082565308,0.045197725,-0.3172695,-2.322489,0.04262637175016323,nan,nan,nan,nan,nan,20.733243942260742,21.93324394226074,0.005861759185791016,nan,nan,nan,nan,0.7262412439723418,-0.01690149373277367,0.30335294854998984,-0.030838358486856447,nan,nan,nan,nan
30.82845902442932,0.121078886,-0.34627464,-2.3466187,0.04313743494449493,nan,nan,nan,nan,nan,20.82783055305481,22.02783055305481,0.005883693695068359,nan,nan,nan,nan,0.7253079082516544,-0.03874883346398952,0.27400976075928624,-0.028797450683631775,nan,nan,nan,nan
30.940855503082275,0.18881524,-0.3624078,-2.3655581,0.04343238289691567,nan,nan,nan,nan,nan,20.940322875976562,22.140322875976562,0.005624055862426758,nan,nan,nan,nan,0.7246547064114481,-0.048154466048341914,0.2416271179642998,-0.027813533773244217,nan,nan,nan,nan
31.03863835334778,0.22278403,-0.36682943,-2.3777142,0.04339503301153826,nan,nan,nan,nan,nan,21.037970066070557,22.237970066070556,0.005522727966308594,nan,nan,nan,nan,0.7241338908448763,-0.043971165117330596,0.23178375718598906,-0.027610314708313436,nan,nan,nan,nan
31.130666255950928,0.2687282,-0.36598152,-2.3997724,0.042875176927460325,nan,nan,nan,nan,nan,21.13004446029663,22.33004446029663,0.006926059722900391,nan,nan,nan,nan,0.7235141060252548,-0.036011673719311826,0.14611919187776146,-0.02560090216124451,nan,nan,nan,nan
31.22894859313965,0.2927377,-0.36028644,-2.416848,0.0415949963905579,nan,nan,nan,nan,nan,21.22834849357605,22.42834849357605,0.0076446533203125,nan,nan,nan,nan,0.723097911834647,-0.013920301710694086,0.10536608689155734,-0.02479069450838076,nan,nan,nan,nan
31.32686138153076,0.30377755,-0.3539764,-2.429998,0.03989060924715194,nan,nan,nan,nan,nan,21.326287508010864,22.526287508010864,0.0065915584564208984,nan,nan,nan,nan,0.7226451875381246,0.010258119320338316,0.017163928511951563,-0.022353052383306763,nan,nan,nan,nan
31.42832040786743,0.3020976,-0.34298706,-2.4440353,0.037177991750897234,nan,nan,nan,nan,nan,21.42765498161316,22.62765498161316,0.00734400749206543,nan,nan,nan,nan,0.7223608204835165,0.033836649667361,-0.07970432606238598,-0.020465031699954946,nan,nan,nan,nan
31.526517629623413,0.29087555,-0.33260152,-2.4508383,0.035282778416750794,nan,nan,nan,nan,nan,21.526280879974365,22.726280879974365,0.00700068473815918,nan,nan,nan,nan,0.7222522107426773,0.05361245541716678,-0.14508010509836866,-0.017543566882988387,nan,nan,nan,nan
31.629562377929688,0.24981005,-0.30980784,-2.4555745,0.03230254489432771,nan,nan,nan,nan,nan,21.628904342651367,22.828904342651366,0.006821632385253906,nan,nan,nan,nan,0.7223772514154643,0.04486021865624857,-0.22650821953528333,-0.017357422785076734,nan,nan,nan,nan
31.728837966918945,0.21085988,-0.29080412,-2.4575567,0.030329951467635684,nan,nan,nan,nan,nan,21.72822380065918,22.92822380065918,0.007341623306274414,nan,nan,nan,nan,0.7224149906424565,0.04685533261574535,-0.2788569576320264,-0.013671393206330993,nan,nan,nan,nan
31.824743032455444,0.15894309,-0.26542312,-2.460546,0.027814639159870036,nan,nan,nan,nan,nan,21.82418990135193,23.024189901351928,0.005433559417724609,nan,nan,nan,nan,0.7225033909259921,0.013344709124519752,-0.320317259072227,-0.013697364834156987,nan,nan,nan,nan
31.93551540374756,0.0742489,-0.22495589,-2.4679973,0.02398454605704394,nan,nan,nan,nan,nan,21.93484354019165,23.13484354019165,0.005949735641479492,nan,nan,nan,nan,0.722429016187469,-0.022273999566082246,-0.3490379291690014,-0.010009860916037385,nan,nan,nan,nan
32.038058280944824,0.0039498196,-0.18791744,-2.4729643,0.020714052705552096,nan,nan,nan,nan,nan,22.037397384643555,23.237397384643554,0.006044149398803711,nan,nan,nan,nan,0.7224206168027842,-0.06383229378007611,-0.34857904337517803,-0.008302551525982544,nan,nan,nan,nan
32.13190054893494,-0.06939938,-0.13789397,-2.4774609,0.016636788197507177,nan,nan,nan,nan,nan,22.13125514984131,23.331255149841308,0.0064697265625,nan,nan,nan,nan,0.7225996841706697,-0.112147313724285,-0.29898160486123504,-0.009381087332250125,nan,nan,nan,nan
32.2052686214447,-0.09774789,-0.114850976,-2.4788241,0.014905872104569584,nan,nan,nan,nan,nan,22.204965114593506,23.404965114593505,0.01194143295288086,nan,nan,nan,nan,0.7225698726613092,-0.13164663765134624,-0.2971332066991688,-0.005525385312766608,nan,nan,nan,nan
32.33180499076843,-0.15608643,-0.051757563,-2.4743936,0.010779348726454464,nan,nan,nan,nan,nan,22.331138372421265,23.531138372421264,0.008065462112426758,nan,nan,nan,nan,0.7231336665367326,-0.1804058687161659,-0.165181655215468,-0.006496136075611551,nan,nan,nan,nan
32.42941355705261,-0.18576646,-0.0021361315,-2.4639485,0.008555743773369127,nan,nan,nan,nan,nan,22.428815603256226,23.628815603256225,0.009332895278930664,nan,nan,nan,nan,0.723586325219926,-0.20734801096030736,-0.1066541110483635,-2.5347311021929185e-05,nan,nan,nan,nan
