time,x,y,z,yaw,platform,trajectory,traj_double,traj_short,traj_spin,traj_time,ref_time,comptime,x_ref,y_ref,yaw_ref,z_ref,throttle_input,p_input,q_input,r_input,cbf_term_pitch_cbf,cbf_term_roll_cbf,cbf_term_thrust_cbf,cbf_term_yaw_cbf
10.036638498306274,0.09177658,0.022899348,-2.9145799,-0.0060703188656682635,SIM,CIRCLE_VERTICAL,NormSpd,Not Short,NoSpin,0.0317835807800293,1.2317835807800293,0.006017446517944336,nan,nan,nan,nan,0.7224065324141442,0.01285333578668788,0.04234658479536422,0.003588491525529439,nan,nan,nan,nan
10.150184631347656,0.08615268,0.025270808,-2.9196138,-0.004668490534063723,nan,nan,nan,nan,nan,0.14509129524230957,1.3450912952423095,0.005815267562866211,nan,nan,nan,nan,0.7222724690243699,0.010296578132185081,0.09630420254287943,0.003503501028983023,nan,nan,nan,nan
10.245302200317383,0.07847872,0.02583465,-2.9226134,-0.002608944505542528,nan,nan,nan,nan,nan,0.24009943008422852,1.4400994300842285,0.0054302215576171875,nan,nan,nan,nan,0.7221475868946321,0.011259287536980762,0.0825826266015773,0.002097913674589607,nan,nan,nan,nan
10.352181911468506,0.06529494,0.023280175,-2.921128,2.2630667658850995e-05,nan,nan,nan,nan,nan,0.3471338748931885,1.5471338748931884,0.008320331573486328,nan,nan,nan,nan,0.7224386962210729,0.012423077722527019,0.04654937922761924,0.000541068091421682,nan,nan,nan,nan
10.449893951416016,0.054027833,0.018950988,-2.920737,0.0020800896184470243,nan,nan,nan,nan,nan,0.4447319507598877,1.6447319507598877,0.005216836929321289,nan,nan,nan,nan,0.7225114169477037,0.015229671787438117,0.022653265839772552,-0.0007569183967383638,nan,nan,nan,nan
10.548645496368408,0.040846925,0.018996798,-2.9206884,0.0036759690520060872,nan,nan,nan,nan,nan,0.5434346199035645,1.7434346199035644,0.0050907135009765625,nan,nan,nan,nan,0.7227546010973707,0.013477041422989283,-0.012660887715923615,-0.0022863233648500857,nan,nan,nan,nan
10.652725458145142,0.027488068,0.018018221,-2.916315,0.004331166352573832,nan,nan,nan,nan,nan,0.6478314399719238,1.8478314399719238,0.007128477096557617,nan,nan,nan,nan,0.722661394387214,0.010199126499418652,-0.022075715515377736,-0.0026678022920163962,nan,nan,nan,nan
10.748831987380981,0.009446475,0.016349884,-2.9043775,0.004932849437671091,nan,nan,nan,nan,nan,0.7436239719390869,1.9436239719390869,0.0050868988037109375,nan,nan,nan,nan,0.7232173305119336,0.005280416956200254,-0.041464675182245274,-0.0030059126259762907,nan,nan,nan,nan
10.840946435928345,-0.00804319,0.015487343,-2.8890316,0.005885144258202997,nan,nan,nan,nan,nan,0.8357582092285156,2.035758209228516,0.009154319763183594,nan,nan,nan,nan,0.7238275795209426,0.003083598349924284,-0.05265441971537273,-0.003539137800960547,nan,nan,nan,nan
10.938007354736328,-0.03392966,0.006566656,-2.8638618,0.010747183448765695,nan,nan,nan,nan,nan,0.9328701496124268,2.132870149612427,0.00655364990234375,nan,nan,nan,nan,0.7248502836216572,0.006284974211112435,-0.0626922138096608,-0.0056284480901933505,nan,nan,nan,nan
11.050654411315918,-0.056183044,-0.0002012875,-2.8429518,0.015990605292833526,nan,nan,nan,nan,nan,1.0455553531646729,2.245555353164673,0.005217790603637695,nan,nan,nan,nan,0.7255806484630157,0.011082901727964346,-0.063033409190464,-0.009014573070002417,nan,nan,nan,nan
11.146434307098389,-0.07334151,-0.008354531,-2.8317504,0.019787463655532925,nan,nan,nan,nan,nan,1.1412692070007324,2.3412692070007326,0.005407810211181641,nan,nan,nan,nan,0.7258532809353733,0.012629142152528005,-0.06025937097563723,-0.01115607788659944,nan,nan,nan,nan
11.239557266235352,-0.09833967,-0.01998193,-2.8182259,0.02453603563773888,nan,nan,nan,nan,nan,1.234368085861206,2.4343680858612062,0.006825923919677734,nan,nan,nan,nan,0.7261121840844316,0.018493269492144946,-0.05310091298148764,-0.014620939460231956,nan,nan,nan,nan
11.346434831619263,-0.120268136,-0.026414704,-2.8044143,0.02652326138146316,nan,nan,nan,nan,nan,1.3412384986877441,2.5412384986877443,0.0053272247314453125,nan,nan,nan,nan,0.7262774969421446,0.015249607305051495,-0.04609233974478082,-0.016502201461285827,nan,nan,nan,nan
11.440271854400635,-0.13333814,-0.030675652,-2.7882621,0.027171241406316455,nan,nan,nan,nan,nan,1.4350736141204834,2.6350736141204836,0.005438566207885742,nan,nan,nan,nan,0.7265105290234745,0.01164282603868502,-0.04289897182181258,-0.017044923624963345,nan,nan,nan,nan
11.543927192687988,-0.15449151,-0.037166268,-2.767193,0.027822685602321567,nan,nan,nan,nan,nan,1.5387630462646484,2.7387630462646486,0.006778240203857422,nan,nan,nan,nan,0.7271617374657047,0.005351909389616656,-0.033455503880938285,-0.017394628391558663,nan,nan,nan,nan
11.645101308822632,-0.17355748,-0.04365752,-2.7488012,0.02876784516896358,nan,nan,nan,nan,nan,1.6399636268615723,2.8399636268615724,0.005327463150024414,nan,nan,nan,nan,0.7275426792796506,0.0016451979582178177,-0.030970987846396604,-0.01780334264011609,nan,nan,nan,nan
11.754597663879395,-0.19222434,-0.05221521,-2.727344,0.030740085507047404,nan,nan,nan,nan,nan,1.7494113445281982,2.9494113445281984,0.0055789947509765625,nan,nan,nan,nan,0.7280433621195316,0.0016857559879915548,-0.025594240582041607,-0.0190744016263145,nan,nan,nan,nan
11.846629619598389,-0.20211537,-0.05925007,-2.7094238,0.03167931416206281,nan,nan,nan,nan,nan,1.8414578437805176,3.0414578437805178,0.005335092544555664,nan,nan,nan,nan,0.7285562071397438,0.0034491867838091555,-0.013573897093041628,-0.01998158608539001,nan,nan,nan,nan
11.955319881439209,-0.20869261,-0.06459338,-2.6915812,0.031192152399550605,nan,nan,nan,nan,nan,1.9501421451568604,3.1501421451568605,0.005858898162841797,nan,nan,nan,nan,0.7287103498634496,0.0027610257039099896,-0.00849042735366341,-0.01998194056680644,nan,nan,nan,nan
12.04817819595337,-0.20745932,-0.06338893,-2.6738617,0.02929191661714924,nan,nan,nan,nan,nan,2.0429763793945312,3.2429763793945314,0.005507707595825195,nan,nan,nan,nan,0.728954258589869,-0.00351233863534322,0.009660665730601922,-0.019015804673783412,nan,nan,nan,nan
12.141075134277344,-0.20423527,-0.0618129,-2.6634495,0.027792857073202906,nan,nan,nan,nan,nan,2.1359312534332275,3.3359312534332277,0.005907773971557617,nan,nan,nan,nan,0.7290590679361656,-0.009098481393023,0.01282641082847937,-0.017964514939475266,nan,nan,nan,nan
12.25606894493103,-0.19390814,-0.05844305,-2.6445777,0.024896554316284028,nan,nan,nan,nan,nan,2.250960350036621,3.4509603500366213,0.006689786911010742,nan,nan,nan,nan,0.7293524421606368,-0.013154348441912765,0.019819532575451895,-0.01634046055483189,nan,nan,nan,nan
12.345830202102661,-0.17852637,-0.05011248,-2.6336668,0.022740518364052685,nan,nan,nan,nan,nan,2.3406412601470947,3.540641260147095,0.0054209232330322266,nan,nan,nan,nan,0.7294869229619412,-0.020015902705063482,0.031021055928399707,-0.014803390581868114,nan,nan,nan,nan
12.438734292984009,-0.16202472,-0.042403743,-2.6268015,0.02009555938064881,nan,nan,nan,nan,nan,2.4336795806884766,3.6336795806884767,0.005986452102661133,nan,nan,nan,nan,0.729500654350053,-0.023069166327618452,0.034632753640114276,-0.01344705330821729,nan,nan,nan,nan
12.54657530784607,-0.14851415,-0.0344218,-2.613172,0.017152278505143684,nan,nan,nan,nan,nan,2.5413715839385986,3.741371583938599,0.005439281463623047,nan,nan,nan,nan,0.7296899752536901,-0.02268945401061946,0.032355990132015275,-0.01139107775306298,nan,nan,nan,nan
12.64149260520935,-0.14046495,-0.027907422,-2.6013136,0.015325166806910647,nan,nan,nan,nan,nan,2.636305570602417,3.836305570602417,0.006713151931762695,nan,nan,nan,nan,0.729981513112485,-0.02092373431601225,0.023867306864223645,-0.010087981091194118,nan,nan,nan,nan
12.752959251403809,-0.13296208,-0.018316789,-2.586237,0.014582705893407284,nan,nan,nan,nan,nan,2.747875213623047,3.947875213623047,0.005410671234130859,nan,nan,nan,nan,0.7304722231324062,-0.019227452388393577,0.00863249600179959,-0.009214915620819445,nan,nan,nan,nan
12.843164920806885,-0.12718841,-0.0074988464,-2.5729382,0.013927750420605517,nan,nan,nan,nan,nan,2.8379695415496826,4.037969541549683,0.006772518157958984,nan,nan,nan,nan,0.7307508263429046,-0.017208986676673577,-0.0026218039645632884,-0.008882222630410172,nan,nan,nan,nan
12.944338083267212,-0.119195126,-0.00032984372,-2.564875,0.01239330716159521,nan,nan,nan,nan,nan,2.9391281604766846,4.139128160476685,0.008141517639160156,nan,nan,nan,nan,0.730966571007663,-0.014196620676524252,-0.010590080446521676,-0.008310514468488402,nan,nan,nan,nan
13.053125381469727,-0.10852046,0.0043465816,-2.5550017,0.009620672407219217,nan,nan,nan,nan,nan,3.0480740070343018,4.248074007034302,0.005137920379638672,nan,nan,nan,nan,0.7311076809523551,-0.00580725390554559,-0.010082736790353326,-0.006518513245279757,nan,nan,nan,nan
13.146565198898315,-0.09917599,0.0065278076,-2.5452049,0.007066920664287537,nan,nan,nan,nan,nan,3.141359329223633,4.341359329223633,0.005807161331176758,nan,nan,nan,nan,0.731212004656683,0.005550400565432275,-0.008591528575571227,-0.004885896665592184,nan,nan,nan,nan
13.239633321762085,-0.092098534,0.009280555,-2.5382648,0.00564732287199165,nan,nan,nan,nan,nan,3.2344443798065186,4.434444379806519,0.005169391632080078,nan,nan,nan,nan,0.7314378776498341,0.00913810998371532,-0.011331439150114116,-0.0038917014488334825,nan,nan,nan,nan
13.349611043930054,-0.07863392,0.010298357,-2.5320723,0.004387855171835072,nan,nan,nan,nan,nan,3.3444035053253174,4.544403505325318,0.005884408950805664,nan,nan,nan,nan,0.7316254450675732,0.012356765179409297,-0.005949195373908525,-0.002819456220453856,nan,nan,nan,nan
13.441915035247803,-0.05838697,0.0075921416,-2.516946,0.0029242318982799576,nan,nan,nan,nan,nan,3.436826705932617,4.636826705932617,0.006813526153564453,nan,nan,nan,nan,0.7319298972728152,0.015539027842729107,0.005256773609880424,-0.0020676431598119585,nan,nan,nan,nan
13.555977821350098,-0.03239054,0.009602424,-2.5014489,0.002747467277115954,nan,nan,nan,nan,nan,3.550834894180298,4.750834894180298,0.0056781768798828125,nan,nan,nan,nan,0.7324589323612845,0.015605113794050883,0.017643178468797923,-0.0014542224027015945,nan,nan,nan,nan
13.646516561508179,-0.012872703,0.011707,-2.4945827,0.0030029920357479262,nan,nan,nan,nan,nan,3.6413216590881348,4.841321659088135,0.005916118621826172,nan,nan,nan,nan,0.7328140312305467,0.011691597096421709,0.02418518759394745,-0.001750347645006087,nan,nan,nan,nan
13.740226030349731,0.020857323,0.013795756,-2.4892845,0.00204550543458254,nan,nan,nan,nan,nan,3.735063076019287,4.935063076019287,0.005866527557373047,nan,nan,nan,nan,0.7328534486771323,0.006549304400013885,0.03903993234349653,-0.001398834627469941,nan,nan,nan,nan
13.85526156425476,0.048834287,0.013796309,-2.4804704,0.0012870276011386662,nan,nan,nan,nan,nan,3.850248336791992,5.050248336791992,0.005101203918457031,nan,nan,nan,nan,0.7330806294413875,0.0035612310948908055,0.043272456949156435,-0.0007876614316687478,nan,nan,nan,nan
13.948408365249634,0.06946237,0.015436991,-2.4751358,0.0006742574267809311,nan,nan,nan,nan,nan,3.9432103633880615,5.143210363388062,0.005502939224243164,nan,nan,nan,nan,0.7333406667705527,0.0020347202177329275,0.04140026396574429,-0.0005208365704458468,nan,nan,nan,nan
14.04196810722351,0.09477402,0.015373011,-2.471726,-0.0006181522358996846,nan,nan,nan,nan,nan,4.036788702011108,5.236788702011109,0.008817911148071289,nan,nan,nan,nan,0.7333776969865574,-0.000859169122272408,0.03701335494720385,5.563242850692005e-05,nan,nan,nan,nan
14.140120506286621,0.11080869,0.014461969,-2.4718087,-0.0018112822484296469,nan,nan,nan,nan,nan,4.134933710098267,5.334933710098267,0.005792379379272461,nan,nan,nan,nan,0.7333953259840719,0.0007230867890270055,0.03042711770167843,0.0009100396751563709,nan,nan,nan,nan
14.252098321914673,0.13292533,0.0156085035,-2.474371,-0.00176489409529701,nan,nan,nan,nan,nan,4.24688982963562,5.44688982963562,0.00522303581237793,nan,nan,nan,nan,0.7332132505840375,0.0006101834922107065,0.02337123754628693,0.0012545596366368768,nan,nan,nan,nan
14.34545636177063,0.1574857,0.018113077,-2.4818857,-1.100452764957096e-05,nan,nan,nan,nan,nan,4.340265989303589,5.540265989303589,0.005982637405395508,nan,nan,nan,nan,0.732797719695178,-0.002018999454849771,0.019851958399594995,0.0005367085300437036,nan,nan,nan,nan
14.455536365509033,0.17913215,0.021513466,-2.4951572,0.002269696792321221,nan,nan,nan,nan,nan,4.450721740722656,5.650721740722656,0.008724212646484375,nan,nan,nan,nan,0.7323212861672509,-0.004935387080521248,0.020381975360818975,-0.000775888065802922,nan,nan,nan,nan
14.555397987365723,0.1957545,0.02827205,-2.505706,0.004491937421396705,nan,nan,nan,nan,nan,4.550236701965332,5.750236701965332,0.0051670074462890625,nan,nan,nan,nan,0.7319324125821359,-0.007490136153688698,0.02240883791125312,-0.001855794919529667,nan,nan,nan,nan
14.649406671524048,0.21878143,0.038356014,-2.5178647,0.007649282546093194,nan,nan,nan,nan,nan,4.644251108169556,5.844251108169556,0.005450248718261719,nan,nan,nan,nan,0.7311771487842924,-0.016610875414003377,0.022298429449983583,-0.004268293076478025,nan,nan,nan,nan
14.741736888885498,0.23650558,0.04269599,-2.5237544,0.008839550052407576,nan,nan,nan,nan,nan,4.7365334033966064,5.936533403396607,0.006577014923095703,nan,nan,nan,nan,0.7311707999035338,-0.016151137223253797,0.026339940785642238,-0.005161309342694626,nan,nan,nan,nan
14.854979038238525,0.25271407,0.04974415,-2.52539,0.009422698472936772,nan,nan,nan,nan,nan,4.849888324737549,6.049888324737549,0.004961252212524414,nan,nan,nan,nan,0.7310688192408485,-0.012449363332577902,0.019728310563970824,-0.005815438263991433,nan,nan,nan,nan
14.94623851776123,0.26407212,0.051987737,-2.5234938,0.009222451995514871,nan,nan,nan,nan,nan,4.941093921661377,6.141093921661377,0.007557392120361328,nan,nan,nan,nan,0.7311957576577132,-0.009646495632156978,0.01957308783613009,-0.0058589103525008455,nan,nan,nan,nan
15.04103136062622,0.2767919,0.055375468,-2.519584,0.008619125904383775,nan,nan,nan,nan,nan,5.035861968994141,6.235861968994141,0.007158756256103516,nan,nan,nan,nan,0.7312728794008294,-0.002282025323120283,0.016402725855408275,-0.005525608861231637,nan,nan,nan,nan
15.141030311584473,0.28163126,0.057601262,-2.5161397,0.008337086183513373,nan,nan,nan,nan,nan,5.135873794555664,6.335873794555664,0.0052754878997802734,nan,nan,nan,nan,0.7316052793358618,0.0013841717324607808,0.014142015019619092,-0.005281559067934109,nan,nan,nan,nan
15.24820327758789,0.2859064,0.06656152,-2.5050488,0.008198777938379349,nan,nan,nan,nan,nan,5.243030309677124,6.443030309677124,0.005951642990112305,nan,nan,nan,nan,0.7319702894612633,0.0006497622405316098,0.004238373812732742,-0.005151820138033523,nan,nan,nan,nan
15.34287714958191,0.2929482,0.07110666,-2.5014331,0.008706706198877428,nan,nan,nan,nan,nan,5.337957859039307,6.537957859039307,0.006432056427001953,nan,nan,nan,nan,0.7320843308876356,8.255952453767312e-05,0.004025297513145979,-0.005333299840816807,nan,nan,nan,nan
15.439251899719238,0.29568452,0.0703567,-2.498988,0.00924232200946595,nan,nan,nan,nan,nan,5.434171915054321,6.6341719150543215,0.005243539810180664,nan,nan,nan,nan,0.7320792650037868,0.0009157529538890624,0.00892414816015565,-0.005596390501098645,nan,nan,nan,nan
15.548495769500732,0.29488814,0.06545874,-2.4959767,0.009913306138733131,nan,nan,nan,nan,nan,5.543293476104736,6.7432934761047365,0.00580286979675293,nan,nan,nan,nan,0.7319694112689767,0.008883017833088723,0.006956169317886806,-0.006141660949288641,nan,nan,nan,nan
15.639225959777832,0.2875305,0.05966222,-2.4935582,0.00998271948644663,nan,nan,nan,nan,nan,5.634118556976318,6.8341185569763185,0.004864215850830078,nan,nan,nan,nan,0.7318141780250063,0.015280485155745187,-0.002667390056231805,-0.0063863780447891315,nan,nan,nan,nan
15.745795011520386,0.26722515,0.051880393,-2.4888642,0.008954314267660104,nan,nan,nan,nan,nan,5.7405970096588135,6.940597009658814,0.005962371826171875,nan,nan,nan,nan,0.7317720247765596,0.018918525560790003,-0.01524613343606614,-0.005956396624216128,nan,nan,nan,nan
15.840828895568848,0.25312403,0.04661834,-2.4852245,0.007035595629310523,nan,nan,nan,nan,nan,5.8356711864471436,7.035671186447144,0.005284309387207031,nan,nan,nan,nan,0.7316577442544807,0.019396650548122587,-0.02188949836024774,-0.0051086944443240355,nan,nan,nan,nan
15.94999885559082,0.2340172,0.03784994,-2.4808888,0.0042542899036430845,nan,nan,nan,nan,nan,5.944855690002441,7.144855690002442,0.0057375431060791016,nan,nan,nan,nan,0.7314635811321591,0.017325098829899837,-0.029184910717324725,-0.003198911478386293,nan,nan,nan,nan
16.041998386383057,0.20948412,0.026688304,-2.478558,0.0015723620011707678,nan,nan,nan,nan,nan,6.036865711212158,7.236865711212158,0.0052220821380615234,nan,nan,nan,nan,0.7312550965104817,0.01560764118039706,-0.033763927042253256,-0.001509022124574609,nan,nan,nan,nan
16.151001691818237,0.18579991,0.017840788,-2.479904,-0.00020391725723947648,nan,nan,nan,nan,nan,6.145800352096558,7.345800352096558,0.005815744400024414,nan,nan,nan,nan,0.730891432995708,0.014736362943820405,-0.033426955492225185,-0.00015605305859520775,nan,nan,nan,nan
16.24178194999695,0.15049462,0.0049913614,-2.4840436,-0.001208277254735469,nan,nan,nan,nan,nan,6.236591577529907,7.436591577529907,0.005156993865966797,nan,nan,nan,nan,0.7303610859366698,0.013747932191913248,-0.04062161725415637,0.0006845410403440178,nan,nan,nan,nan
16.352986574172974,0.11835223,-0.001866573,-2.4940057,-0.0020103009202996156,nan,nan,nan,nan,nan,6.347792148590088,7.547792148590088,0.0053822994232177734,nan,nan,nan,nan,0.7295835453927293,0.009624701657163719,-0.040586214621905314,0.001208840090900915,nan,nan,nan,nan
16.44852590560913,0.09571145,-0.0057509914,-2.5051174,-0.0019083580383514253,nan,nan,nan,nan,nan,6.44339656829834,7.64339656829834,0.009897708892822266,nan,nan,nan,nan,0.7289889290138755,0.0064938067805145345,-0.03457251602672106,0.0015640496997697546,nan,nan,nan,nan
16.546177625656128,0.060912732,-0.012552035,-2.5244324,-0.0007484274971347959,nan,nan,nan,nan,nan,6.541029214859009,7.741029214859009,0.0063703060150146484,nan,nan,nan,nan,0.7279569876772511,-0.00034639878019599406,-0.027904403622542304,0.0006524218977669977,nan,nan,nan,nan
16.641000032424927,0.038423337,-0.017419524,-2.5364099,-0.0004101963454025536,nan,nan,nan,nan,nan,6.635930061340332,7.835930061340332,0.0053522586822509766,nan,nan,nan,nan,0.727245548901443,-0.0006894272186342605,-0.02446288219059705,0.00046129899482936983,nan,nan,nan,nan
16.73925280570984,0.0027705277,-0.019552834,-2.5553052,-0.00014237214357068397,nan,nan,nan,nan,nan,6.7341413497924805,7.934141349792481,0.004950046539306641,nan,nan,nan,nan,0.7263090515042966,-0.004858011468265338,-0.024653941854044657,0.00017142617512704014,nan,nan,nan,nan
16.83648109436035,-0.020947725,-0.016519656,-2.5603087,-0.0007036278885115277,nan,nan,nan,nan,nan,6.831273794174194,8.031273794174194,0.005268573760986328,nan,nan,nan,nan,0.725858493322913,-0.01069529216411544,-0.020841167672183424,0.0003020480985207511,nan,nan,nan,nan
16.95318603515625,-0.048134085,-0.004487355,-2.566056,-0.003955121648582645,nan,nan,nan,nan,nan,6.9479875564575195,8.147987556457519,0.0050733089447021484,nan,nan,nan,nan,0.7256173207960938,-0.020026806853493638,-0.012612883948812919,0.0013974964494493254,nan,nan,nan,nan
17.050621032714844,-0.06502201,0.00546729,-2.569243,-0.007108898432677857,nan,nan,nan,nan,nan,7.045419454574585,8.245419454574584,0.005822181701660156,nan,nan,nan,nan,0.7253020619624344,-0.029781363153287575,-0.007524931470973899,0.0034722896120504185,nan,nan,nan,nan
17.14185929298401,-0.08456659,0.01655288,-2.5683515,-0.010157927607988726,nan,nan,nan,nan,nan,7.136714220046997,8.336714220046996,0.005085468292236328,nan,nan,nan,nan,0.7254028943955294,-0.03623252994279336,-0.0024893391719807184,0.005842590809839602,nan,nan,nan,nan
17.252389192581177,-0.107494615,0.022511855,-2.5643554,-0.010759472738307756,nan,nan,nan,nan,nan,7.247194766998291,8.44719476699829,0.005576610565185547,nan,nan,nan,nan,0.7255411146764154,-0.029245793616504874,-0.0012398547002034068,0.006749493844713002,nan,nan,nan,nan
17.340675592422485,-0.11572031,0.02323652,-2.559611,-0.010352940677258853,nan,nan,nan,nan,nan,7.335503816604614,8.535503816604614,0.0050470829010009766,nan,nan,nan,nan,0.7255794280334262,-0.022228373787760245,-0.0011803011470957862,0.0065577769294643375,nan,nan,nan,nan
17.452003002166748,-0.13343543,0.024388894,-2.5556889,-0.00912624079149981,nan,nan,nan,nan,nan,7.446799993515015,8.646799993515014,0.006065845489501953,nan,nan,nan,nan,0.7256926019037242,-0.009229653954093538,-0.0010797592737425091,0.005895919413377427,nan,nan,nan,nan
17.54512667655945,-0.14754802,0.024368625,-2.5549896,-0.008165661531579303,nan,nan,nan,nan,nan,7.539979457855225,8.739979457855224,0.007295370101928711,nan,nan,nan,nan,0.7255902113213257,0.000963708756356957,-0.0029142041893197774,0.005337353504052337,nan,nan,nan,nan
17.64243769645691,-0.1627958,0.023267256,-2.551709,-0.007139853061903819,nan,nan,nan,nan,nan,7.637243270874023,8.837243270874023,0.006760835647583008,nan,nan,nan,nan,0.7257030113681666,0.0124484431196491,-0.006685885326113235,0.00467077520567641,nan,nan,nan,nan
17.754305362701416,-0.18410204,0.016849602,-2.5556138,-0.005849538215827713,nan,nan,nan,nan,nan,7.749094247817993,8.949094247817992,0.0049245357513427734,nan,nan,nan,nan,0.7255414218310194,0.022380025882382904,-0.015634146637490076,0.0038567794598482158,nan,nan,nan,nan
17.850841760635376,-0.20022209,0.015705124,-2.5547953,-0.0052280091973621635,nan,nan,nan,nan,nan,7.845639944076538,9.045639944076537,0.0061206817626953125,nan,nan,nan,nan,0.7253498872778624,0.02528270726217103,-0.023521725200489788,0.0033718995015076573,nan,nan,nan,nan
17.94243359565735,-0.21817969,0.011625132,-2.553101,-0.004698000460708287,nan,nan,nan,nan,nan,7.937248468399048,9.137248468399047,0.00500178337097168,nan,nan,nan,nan,0.7254422445487658,0.022956615633117183,-0.028911758979557726,0.0030149944018706206,nan,nan,nan,nan
18.049664735794067,-0.23212305,0.005639541,-2.5507705,-0.004314991497770984,nan,nan,nan,nan,nan,8.044456243515015,9.244456243515014,0.005888700485229492,nan,nan,nan,nan,0.7254467734651973,0.023654982066696525,-0.027836813366676684,0.0027477900682685197,nan,nan,nan,nan
18.14331078529358,-0.24055259,0.0037116858,-2.5470235,-0.004144444027338919,nan,nan,nan,nan,nan,8.138107061386108,9.338107061386108,0.0058135986328125,nan,nan,nan,nan,0.7254755563333293,0.02071235794598211,-0.029437822466895757,0.0026576708524798914,nan,nan,nan,nan
18.251835823059082,-0.2500678,-0.0015674755,-2.5395296,-0.0036425320629377015,nan,nan,nan,nan,nan,8.246644496917725,9.446644496917724,0.00567173957824707,nan,nan,nan,nan,0.7257506469289503,0.014726267505995429,-0.023365037687971053,0.002421598592926664,nan,nan,nan,nan
18.34532904624939,-0.26036677,-0.006757307,-2.527594,-0.003270479195945054,nan,nan,nan,nan,nan,8.340214490890503,9.540214490890502,0.005781888961791992,nan,nan,nan,nan,0.7261920561172958,0.010144087687002704,-0.015179396559180795,0.002134195602763141,nan,nan,nan,nan
18.4553165435791,-0.26469117,-0.011235003,-2.515731,-0.002865590018161389,nan,nan,nan,nan,nan,8.450109243392944,9.650109243392944,0.008286714553833008,nan,nan,nan,nan,0.7266861530404383,0.006137823671424794,-0.011150251059925162,0.0019537296176493886,nan,nan,nan,nan
18.53650999069214,-0.2661983,-0.011945282,-2.508668,-0.002559974013524779,nan,nan,nan,nan,nan,8.531305313110352,9.73130531311035,0.005377054214477539,nan,nan,nan,nan,0.7269728761834013,0.0035703942365585477,-0.004937989928376725,0.0017265096672921176,nan,nan,nan,nan
18.653732538223267,-0.26973286,-0.008171612,-2.496052,-0.0021898891463242682,nan,nan,nan,nan,nan,8.648570775985718,9.848570775985717,0.005238056182861328,nan,nan,nan,nan,0.727530532776858,-0.004473137403397795,-0.0017121231978531857,0.0014536312627454803,nan,nan,nan,nan
18.75363779067993,-0.2650882,-0.003544126,-2.4913921,-0.0018030638881451984,nan,nan,nan,nan,nan,8.748432874679565,9.948432874679565,0.005198001861572266,nan,nan,nan,nan,0.7277296612558293,-0.010640471002225961,-0.000980599700529809,0.0012812506678466186,nan,nan,nan,nan
18.85164523124695,-0.24937968,0.0068529304,-2.4902165,-0.0012992454922890245,nan,nan,nan,nan,nan,8.846450090408325,10.046450090408324,0.006735563278198242,nan,nan,nan,nan,0.7278229918909719,-0.017667640199604467,0.009602409187948009,0.0009354099033866355,nan,nan,nan,nan
18.93671751022339,-0.23795177,0.0120132975,-2.492292,-0.0012619652672670955,nan,nan,nan,nan,nan,8.931506872177124,10.131506872177123,0.005258798599243164,nan,nan,nan,nan,0.7277557275447936,-0.021360338200333708,0.018429984900397673,0.0008041896435129559,nan,nan,nan,nan
19.038009881973267,-0.22614072,0.0159208,-2.4951315,-0.0013385704021771482,nan,nan,nan,nan,nan,9.032808065414429,10.232808065414428,0.005522727966308594,nan,nan,nan,nan,0.7276340877983936,-0.020133545239190778,0.01879388725561336,0.0009212995363762032,nan,nan,nan,nan
19.152734518051147,-0.20902508,0.012859628,-2.4921591,-0.003801849211070416,nan,nan,nan,nan,nan,9.147528648376465,10.347528648376464,0.009446144104003906,nan,nan,nan,nan,0.7277367376714101,-0.009115468104020329,0.021059482253094113,0.0018529942951402156,nan,nan,nan,nan
19.247735023498535,-0.1818758,0.015711568,-2.4890442,-0.003799117695289226,nan,nan,nan,nan,nan,9.24254035949707,10.44254035949707,0.008085012435913086,nan,nan,nan,nan,0.7280029426031127,0.0010557091433008984,0.028418519404677683,0.0026641585333750783,nan,nan,nan,nan
19.344438791275024,-0.16257873,0.020269416,-2.4802413,-0.0024274767270420113,nan,nan,nan,nan,nan,9.33931589126587,10.539315891265868,0.006082773208618164,nan,nan,nan,nan,0.7283368647722787,0.0016616956745800632,0.02889125697092076,0.0021333937785432537,nan,nan,nan,nan
19.43673348426819,-0.13317436,0.028606212,-2.464338,0.0006222180764464381,nan,nan,nan,nan,nan,9.43152403831482,10.631524038314819,0.005412101745605469,nan,nan,nan,nan,0.7291951916394229,-0.002331395583456932,0.03636325738531281,0.00034018613667206665,nan,nan,nan,nan
19.550857067108154,-0.10619459,0.03747682,-2.4525871,0.0045557245450374,nan,nan,nan,nan,nan,9.545663833618164,10.745663833618163,0.009192705154418945,nan,nan,nan,nan,0.7299433842337495,-0.007554831391741802,0.03014093358935799,-0.0018493815280064463,nan,nan,nan,nan
19.649566173553467,-0.08821173,0.042614304,-2.4509702,0.007763825001028305,nan,nan,nan,nan,nan,9.644497156143188,10.844497156143188,0.006342172622680664,nan,nan,nan,nan,0.7301928000832895,-0.010199220711657004,0.022845513000892846,-0.0038425036578503685,nan,nan,nan,nan
19.747204065322876,-0.059072934,0.0452147,-2.4434724,0.0114310007113914,nan,nan,nan,nan,nan,9.742057800292969,10.942057800292968,0.008653879165649414,nan,nan,nan,nan,0.7304931035690991,-0.00854108459890608,0.019777536601037236,-0.0064200579415162745,nan,nan,nan,nan
19.841343641281128,-0.036673415,0.045321092,-2.4351575,0.013004072220238954,nan,nan,nan,nan,nan,9.836267232894897,11.036267232894897,0.004976987838745117,nan,nan,nan,nan,0.7309083854039347,-0.0026296317728748634,0.018001584990782034,-0.00793594230365796,nan,nan,nan,nan
19.937862157821655,-0.01742139,0.045864478,-2.4289746,0.013664011013764089,nan,nan,nan,nan,nan,9.932660102844238,11.132660102844238,0.006503105163574219,nan,nan,nan,nan,0.7313996244897626,0.002386565567949354,0.013595192851082396,-0.008357094793396231,nan,nan,nan,nan
20.040433406829834,0.01012833,0.052254938,-2.4268074,0.016497161684534065,nan,nan,nan,nan,nan,10.03525161743164,11.23525161743164,0.006857633590698242,nan,nan,nan,nan,0.7316017620173076,0.0024775450907207923,0.009960079345878397,-0.009815915178682362,nan,nan,nan,nan
20.144463300704956,0.030352604,0.054582894,-2.4266171,0.016665546703794193,nan,nan,nan,nan,nan,10.139285802841187,11.339285802841186,0.005826473236083984,nan,nan,nan,nan,0.731747665999595,0.002270152494913029,0.007443028320794383,-0.01048491553682888,nan,nan,nan,nan
20.238462448120117,0.054249473,0.058606684,-2.427222,0.017129625015138567,nan,nan,nan,nan,nan,10.233259201049805,11.433259201049804,0.005273103713989258,nan,nan,nan,nan,0.7317368598259143,0.002504267429973299,0.008904489121741847,-0.01062549825357992,nan,nan,nan,nan
20.33768606185913,0.07453892,0.06341726,-2.4277074,0.0181128685623972,nan,nan,nan,nan,nan,10.33247709274292,11.53247709274292,0.005753993988037109,nan,nan,nan,nan,0.7318204092284274,0.0018054411550169716,0.008874123811619951,-0.010879089922833648,nan,nan,nan,nan
20.446638822555542,0.10307986,0.07150567,-2.427994,0.02039518039982783,nan,nan,nan,nan,nan,10.441445589065552,11.641445589065551,0.00558161735534668,nan,nan,nan,nan,0.7319529286978274,-0.004978268650098914,0.017326452545177867,-0.012336857389718271,nan,nan,nan,nan
20.541459560394287,0.121352114,0.076784745,-2.4275315,0.021499851845874884,nan,nan,nan,nan,nan,10.536258935928345,11.736258935928344,0.005269289016723633,nan,nan,nan,nan,0.732143571008914,-0.008020236388144817,0.018309078316569628,-0.01323578071793566,nan,nan,nan,nan
20.654653787612915,0.14733629,0.081386834,-2.4252772,0.021904310272108363,nan,nan,nan,nan,nan,10.649445295333862,11.849445295333862,0.005502939224243164,nan,nan,nan,nan,0.7323652205554028,-0.008216424554392528,0.017240569403206948,-0.01375010688536341,nan,nan,nan,nan
20.755364656448364,0.1617005,0.08924782,-2.4200299,0.02277458717198416,nan,nan,nan,nan,nan,10.750160217285156,11.950160217285156,0.008511543273925781,nan,nan,nan,nan,0.7326469837565717,-0.008235349285282944,0.015083338808960322,-0.0139146335263152,nan,nan,nan,nan
20.85545802116394,0.17894259,0.09386522,-2.4156094,0.023081832844758822,nan,nan,nan,nan,nan,10.850251197814941,12.05025119781494,0.005494832992553711,nan,nan,nan,nan,0.7328609040111921,-0.008438713557468601,0.009778951536877264,-0.01459267448025575,nan,nan,nan,nan
20.954313278198242,0.18820009,0.093410715,-2.415245,0.022439137937206186,nan,nan,nan,nan,nan,10.949108362197876,12.149108362197875,0.005540609359741211,nan,nan,nan,nan,0.7330796238496384,-0.0034125225129961164,0.009110806203716557,-0.014344975291326294,nan,nan,nan,nan
21.04693365097046,0.20023437,0.090125896,-2.4183722,0.020776491032203248,nan,nan,nan,nan,nan,11.041839361190796,12.241839361190795,0.0071828365325927734,nan,nan,nan,nan,0.7330361926793375,0.00608781924745892,0.005876814542559013,-0.013485411206202998,nan,nan,nan,nan
21.144110202789307,0.21146849,0.088313356,-2.428071,0.019177447086305647,nan,nan,nan,nan,nan,11.139052867889404,12.339052867889404,0.005255699157714844,nan,nan,nan,nan,0.7328426063507585,0.011459647250058918,0.006490562310307649,-0.012492550169222972,nan,nan,nan,nan
21.24060082435608,0.21684302,0.08555457,-2.4470673,0.016933852155837772,nan,nan,nan,nan,nan,11.23539662361145,12.43539662361145,0.005103111267089844,nan,nan,nan,nan,0.7321128187216448,0.013984080514410994,0.00135634079890704,-0.011059244741611003,nan,nan,nan,nan
21.340457916259766,0.21884793,0.08148746,-2.4645555,0.01505124610257719,nan,nan,nan,nan,nan,11.33525037765503,12.535250377655029,0.005215167999267578,nan,nan,nan,nan,0.7315603919414259,0.013631899052957423,-0.0025623287285893065,-0.00996308842515187,nan,nan,nan,nan
21.455166816711426,0.22059563,0.0764389,-2.4824028,0.013152045889474993,nan,nan,nan,nan,nan,11.449985027313232,12.649985027313232,0.005795955657958984,nan,nan,nan,nan,0.7310129670012004,0.014392572179106068,-0.0026201245425266514,-0.00870659621032449,nan,nan,nan,nan
21.545624494552612,0.22219482,0.07369814,-2.4988074,0.01137034570430654,nan,nan,nan,nan,nan,11.540469646453857,12.740469646453857,0.005979299545288086,nan,nan,nan,nan,0.7304936314427096,0.011245436893654892,-0.003971357055216532,-0.007543419914812751,nan,nan,nan,nan
21.63862180709839,0.22448553,0.073225,-2.5112755,0.010093914885974681,nan,nan,nan,nan,nan,11.63341474533081,12.83341474533081,0.005397319793701172,nan,nan,nan,nan,0.7301543656866075,0.0076037595666966955,0.0008094551842049587,-0.006674219304800228,nan,nan,nan,nan
21.752201318740845,0.2235217,0.073517166,-2.5257797,0.008047451948458413,nan,nan,nan,nan,nan,11.746991395950317,12.946991395950317,0.00586700439453125,nan,nan,nan,nan,0.7297341778283679,0.0013921262004793235,0.00558354997755437,-0.005543990247945087,nan,nan,nan,nan
21.843626737594604,0.2171932,0.07513193,-2.5324013,0.005893080632745872,nan,nan,nan,nan,nan,11.838465213775635,13.038465213775634,0.005143404006958008,nan,nan,nan,nan,0.7295003668614376,-0.005921892973359719,0.0025332795747466815,-0.0041549195690007016,nan,nan,nan,nan
21.942702770233154,0.20999762,0.076844476,-2.5345418,0.0045620991985236975,nan,nan,nan,nan,nan,11.937495946884155,13.137495946884155,0.005349636077880859,nan,nan,nan,nan,0.7296571751908981,-0.009225565403085896,0.002262497402792179,-0.003237644411295327,nan,nan,nan,nan
22.054229021072388,0.19346195,0.084065646,-2.5450854,0.0021901903372522863,nan,nan,nan,nan,nan,12.049034357070923,13.249034357070922,0.0058171749114990234,nan,nan,nan,nan,0.7294563124610498,-0.015205414021707244,-0.007796027983255046,-0.0017565133456034587,nan,nan,nan,nan
22.148202419281006,0.18862553,0.085696034,-2.5529528,0.0021748684765977603,nan,nan,nan,nan,nan,12.143067359924316,13.343067359924316,0.006918430328369141,nan,nan,nan,nan,0.7292498963677381,-0.015079112250846346,-0.003974097735535298,-0.0013385786279496198,nan,nan,nan,nan
22.245117902755737,0.18463637,0.08575903,-2.5649085,0.0030585783510116613,nan,nan,nan,nan,nan,12.24005913734436,13.44005913734436,0.0049631595611572266,nan,nan,nan,nan,0.7288276746909386,-0.009334487080212419,0.0009362300348977037,-0.0016228554758036518,nan,nan,nan,nan
22.344411373138428,0.18088308,0.08479671,-2.5758524,0.003923096250999262,nan,nan,nan,nan,nan,12.339245080947876,13.539245080947875,0.0053403377532958984,nan,nan,nan,nan,0.7284578829989965,-0.004328008337101095,0.01068780914050485,-0.002193579439398743,nan,nan,nan,nan
22.440532684326172,0.1738698,0.082792684,-2.593003,0.004692658983337646,nan,nan,nan,nan,nan,12.435324907302856,13.635324907302856,0.005468845367431641,nan,nan,nan,nan,0.7276893245327277,0.002699761916328307,0.012349722275027187,-0.0028491946702982134,nan,nan,nan,nan
22.537977695465088,0.16672806,0.0808684,-2.6056378,0.004740940291200833,nan,nan,nan,nan,nan,12.532802820205688,13.732802820205688,0.0060367584228515625,nan,nan,nan,nan,0.7272883178227545,0.00486262530147085,0.018504057428977098,-0.0029518014546366226,nan,nan,nan,nan
22.651258945465088,0.15897189,0.0799355,-2.6242554,0.003727751662379029,nan,nan,nan,nan,nan,12.646100282669067,13.846100282669067,0.010450124740600586,nan,nan,nan,nan,0.7266495033504445,0.006520524220109752,0.015511832776394894,-0.00264156086014518,nan,nan,nan,nan
22.7487473487854,0.14946064,0.078490615,-2.6390307,0.002325267700501917,nan,nan,nan,nan,nan,12.743623733520508,13.943623733520507,0.006092071533203125,nan,nan,nan,nan,0.7261442906765687,0.005518667210013844,0.010427199468450278,-0.0017404435743112695,nan,nan,nan,nan
22.841006755828857,0.14080231,0.07684409,-2.648737,0.0015696974246597532,nan,nan,nan,nan,nan,12.835807800292969,14.035807800292968,0.0053484439849853516,nan,nan,nan,nan,0.7258163142366774,0.005318191054941872,0.009227230827414324,-0.0011682032933240107,nan,nan,nan,nan
22.940510749816895,0.12063799,0.0729494,-2.6679173,5.9650888320134966e-05,nan,nan,nan,nan,nan,12.935307741165161,14.13530774116516,0.005482912063598633,nan,nan,nan,nan,0.7252445765459631,0.005113078786556122,-0.0030935269903691444,-0.0002860037521178477,nan,nan,nan,nan
23.0471932888031,0.1025818,0.06604663,-2.6808014,-0.0001296145754425132,nan,nan,nan,nan,nan,13.042019605636597,14.242019605636596,0.00516819953918457,nan,nan,nan,nan,0.7247484502564043,0.009107053287929835,-0.012784601224089651,0.00011004471110962281,nan,nan,nan,nan
23.138585090637207,0.09070299,0.06020806,-2.6910844,0.00010297928186177134,nan,nan,nan,nan,nan,13.133379936218262,14.333379936218261,0.005647420883178711,nan,nan,nan,nan,0.724388866746746,0.01176746359327931,-0.01501148666729981,0.00011940533327721808,nan,nan,nan,nan
23.252934217453003,0.06975938,0.05308767,-2.702303,0.000413568407398765,nan,nan,nan,nan,nan,13.247770071029663,14.447770071029662,0.005785226821899414,nan,nan,nan,nan,0.723988056666546,0.013701262291441006,-0.01859705197809099,-0.00017023176247038708,nan,nan,nan,nan
23.34242081642151,0.045188542,0.048283435,-2.7119052,-0.0001437727396729781,nan,nan,nan,nan,nan,13.337212800979614,14.537212800979614,0.005445003509521484,nan,nan,nan,nan,0.7238551383406497,0.01177599708911633,-0.025757288805280644,-0.00015153637293011726,nan,nan,nan,nan
23.451189041137695,0.020472812,0.047108646,-2.7215426,-0.001891323257476631,nan,nan,nan,nan,nan,13.446049928665161,14.64604992866516,0.0068895816802978516,nan,nan,nan,nan,0.7236027300627742,0.004545601562795989,-0.030988212483160287,0.0008097296726027666,nan,nan,nan,nan
23.54465341567993,0.0050184,0.04850234,-2.725174,-0.0031243925718015984,nan,nan,nan,nan,nan,13.539494752883911,14.73949475288391,0.005301237106323242,nan,nan,nan,nan,0.7233795451948623,-0.0006919738543469046,-0.031638915351340995,0.0015674749436392235,nan,nan,nan,nan
23.640519857406616,-0.02627761,0.051877532,-2.7351565,-0.004818309592301131,nan,nan,nan,nan,nan,13.635322570800781,14.83532257080078,0.0053141117095947266,nan,nan,nan,nan,0.7232796410821362,-0.010448239596359151,-0.035963130217208664,0.002712104043885614,nan,nan,nan,nan
23.73761796951294,-0.044621438,0.054931805,-2.739989,-0.0055239258126943075,nan,nan,nan,nan,nan,13.732454299926758,14.932454299926757,0.006143093109130859,nan,nan,nan,nan,0.7229905344435953,-0.013828348704319158,-0.03719799145149729,0.003206096207230327,nan,nan,nan,nan
23.851561069488525,-0.07643098,0.05974418,-2.7437172,-0.006570548434128801,nan,nan,nan,nan,nan,13.846362590789795,15.046362590789794,0.0068280696868896484,nan,nan,nan,nan,0.7229553752893398,-0.019631252465127487,-0.0361930521256012,0.0039923103316497795,nan,nan,nan,nan
23.94604778289795,-0.09709917,0.05891703,-2.742996,-0.006165283445480705,nan,nan,nan,nan,nan,13.940891981124878,15.140891981124877,0.005158662796020508,nan,nan,nan,nan,0.7230910264731759,-0.015962260423558382,-0.035570031842478964,0.003970195260216824,nan,nan,nan,nan
24.04040217399597,-0.12035924,0.05266738,-2.7383027,-0.003610489605406541,nan,nan,nan,nan,nan,14.035200595855713,15.235200595855712,0.00529170036315918,nan,nan,nan,nan,0.7234528445675693,-0.004118970410852763,-0.030100156115145014,0.0029258103955817055,nan,nan,nan,nan
24.154508113861084,-0.1466834,0.049185134,-2.7298584,-0.0004225723421398674,nan,nan,nan,nan,nan,14.149525165557861,15.34952516555786,0.0058176517486572266,nan,nan,nan,nan,0.7238073477393563,0.005189410388458018,-0.02506548946137313,0.0009987855059274105,nan,nan,nan,nan
24.247684478759766,-0.16010879,0.048254758,-2.7254705,0.001077101500790562,nan,nan,nan,nan,nan,14.242655038833618,15.442655038833617,0.005693912506103516,nan,nan,nan,nan,0.7239914672559677,0.008395998564468857,-0.02444166410364916,-0.0002837205084339065,nan,nan,nan,nan
24.340444326400757,-0.1779714,0.046299513,-2.720492,0.0023999083935827073,nan,nan,nan,nan,nan,14.335272789001465,15.535272789001464,0.005411863327026367,nan,nan,nan,nan,0.7243314796007594,0.008877157939300313,-0.016093847088233835,-0.0013939387261504034,nan,nan,nan,nan
24.43877410888672,-0.18903933,0.044086296,-2.7180731,0.0025928834167399982,nan,nan,nan,nan,nan,14.433570861816406,15.633570861816406,0.006824016571044922,nan,nan,nan,nan,0.7243550879133502,0.008531165987179313,-0.013771043789423894,-0.0016901633898654606,nan,nan,nan,nan
24.55339503288269,-0.20069826,0.04192364,-2.713305,0.0022578479996904015,nan,nan,nan,nan,nan,14.548198461532593,15.748198461532592,0.0061092376708984375,nan,nan,nan,nan,0.7245428488687662,0.006747286438433429,-0.008478591664517879,-0.0015707064290435416,nan,nan,nan,nan
24.64710307121277,-0.21242467,0.034421604,-2.7010891,0.0018956992129298064,nan,nan,nan,nan,nan,14.642009973526001,15.842009973526,0.005776166915893555,nan,nan,nan,nan,0.7249524260814697,0.007630442596078026,-0.0033546643512870236,-0.00127715366131578,nan,nan,nan,nan
24.742204189300537,-0.21803033,0.031882193,-2.692841,0.0017957305370884013,nan,nan,nan,nan,nan,14.737016439437866,15.937016439437866,0.005312919616699219,nan,nan,nan,nan,0.7251887016600258,0.009917581316121683,-0.005439996225500752,-0.0012440798360498766,nan,nan,nan,nan
24.84014081954956,-0.22328107,0.033321515,-2.681061,0.001435136561850213,nan,nan,nan,nan,nan,14.834951877593994,16.034951877593993,0.005610227584838867,nan,nan,nan,nan,0.7257769616504834,0.0031463299305062994,0.00014672600551581932,-0.0010460711618336808,nan,nan,nan,nan
24.948588371276855,-0.22208163,0.039760932,-2.6736717,0.0009490624310505116,nan,nan,nan,nan,nan,14.943519353866577,16.143519353866576,0.006034135818481445,nan,nan,nan,nan,0.7260685695940986,-0.0084804366556469,0.006501720611244628,-0.0007365204031597478,nan,nan,nan,nan
25.04741096496582,-0.21825522,0.047165442,-2.6636877,0.0011079344658569451,nan,nan,nan,nan,nan,15.042326211929321,16.24232621192932,0.0057256221771240234,nan,nan,nan,nan,0.7262489747590818,-0.015488455592789,0.004457166512467999,-0.0006628143591269645,nan,nan,nan,nan
25.14805293083191,-0.2083375,0.05978892,-2.6566646,0.0011624328699591227,nan,nan,nan,nan,nan,15.142908573150635,16.342908573150634,0.0051233768463134766,nan,nan,nan,nan,0.7266912649833058,-0.02644396773013168,0.015717333144474658,-0.0008324341734819732,nan,nan,nan,nan
25.24131464958191,-0.19604355,0.06635838,-2.6551962,0.0008681454788898824,nan,nan,nan,nan,nan,15.236122131347656,16.436122131347656,0.005529165267944336,nan,nan,nan,nan,0.7267137723509861,-0.028523852593590224,0.01481165343383147,-0.0006709317761778783,nan,nan,nan,nan
25.337489128112793,-0.18276165,0.07004343,-2.6538448,0.0005417581163600425,nan,nan,nan,nan,nan,15.33228588104248,16.53228588104248,0.007383584976196289,nan,nan,nan,nan,0.7267453255537716,-0.024021961872014726,0.020226285625856946,-0.00040510527717209604,nan,nan,nan,nan
25.450505256652832,-0.16706906,0.08048313,-2.6506896,0.000683227837586258,nan,nan,nan,nan,nan,15.445323944091797,16.645323944091796,0.006297588348388672,nan,nan,nan,nan,0.7269051054652788,-0.018228131635171126,0.021858193760480683,-0.00035442401641363146,nan,nan,nan,nan
25.54665231704712,-0.14815071,0.08281351,-2.6436303,0.000336871529887337,nan,nan,nan,nan,nan,15.541500568389893,16.741500568389892,0.006596565246582031,nan,nan,nan,nan,0.7272012328159959,-0.0072549678242405,0.021719978095565143,-0.0003069624219437453,nan,nan,nan,nan
25.644505977630615,-0.1358696,0.08190857,-2.6352787,4.1934481499524695e-06,nan,nan,nan,nan,nan,15.639305591583252,16.83930559158325,0.0055959224700927734,nan,nan,nan,nan,0.7275437062204652,0.0015458927942004006,0.016547591046033438,-4.57231964807734e-05,nan,nan,nan,nan
25.74083971977234,-0.115690514,0.07988256,-2.618668,-0.0004073453357422733,nan,nan,nan,nan,nan,15.735677719116211,16.93567771911621,0.005555391311645508,nan,nan,nan,nan,0.7281503605964491,0.013779631544861247,0.013829238694405678,0.0001941324095797342,nan,nan,nan,nan
25.853924036026,-0.09997335,0.07925958,-2.6047206,-0.0005215662923984078,nan,nan,nan,nan,nan,15.848771810531616,17.048771810531616,0.01116633415222168,nan,nan,nan,nan,0.728929199611601,0.01809669526382481,0.009661363190187724,0.0003240826075108176,nan,nan,nan,nan
25.952816247940063,-0.08407048,0.078053504,-2.589457,0.0006264168258187527,nan,nan,nan,nan,nan,15.947618246078491,17.14761824607849,0.007924795150756836,nan,nan,nan,nan,0.7295345626508128,0.016913557568020102,0.003730565915803665,-0.00015038646960667477,nan,nan,nan,nan
26.048420429229736,-0.06601104,0.07731753,-2.5872774,0.0023143420419959385,nan,nan,nan,nan,nan,16.04345202445984,17.243452024459838,0.0056803226470947266,nan,nan,nan,nan,0.7297458485159778,0.014280453764122824,0.0006979140049923882,-0.0009154620506750308,nan,nan,nan,nan
26.145647525787354,-0.05017976,0.07459342,-2.5873113,0.0035861510612968488,nan,nan,nan,nan,nan,16.140443563461304,17.340443563461303,0.005031585693359375,nan,nan,nan,nan,0.7298195849242223,0.011184505405117458,0.0018678198429921467,-0.0019314962130826487,nan,nan,nan,nan
26.239348649978638,-0.028170591,0.0672154,-2.5890336,0.004694351667020887,nan,nan,nan,nan,nan,16.23417067527771,17.43417067527771,0.00700688362121582,nan,nan,nan,nan,0.7297148781702609,0.010926208991925652,0.008726541883958818,-0.0028194173324364215,nan,nan,nan,nan
26.35412836074829,-0.00960516,0.058525156,-2.590452,0.005118666341326669,nan,nan,nan,nan,nan,16.348983764648438,17.548983764648437,0.006790876388549805,nan,nan,nan,nan,0.7297629347416169,0.013921517962572147,0.007588961914511661,-0.00321618944816893,nan,nan,nan,nan
26.449508905410767,0.004670511,0.052909035,-2.5898132,0.005037465893712376,nan,nan,nan,nan,nan,16.44443130493164,17.64443130493164,0.005302906036376953,nan,nan,nan,nan,0.7298510426420046,0.0148677504499871,0.006766525480297323,-0.003299829890681863,nan,nan,nan,nan
26.545626401901245,0.02756526,0.0449815,-2.5844843,0.004678100749143899,nan,nan,nan,nan,nan,16.540424346923828,17.740424346923827,0.005038261413574219,nan,nan,nan,nan,0.7300650222188702,0.01312226169080115,0.009768123880487194,-0.00308771203523443,nan,nan,nan,nan
26.641114711761475,0.04206535,0.040088255,-2.5817716,0.004469820634273203,nan,nan,nan,nan,nan,16.63597321510315,17.83597321510315,0.005658626556396484,nan,nan,nan,nan,0.7304118060665965,0.011596619991814987,0.010741122099343121,-0.0029497628782595257,nan,nan,nan,nan
26.75364923477173,0.06545102,0.032525487,-2.5782337,0.004143044060193251,nan,nan,nan,nan,nan,16.748689889907837,17.948689889907836,0.0058441162109375,nan,nan,nan,nan,0.7306936196727127,0.008016880714199053,0.013431071935183812,-0.0027393891309938374,nan,nan,nan,nan
26.85414743423462,0.09251333,0.023280382,-2.5729845,0.003972295296542195,nan,nan,nan,nan,nan,16.84905457496643,18.04905457496643,0.008054971694946289,nan,nan,nan,nan,0.7310144584412088,0.004696334344578858,0.018367504625813907,-0.0026165943057462346,nan,nan,nan,nan
26.9505033493042,0.1104413,0.013825153,-2.5710526,0.0035140253270690455,nan,nan,nan,nan,nan,16.94541573524475,18.14541573524475,0.006591320037841797,nan,nan,nan,nan,0.731298378549886,0.00664777307289993,0.02025912916476661,-0.0024627543609519235,nan,nan,nan,nan
27.04597043991089,0.1289815,-0.0004216152,-2.5654843,0.002670758365645753,nan,nan,nan,nan,nan,17.040769338607788,18.240769338607787,0.00520777702331543,nan,nan,nan,nan,0.7315007551255921,0.012099895731325222,0.021350910138417653,-0.001968978364912313,nan,nan,nan,nan
27.141218423843384,0.14088292,-0.008227854,-2.560403,0.002292276332647148,nan,nan,nan,nan,nan,17.136014223098755,18.336014223098754,0.006084918975830078,nan,nan,nan,nan,0.7317953292761994,0.014903501333645585,0.019213792188784416,-0.0015917153850743924,nan,nan,nan,nan
27.25429654121399,0.15366586,-0.012493714,-2.5523171,0.0028231326529598055,nan,nan,nan,nan,nan,17.24911141395569,18.449111413955688,0.006822109222412109,nan,nan,nan,nan,0.7321625346125551,0.008698681314172129,0.013051639371122576,-0.0017515297089112022,nan,nan,nan,nan
27.349963903427124,0.16163068,-0.011642624,-2.5429802,0.004001818773351063,nan,nan,nan,nan,nan,17.345203399658203,18.545203399658202,0.005299806594848633,nan,nan,nan,nan,0.7324604198879139,-0.0036222179611824406,0.003841132260548737,-0.0023101439148068624,nan,nan,nan,nan
27.44826602935791,0.16603372,-0.005740838,-2.5333216,0.005814408930703867,nan,nan,nan,nan,nan,17.443129539489746,18.643129539489745,0.005486726760864258,nan,nan,nan,nan,0.732841294267563,-0.013299375217350603,-0.00042118226954719563,-0.0031024275950733773,nan,nan,nan,nan
27.54984188079834,0.17301907,0.0024869037,-2.528948,0.007311882785491887,nan,nan,nan,nan,nan,17.54476833343506,18.744768333435058,0.00582432746887207,nan,nan,nan,nan,0.7330647331270324,-0.02438527564827579,-0.002280301658369221,-0.004265578248598589,nan,nan,nan,nan
27.652035236358643,0.17913502,0.009259985,-2.5255814,0.00832578162401648,nan,nan,nan,nan,nan,17.646925926208496,18.846925926208495,0.0058901309967041016,nan,nan,nan,nan,0.7330193668233622,-0.029551288561889457,0.0006638364573619841,-0.005178005974903727,nan,nan,nan,nan
27.74555015563965,0.1827484,0.014376004,-2.522603,0.008668619944603403,nan,nan,nan,nan,nan,17.74036455154419,18.94036455154419,0.005552530288696289,nan,nan,nan,nan,0.7330662521903313,-0.026465606596781537,0.003868725833304672,-0.0054483905399085545,nan,nan,nan,nan
27.84409809112549,0.18191682,0.022893708,-2.517501,0.008790560024370536,nan,nan,nan,nan,nan,17.838937520980835,19.038937520980834,0.005222320556640625,nan,nan,nan,nan,0.7329851699884959,-0.02129032100027634,0.0008874278151343825,-0.005560814347073103,nan,nan,nan,nan
27.94340419769287,0.17709292,0.02761087,-2.5179002,0.008978358612526618,nan,nan,nan,nan,nan,17.938222646713257,19.138222646713256,0.00529170036315918,nan,nan,nan,nan,0.7329278570684873,-0.01706794837723062,0.0007744508631650125,-0.005600526929826978,nan,nan,nan,nan
28.040571689605713,0.17038684,0.03371273,-2.5230846,0.00934112145672742,nan,nan,nan,nan,nan,18.035414934158325,19.235414934158324,0.009281396865844727,nan,nan,nan,nan,0.7326956697041617,-0.01199617817882087,0.0003735281234189265,-0.005670193880883561,nan,nan,nan,nan
28.138394594192505,0.16049168,0.04439445,-2.5342622,0.010104772523979047,nan,nan,nan,nan,nan,18.133195161819458,19.333195161819457,0.007069826126098633,nan,nan,nan,nan,0.731791030709173,-0.008526849083617172,-0.00744010555131115,-0.006155492973197084,nan,nan,nan,nan
28.250503540039062,0.15292123,0.05359638,-2.5442626,0.010668297934453348,nan,nan,nan,nan,nan,18.245476722717285,19.445476722717284,0.0072994232177734375,nan,nan,nan,nan,0.7311037974346323,-0.009693819655017175,-0.005678065504684548,-0.006613095965226193,nan,nan,nan,nan
28.348409175872803,0.14671586,0.05863805,-2.552388,0.010869567326168348,nan,nan,nan,nan,nan,18.343245267868042,19.54324526786804,0.00519871711730957,nan,nan,nan,nan,0.7307457346206135,-0.008024168294736685,-2.0805859251727754e-05,-0.006794595052878949,nan,nan,nan,nan
28.446738243103027,0.13821544,0.060521055,-2.5677235,0.010750838794819818,nan,nan,nan,nan,nan,18.4415340423584,19.641534042358398,0.005234718322753906,nan,nan,nan,nan,0.7302583624979077,-0.004007882497408581,0.005562919759597696,-0.0068434248296873395,nan,nan,nan,nan
28.53981614112854,0.13274406,0.061047763,-2.579154,0.010438306741089514,nan,nan,nan,nan,nan,18.534623622894287,19.734623622894286,0.007783651351928711,nan,nan,nan,nan,0.7294625875406425,0.0033067229950384863,0.009100182232160272,-0.006674023942443546,nan,nan,nan,nan
28.634267330169678,0.12686981,0.060889255,-2.593902,0.0098360775600028,nan,nan,nan,nan,nan,18.629531621932983,19.829531621932983,0.009233236312866211,nan,nan,nan,nan,0.7286975635363352,0.009283235994289998,0.011335737041854005,-0.006341220073477768,nan,nan,nan,nan
28.74093508720398,0.12412798,0.059949733,-2.6025038,0.009434401856807231,nan,nan,nan,nan,nan,18.7358078956604,19.9358078956604,0.007311105728149414,nan,nan,nan,nan,0.7283238877974912,0.01190221179554991,0.019825463125124988,-0.006039605253521998,nan,nan,nan,nan
28.838623046875,0.11772626,0.06123824,-2.606783,0.008899459921522109,nan,nan,nan,nan,nan,18.833417654037476,20.033417654037475,0.007024526596069336,nan,nan,nan,nan,0.7280059782833873,0.011058482213332641,0.01892494471301036,-0.005691511981639762,nan,nan,nan,nan
28.936054944992065,0.1103861,0.06188195,-2.6135838,0.008576338213094524,nan,nan,nan,nan,nan,18.93125081062317,20.13125081062317,0.0062084197998046875,nan,nan,nan,nan,0.7277753133038611,0.009587522770550387,0.022781954579491632,-0.005469028209437718,nan,nan,nan,nan
29.054545640945435,0.100515254,0.06294453,-2.624138,0.008041315041820225,nan,nan,nan,nan,nan,19.049394130706787,20.249394130706786,0.007394552230834961,nan,nan,nan,nan,0.727280400991116,0.0061134668343715125,0.01764136403576482,-0.005189402622925346,nan,nan,nan,nan
29.150210857391357,0.0879629,0.064615294,-2.6323028,0.0073215459586938895,nan,nan,nan,nan,nan,19.145110607147217,20.345110607147216,0.005790233612060547,nan,nan,nan,nan,0.7268873400637939,0.0026802609057303916,0.013368204069220936,-0.004807819401855979,nan,nan,nan,nan
29.25158190727234,0.07075783,0.06502647,-2.6377714,0.006668264862343252,nan,nan,nan,nan,nan,19.24661636352539,20.44661636352539,0.005436897277832031,nan,nan,nan,nan,0.7266176459870227,-0.0010398805397676225,0.0019947857964110185,-0.004378023681209417,nan,nan,nan,nan
29.348752737045288,0.051936474,0.06239512,-2.6413293,0.0063418191084626575,nan,nan,nan,nan,nan,19.34355115890503,20.54355115890503,0.00531315803527832,nan,nan,nan,nan,0.7264221900594025,-1.368317885975901e-05,-0.008069948839540953,-0.004116397969438375,nan,nan,nan,nan
29.440409421920776,0.030861303,0.055236246,-2.6484323,0.006004140784972734,nan,nan,nan,nan,nan,19.43520736694336,20.63520736694336,0.006888628005981445,nan,nan,nan,nan,0.7261622119582264,0.00435658560611478,-0.02367546761646141,-0.0038694680034778535,nan,nan,nan,nan
29.555450677871704,0.012832276,0.04520692,-2.6511343,0.006109882119519201,nan,nan,nan,nan,nan,19.550249814987183,20.750249814987182,0.0076313018798828125,nan,nan,nan,nan,0.7258518276786151,0.013146725545030031,-0.027308095887392032,-0.0037593008131830592,nan,nan,nan,nan
29.64675498008728,-0.014677635,0.031569507,-2.649742,0.006662747785143126,nan,nan,nan,nan,nan,19.64154815673828,20.84154815673828,0.0056035518646240234,nan,nan,nan,nan,0.725773112487454,0.02256612995551752,-0.03087570044499389,-0.004097353026933904,nan,nan,nan,nan
29.740696668624878,-0.03140763,0.026185391,-2.6481342,0.006719437863231668,nan,nan,nan,nan,nan,19.73551106452942,20.93551106452942,0.0068895816802978516,nan,nan,nan,nan,0.7257756604391793,0.02296520136849085,-0.031100708340007405,-0.004146812505549967,nan,nan,nan,nan
29.83755660057068,-0.055365052,0.018039444,-2.6472747,0.006107604390805047,nan,nan,nan,nan,nan,19.832412242889404,21.032412242889404,0.005869865417480469,nan,nan,nan,nan,0.7258080833962862,0.018669024390116747,-0.03157854105235256,-0.003979731997102306,nan,nan,nan,nan
29.95340895652771,-0.08717179,0.012687321,-2.6461086,0.004948444579659491,nan,nan,nan,nan,nan,19.94829821586609,21.148298215866088,0.005629062652587891,nan,nan,nan,nan,0.7256990358288984,0.010710374870690107,-0.0319336067447154,-0.0033505979147687268,nan,nan,nan,nan
30.048820734024048,-0.111229576,0.011082814,-2.6474671,0.003924957331579302,nan,nan,nan,nan,nan,20.043620586395264,21.243620586395263,0.005239248275756836,nan,nan,nan,nan,0.7255199931121795,0.004742581837911198,-0.033793172697722286,-0.0027557243507375143,nan,nan,nan,nan
30.145737171173096,-0.13730295,0.010224977,-2.6493547,0.002681624539503008,nan,nan,nan,nan,nan,20.14053225517273,21.34053225517273,0.005381584167480469,nan,nan,nan,nan,0.7252314271714468,-0.0033620048828703615,-0.037407674119366796,-0.001957236375623465,nan,nan,nan,nan
30.243289709091187,-0.17219286,0.0114072235,-2.647178,0.0009740580503100459,nan,nan,nan,nan,nan,20.238112449645996,21.438112449645995,0.010187387466430664,nan,nan,nan,nan,0.7252293304471187,-0.012586047709909936,-0.03772292802559236,-0.0009337880016884129,nan,nan,nan,nan
30.34478211402893,-0.19524994,0.016070958,-2.6472788,2.4255849307314517e-05,nan,nan,nan,nan,nan,20.33961844444275,21.53961844444275,0.005484342575073242,nan,nan,nan,nan,0.7250160718560859,-0.01870899280222165,-0.037552617714788177,-0.00025936672190745447,nan,nan,nan,nan
30.44313645362854,-0.22378092,0.02260876,-2.6507962,-0.0009805872580664686,nan,nan,nan,nan,nan,20.437943935394287,21.637943935394286,0.005874156951904297,nan,nan,nan,nan,0.7248071696239425,-0.025358949781825915,-0.03169801677505709,0.0004163595601148808,nan,nan,nan,nan
30.535881996154785,-0.24182479,0.025904955,-2.6549163,-0.0012909564290763018,nan,nan,nan,nan,nan,20.53120517730713,21.731205177307128,0.006110429763793945,nan,nan,nan,nan,0.72447011289592,-0.026849966632777333,-0.028500373673716127,0.0007629308893843429,nan,nan,nan,nan
30.652217864990234,-0.26475582,0.027555723,-2.6616905,-0.0009913256603884123,nan,nan,nan,nan,nan,20.647260904312134,21.847260904312133,0.005413532257080078,nan,nan,nan,nan,0.7240588326860449,-0.021317453990466497,-0.02238018211901763,0.0006357699691816256,nan,nan,nan,nan
30.752448320388794,-0.28591153,0.028500613,-2.6685266,-0.0008851951651243949,nan,nan,nan,nan,nan,20.747371912002563,21.947371912002563,0.0051043033599853516,nan,nan,nan,nan,0.7237961855650092,-0.012873395845412881,-0.015396084865375154,0.0005482550864074365,nan,nan,nan,nan
30.848751306533813,-0.29517636,0.02994528,-2.673045,-0.0008257839801857144,nan,nan,nan,nan,nan,20.84355401992798,22.043554019927978,0.005016326904296875,nan,nan,nan,nan,0.7235242431469463,-0.008916415437372881,-0.012052200506148598,0.0004893348574258347,nan,nan,nan,nan
30.941477060317993,-0.30391207,0.032528784,-2.6770356,-0.0008416512784752369,nan,nan,nan,nan,nan,20.936342477798462,22.13634247779846,0.006905078887939453,nan,nan,nan,nan,0.723373987323014,-0.004300103930182876,-0.002923662700947998,0.000482039600222438,nan,nan,nan,nan
31.051433563232422,-0.30657965,0.033037785,-2.6799765,-0.0010700854853503894,nan,nan,nan,nan,nan,21.046257495880127,22.246257495880126,0.006561279296875,nan,nan,nan,nan,0.7233225366358661,-0.0013123872241947556,0.005996585771480273,0.0005485079784606086,nan,nan,nan,nan
31.146426916122437,-0.30542964,0.03195414,-2.6808004,-0.0013372255525196837,nan,nan,nan,nan,nan,21.141223907470703,22.341223907470702,0.005321979522705078,nan,nan,nan,nan,0.7232731124516524,0.0025337183023166152,0.01096789387352854,0.0007413489694260864,nan,nan,nan,nan
31.24041438102722,-0.30195057,0.027249267,-2.6745546,-0.0019171168536315447,nan,nan,nan,nan,nan,21.235222101211548,22.435222101211547,0.006338357925415039,nan,nan,nan,nan,0.7236447422911061,0.009489646441739117,0.019798421350342578,0.0011041748874821827,nan,nan,nan,nan
31.34107208251953,-0.3016104,0.023734087,-2.668668,-0.0021880918254959325,nan,nan,nan,nan,nan,21.335906982421875,22.535906982421874,0.007985591888427734,nan,nan,nan,nan,0.7238927328072766,0.01321433482914084,0.016565281021769736,0.0012727392010393912,nan,nan,nan,nan
31.453449726104736,-0.29574743,0.021634975,-2.655449,-0.002449913761613304,nan,nan,nan,nan,nan,21.448857307434082,22.64885730743408,0.014228582382202148,nan,nan,nan,nan,0.7244583706247689,0.014946054892492813,0.013080681304703037,0.0014686278382257413,nan,nan,nan,nan
31.543062686920166,-0.29054058,0.019046903,-2.645362,-0.0029039482968948285,nan,nan,nan,nan,nan,21.537959098815918,22.737959098815917,0.007650136947631836,nan,nan,nan,nan,0.72504014124814,0.012032317809106014,0.01242946335503745,0.0015693637095871603,nan,nan,nan,nan
31.648096561431885,-0.28456002,0.011504041,-2.633294,-0.004501304370382878,nan,nan,nan,nan,nan,21.642937898635864,22.842937898635864,0.005372762680053711,nan,nan,nan,nan,0.7256217167303882,0.014548268358582788,0.005974675283648862,0.002549114405529176,nan,nan,nan,nan
31.74388861656189,-0.2778364,0.006256848,-2.6234813,-0.005110045994322351,nan,nan,nan,nan,nan,21.73870301246643,22.93870301246643,0.006285429000854492,nan,nan,nan,nan,0.726062875979488,0.01595037905251857,0.00093689066010668,0.0030361634772030754,nan,nan,nan,nan
31.84176278114319,-0.2663862,0.0044041974,-2.6138558,-0.005857359887754182,nan,nan,nan,nan,nan,21.836565732955933,23.036565732955932,0.006957530975341797,nan,nan,nan,nan,0.7264807361695828,0.014308814731632057,-0.000622413890515382,0.003437456486053178,nan,nan,nan,nan
31.942875623703003,-0.25146097,0.0012975637,-2.6035993,-0.006491389556639752,nan,nan,nan,nan,nan,21.937695264816284,23.137695264816283,0.007371187210083008,nan,nan,nan,nan,0.7269452767208654,0.007058535293060203,0.005545157862842127,0.004036155894885685,nan,nan,nan,nan
32.03882598876953,-0.2408814,-0.0015986466,-2.5958364,-0.006604897083705192,nan,nan,nan,nan,nan,22.033705234527588,23.233705234527587,0.005433320999145508,nan,nan,nan,nan,0.7272089283923523,0.004380207937174065,0.00042006797923461146,0.004118133291004073,nan,nan,nan,nan
