time,x,y,z,yaw,platform,trajectory,traj_double,traj_short,traj_spin,traj_time,ref_time,comptime,x_ref,y_ref,yaw_ref,z_ref,throttle_input,p_input,q_input,r_input,cbf_term_pitch_cbf,cbf_term_roll_cbf,cbf_term_thrust_cbf,cbf_term_yaw_cbf
10.035650253295898,-0.0532558,0.014704347,-2.7991047,0.00016265117382003235,SIM,CIRCLE_HORIZONTAL,NormSpd,Not Short,Spin,0.03217005729675293,1.2321700572967529,0.005605459213256836,0.22239997155400146,0.55725959179971,0.3870976399976793,-5.0,0.7177164109710464,0.1735539615289237,0.16781636707566203,0.2694647608319769,nan,nan,nan,nan
10.140723943710327,-0.0532558,0.014704347,-2.7991047,0.00016265117382003235,nan,nan,nan,nan,nan,0.13735175132751465,1.3373517513275146,0.005063056945800781,0.1646906146706692,0.5769549388291924,0.42014144372359635,-5.0,0.7178688556508831,0.19498999776383844,0.18761628924774415,0.2761289491732095,nan,nan,nan,nan
10.224907159805298,-0.04309188,0.018211702,-2.8198864,0.00035057715294154086,nan,nan,nan,nan,nan,0.22141408920288086,1.4214140892028808,0.005358219146728516,0.11731636703108317,0.5884189579089275,0.4465504060348797,-5.0,0.7168893550251254,0.18043541167455066,0.22764320408912972,0.3000151205618691,nan,nan,nan,nan
10.353518962860107,-0.033680364,0.01838224,-2.8428507,0.0022771450811580464,nan,nan,nan,nan,nan,0.35000085830688477,1.5500008583068847,0.005545377731323242,0.04346038359843975,0.598423925873186,0.4869471309514783,-5.0,0.7162709262964938,0.15379632062961068,0.24384727546536575,0.3167668279787885,nan,nan,nan,nan
10.431698322296143,-0.025514811,0.014530456,-2.8561342,0.004642158571355504,nan,nan,nan,nan,nan,0.42821693420410156,1.6282169342041015,0.010635852813720703,-0.0018657748753945957,0.5999970990630824,0.5115194358946101,-5.0,0.7160362475460508,0.14039254712611146,0.2507763870793596,0.3261899732607175,nan,nan,nan,nan
10.537853002548218,-0.015235586,0.011521651,-2.8672822,0.008129960854883402,nan,nan,nan,nan,nan,0.5343563556671143,1.7343563556671142,0.005329608917236328,-0.06330713580035748,0.5966508246510307,0.5448641185670572,-5.0,0.7159971525030162,0.12103460949729136,0.2603512551146437,0.3385117233433909,nan,nan,nan,nan
10.638211011886597,-0.004546822,0.008531086,-2.8797429,0.013205951380708198,nan,nan,nan,nan,nan,0.6347002983093262,1.8347002983093261,0.0052678585052490234,-0.12079210987758829,0.5877152934808831,0.5763880978707581,-5.0,0.7162777698151103,0.09898179226759368,0.26819478618918646,0.3494301751548646,nan,nan,nan,nan
10.738043785095215,0.0012398367,0.0064442777,-2.8887506,0.019818395484042545,nan,nan,nan,nan,nan,0.7345890998840332,1.9345890998840332,0.005732297897338867,-0.1768892894635803,0.5733325206833026,0.6077690903910569,-5.0,0.7163482525357092,0.0681316777859228,0.2485195335584083,0.3594088240251275,nan,nan,nan,nan
10.852866172790527,0.008934309,0.001672925,-2.9016964,0.03955258035068062,nan,nan,nan,nan,nan,0.8494107723236084,2.0494107723236086,0.005975008010864258,-0.23930540305551545,0.5502117084072614,0.6438413826519633,-5.0,0.7172923828865259,-0.004996116031583655,0.16426441972546546,0.3655617373118922,nan,nan,nan,nan
10.951608896255493,0.0030671894,-0.00637787,-2.909588,0.06715431039954303,nan,nan,nan,nan,nan,0.948115348815918,2.148115348815918,0.006349086761474609,-0.2906342546655733,0.5249111639267988,0.6748503398903565,-5.0,0.7185148758068616,-0.07338937592072764,0.047504744729958304,0.36359014162290076,nan,nan,nan,nan
11.049677848815918,-0.013863835,-0.009702941,-2.9066494,0.09064413231875089,nan,nan,nan,nan,nan,1.0461986064910889,2.246198606491089,0.007350921630859375,-0.3390220721551109,0.4950394273102445,0.7056641040656036,-5.0,0.7197246712785546,-0.1129180654234921,-0.0264330526372339,0.36107142401809794,nan,nan,nan,nan
11.146960496902466,-0.03611144,-0.010162648,-2.9000206,0.11625047576397027,nan,nan,nan,nan,nan,1.1435396671295166,2.343539667129517,0.0066030025482177734,-0.3840339837694465,0.4609966369835777,0.736244700165036,-5.0,0.7209277847515114,-0.13826240619034547,-0.0839107754387867,0.35744184539039814,nan,nan,nan,nan
11.24575924873352,-0.070945755,-0.0063621523,-2.8880398,0.15116429052608504,nan,nan,nan,nan,nan,1.2423346042633057,2.442334604263306,0.005326986312866211,-0.42624215905039886,0.42227671241504006,0.7672820450361736,-5.0,0.7224080777120744,-0.14871928014256552,-0.1342140614778361,0.3513897962060204,nan,nan,nan,nan
11.342777490615845,-0.10179495,0.00086863624,-2.8786101,0.1797896012216048,nan,nan,nan,nan,nan,1.3393099308013916,2.539309930801392,0.005415201187133789,-0.46389729830019066,0.3805250275997414,0.7977477423793259,-5.0,0.723540959832372,-0.15499002468101886,-0.15689424672070154,0.34504191772317044,nan,nan,nan,nan
11.44125247001648,-0.1383715,0.008944387,-2.8704624,0.2088702153203172,nan,nan,nan,nan,nan,1.4377470016479492,2.6377470016479494,0.005641460418701172,-0.49795248034889344,0.33472873691152494,0.8286726602405702,-5.0,0.724477133945425,-0.15172155520898553,-0.16641585985401045,0.3395034176338662,nan,nan,nan,nan
11.549521923065186,-0.19468449,0.016160896,-2.850906,0.2520395540438458,nan,nan,nan,nan,nan,1.5460128784179688,2.746012878417969,0.007507801055908203,-0.5301950110108985,0.2808794230611299,0.8626853885500853,-5.0,0.7257975512517193,-0.11804279965511084,-0.15687806534747928,0.32760041439490023,nan,nan,nan,nan
11.652899980545044,-0.23141119,0.019588612,-2.8361175,0.2792816579627607,nan,nan,nan,nan,nan,1.6494123935699463,2.8494123935699465,0.005974531173706055,-0.5555761844203303,0.22657251224485983,0.8951693042687052,-5.0,0.7267744860947261,-0.1048398844536889,-0.1541423362851934,0.3230668354570685,nan,nan,nan,nan
11.735505819320679,-0.28286386,0.02318808,-2.8143399,0.31716348282357165,nan,nan,nan,nan,nan,1.7320036888122559,2.932003688812256,0.0061876773834228516,-0.5718760636228664,0.18154274387927288,0.9211161249070757,-5.0,0.7280196772990979,-0.06419981525867288,-0.13067075125773814,0.3115838251797942,nan,nan,nan,nan
11.850060224533081,-0.31996116,0.02142812,-2.796026,0.3468021832474749,nan,nan,nan,nan,nan,1.8465912342071533,3.0465912342071535,0.0062906742095947266,-0.5884390380835273,0.11721560672253974,0.9571148639876255,-5.0,0.7290293792949426,-0.046383440994430265,-0.11972387373399793,0.3073329451995543,nan,nan,nan,nan
11.947329044342041,-0.3680147,0.006277565,-2.780878,0.38477051044656063,nan,nan,nan,nan,nan,1.9438388347625732,3.1438388347625734,0.0061304569244384766,-0.5968435095973055,0.06146401428129458,0.9876660987360396,-5.0,0.72984800069827,-0.00446378736442539,-0.09738191162469509,0.2971322234871354,nan,nan,nan,nan
12.046175003051758,-0.39444718,-0.006899379,-2.7710383,0.41169598727850937,nan,nan,nan,nan,nan,2.0427801609039307,3.242780160903931,0.006003379821777344,-0.5999853880710074,0.004187374031842961,1.0187494330702516,-5.0,0.7302442058476714,0.01572950552560649,-0.0904469034004791,0.2925386098987146,nan,nan,nan,nan
12.141976356506348,-0.41993022,-0.032932825,-2.7578068,0.45060173005198195,nan,nan,nan,nan,nan,2.1384806632995605,3.3384806632995607,0.005098104476928711,-0.5978067595182,-0.051255031697863856,1.048814632597348,-5.0,0.7306159405504976,0.05371998786271994,-0.057330847763606446,0.28213368402050215,nan,nan,nan,nan
12.236281394958496,-0.42895123,-0.057430796,-2.7503376,0.4775726673273456,nan,nan,nan,nan,nan,2.2327826023101807,3.432782602310181,0.005972623825073242,-0.5906589889589864,-0.10546069771221832,1.0784404604788516,-5.0,0.7308064954202295,0.07293401115436492,-0.03974748893143419,0.2768778639206663,nan,nan,nan,nan
12.352357864379883,-0.43335947,-0.09380852,-2.752304,0.5103166743654137,nan,nan,nan,nan,nan,2.3488481044769287,3.548848104476929,0.007269859313964844,-0.5751381766464047,-0.17092711243055897,1.1149035133730782,-5.0,0.7304993392587504,0.09363513832581519,-0.019395366759013394,0.2702676092521448,nan,nan,nan,nan
12.453041791915894,-0.42829755,-0.12118563,-2.7551513,0.5331858314236388,nan,nan,nan,nan,nan,2.4498064517974854,3.6498064517974855,0.005647182464599609,-0.5557471105480348,-0.226152933028759,1.146620513599161,-5.0,0.7302266609324416,0.09714118811489661,-0.01723234422966608,0.2689805148116278,nan,nan,nan,nan
12.534358978271484,-0.41349536,-0.16467449,-2.7551177,0.5639962208512483,nan,nan,nan,nan,nan,2.5308680534362793,3.7308680534362795,0.007651567459106445,-0.5363391636422802,-0.26896152428088926,1.1720867668188266,-5.0,0.7298980308846676,0.10266285079194812,-0.008346691674356376,0.26536820500565433,nan,nan,nan,nan
12.651722431182861,-0.39574328,-0.20107329,-2.7520418,0.5878739507854286,nan,nan,nan,nan,nan,2.6483583450317383,3.8483583450317385,0.006470918655395508,-0.5024032338893496,-0.32801065619507463,1.2089974305132685,-5.0,0.7297839748563574,0.10964230291273987,-0.003289414693883969,0.2617358217558563,nan,nan,nan,nan
12.750519514083862,-0.36288652,-0.24999408,-2.7423286,0.6210411507918367,nan,nan,nan,nan,nan,2.7470390796661377,3.947039079666138,0.006506443023681641,-0.46887803852537885,-0.37437065187938184,1.2399988976110956,-5.0,0.7298656756221387,0.11182271048571626,0.008145523277654382,0.2549265613953721,nan,nan,nan,nan
12.845608949661255,-0.33203518,-0.2846967,-2.7312,0.6450344624746306,nan,nan,nan,nan,nan,2.8426132202148438,4.042613220214844,0.005288839340209961,-0.43234098988110964,-0.41603036964700335,1.270024399393193,-5.0,0.7301565111138071,0.10947358965825049,0.009372795674167721,0.2529692794253022,nan,nan,nan,nan
12.94138765335083,-0.29993182,-0.31541747,-2.7232308,0.665948433026406,nan,nan,nan,nan,nan,2.937877655029297,4.137877655029297,0.005174875259399414,-0.392252388450395,-0.45402429863935734,1.29995260424934,-5.0,0.7304244916189042,0.10395744874374709,0.012142860227046689,0.25092226006069474,nan,nan,nan,nan
13.05396842956543,-0.25476998,-0.35094407,-2.7094777,0.6941484557334527,nan,nan,nan,nan,nan,3.0504820346832275,4.250482034683228,0.005867719650268555,-0.3406087265420921,-0.49394908179221697,1.3353283134376224,-5.0,0.7306628281915989,0.09406686572724754,0.015755195256155635,0.24828111223621627,nan,nan,nan,nan
13.135536432266235,-0.22233702,-0.37079138,-2.6987042,0.7144295680890129,nan,nan,nan,nan,nan,3.1320455074310303,4.3320455074310305,0.0067596435546875,-0.30064662030813594,-0.5192413790303075,1.3609522341161993,-5.0,0.7309725483221822,0.07959942510234559,0.019575325962249424,0.24627007585328947,nan,nan,nan,nan
13.237449169158936,-0.17407583,-0.38832644,-2.6867657,0.7429511038361648,nan,nan,nan,nan,nan,3.233936071395874,4.433936071395874,0.0053789615631103516,-0.24813114250663515,-0.5462883269102058,1.3929620988384066,-5.0,0.7311763019869365,0.052940264676250993,0.03205122324529879,0.24140189306599213,nan,nan,nan,nan
13.353016376495361,-0.12266444,-0.41147414,-2.671478,0.774945247114402,nan,nan,nan,nan,nan,3.3495471477508545,4.549547147750855,0.0075871944427490234,-0.18565997205555593,-0.5705526923749726,1.4292823896534481,-5.0,0.731389937630591,0.03308907837717252,0.032920669674090755,0.23806757029534126,nan,nan,nan,nan
13.451011180877686,-0.09130608,-0.4176758,-2.6721272,0.7949022704399958,nan,nan,nan,nan,nan,3.447558879852295,4.647558879852295,0.007671356201171875,-0.13085261754692154,-0.5855575056995846,1.4600736834069978,-5.0,0.7312817140824814,0.024382282305270724,0.02707843569125186,0.23827638399584655,nan,nan,nan,nan
13.549651622772217,-0.043620482,-0.41738856,-2.6694818,0.824084622272769,nan,nan,nan,nan,nan,3.546429395675659,4.746429395675659,0.006597280502319336,-0.07437737580483936,-0.5953721575354239,1.4911347720237293,-5.0,0.730894398023996,0.011952125146005696,0.02835142783380286,0.23544540298195027,nan,nan,nan,nan
13.634344816207886,-0.014313514,-0.41221717,-2.6692986,0.8429128772334138,nan,nan,nan,nan,nan,3.6308677196502686,4.830867719650269,0.007987737655639648,-0.0255883565897575,-0.5994541150138477,1.5176618538517361,-5.0,0.730687935291734,0.0028475499424761024,0.034099930487134805,0.23312978317584432,nan,nan,nan,nan
13.750130653381348,0.01216149,-0.40311107,-2.674419,0.863639178391739,nan,nan,nan,nan,nan,3.746671199798584,4.946671199798584,0.007167339324951172,0.04153507134200212,-0.5985606384056796,1.5540425901011439,-5.0,0.7301836553045328,-0.0043477023132598575,0.025611716581535923,0.23556254678793973,nan,nan,nan,nan
13.847139835357666,0.047597576,-0.38088927,-2.6742527,0.8904929440686171,nan,nan,nan,nan,nan,3.843756914138794,5.043756914138794,0.005408048629760742,0.0974431870480838,-0.5920344798218361,1.584542966795116,-5.0,0.7297122469597559,-0.016919272525947323,0.03447855805823308,0.23076383551962848,nan,nan,nan,nan
13.94816541671753,0.07087242,-0.3589805,-2.6717691,0.9133504143779156,nan,nan,nan,nan,nan,3.9447646141052246,5.144764614105225,0.005586385726928711,0.15469262237507944,-0.5797156135405713,1.6162754716121701,-5.0,0.7295703494962542,-0.02210296664633445,0.03788960445057314,0.2287116260712484,nan,nan,nan,nan
14.04090690612793,0.09373113,-0.333239,-2.6688871,0.9377369998312252,nan,nan,nan,nan,nan,4.037456512451172,5.237456512451172,0.005332231521606445,0.2059451679223828,-0.563548212497761,1.6453954903012622,-5.0,0.7295156863373612,-0.021812308912453074,0.034565788518008685,0.22851544760694134,nan,nan,nan,nan
14.142841815948486,0.11159468,-0.31289613,-2.6669347,0.9562221327799534,nan,nan,nan,nan,nan,4.1393702030181885,5.339370203018189,0.0052547454833984375,0.2603743921583868,-0.5405600576329614,1.6774126204598183,-5.0,0.7294829118642981,-0.01672833461006713,0.02827819709515417,0.23044531960181697,nan,nan,nan,nan
14.241692543029785,0.13868313,-0.28276932,-2.6624131,0.9831079111897156,nan,nan,nan,nan,nan,4.238178014755249,5.438178014755249,0.005721092224121094,0.310739148639203,-0.5132652155591525,1.7084540100068617,-5.0,0.7294842201331001,-0.009739798306300495,0.02943635031732945,0.22696418875570998,nan,nan,nan,nan
14.344507932662964,0.15256609,-0.2658078,-2.6542428,0.9986898112662413,nan,nan,nan,nan,nan,4.341047525405884,5.541047525405884,0.005783557891845703,0.3601582193290593,-0.4798812947487339,1.7407714199007027,-5.0,0.7296614202383044,0.0025131320620685946,0.023371411660846556,0.229643644594543,nan,nan,nan,nan
14.453683853149414,0.1833003,-0.23628208,-2.640118,1.028539564390515,nan,nan,nan,nan,nan,4.450286865234375,5.650286865234375,0.007001161575317383,0.408731332895702,-0.43924787706863516,1.7750899706495213,-5.0,0.7301038435691399,0.016515433613023746,0.0219557668279902,0.22698055730397818,nan,nan,nan,nan
14.54901647567749,0.19840488,-0.22332987,-2.6326585,1.0441885010391554,nan,nan,nan,nan,nan,4.545716047286987,5.7457160472869875,0.005686759948730469,0.44745498577175546,-0.399729953478593,1.8050699323769783,-5.0,0.730331165896832,0.03113135185528005,0.015451442547469756,0.2296733888692117,nan,nan,nan,nan
14.644710779190063,0.21778488,-0.20349266,-2.6247175,1.0704350644990455,nan,nan,nan,nan,nan,4.641256809234619,5.841256809234619,0.005747795104980469,0.4824122775331387,-0.3567609766850769,1.8350849479622835,-5.0,0.7306673167317245,0.036078794372104636,0.006861830482386314,0.226202957820327,nan,nan,nan,nan
14.74618148803711,0.22514962,-0.18705219,-2.6290677,1.0881514818585898,nan,nan,nan,nan,nan,4.742800951004028,5.9428009510040285,0.005169868469238281,0.5150525597538073,-0.30776754327097383,1.8669859809420692,-5.0,0.7303919133053383,0.038811935151435155,-0.0013684588041098522,0.2287294984648031,nan,nan,nan,nan
14.83853816986084,0.23219669,-0.16634472,-2.634806,1.1075312459773803,nan,nan,nan,nan,nan,4.835032939910889,6.035032939910889,0.005753755569458008,0.5404097451253423,-0.26068622398117325,1.895961514819646,-5.0,0.7299900287301742,0.034805175155107185,-0.003152142579267972,0.2288437852586918,nan,nan,nan,nan
14.951914310455322,0.24042861,-0.14194039,-2.636919,1.1323455373289404,nan,nan,nan,nan,nan,4.9484477043151855,6.148447704315186,0.007523059844970703,0.5656876308378974,-0.1999937606951942,1.9315918138857615,-5.0,0.7295925539846391,0.02840937672418929,0.0017450156222952645,0.2282929167690801,nan,nan,nan,nan
15.053243637084961,0.24511734,-0.11586201,-2.6342874,1.159373002701525,nan,nan,nan,nan,nan,5.049743413925171,6.249743413925171,0.008050918579101562,0.5825294584372094,-0.14373388623721123,1.963414799600851,-5.0,0.7295530022477735,0.01806377936803966,0.005025487917479776,0.2255702116872047,nan,nan,nan,nan
15.136468172073364,0.24677469,-0.09565007,-2.6327832,1.1776428206339995,nan,nan,nan,nan,nan,5.132968425750732,6.332968425750733,0.00770115852355957,0.5921961710701302,-0.09645566323382462,1.9895607081754618,-5.0,0.7295248210705719,0.01256407736730144,0.007698365186192983,0.22519720991121114,nan,nan,nan,nan
15.237435102462769,0.24956183,-0.06942029,-2.6319551,1.1961333133835128,nan,nan,nan,nan,nan,5.23393702507019,6.433937025070191,0.0071239471435546875,0.5987770099088074,-0.0382895861125176,2.0212809291619878,-5.0,0.7294473407012705,0.008870493090618197,0.019243022388527698,0.22511096166150443,nan,nan,nan,nan
15.334659337997437,0.25211415,-0.026700778,-2.633542,1.2247459648254155,nan,nan,nan,nan,nan,5.331147193908691,6.531147193908692,0.0077784061431884766,0.5997280686219477,0.018062217665291046,2.051820404389714,-5.0,0.7292656793598238,0.002528346309694336,0.03453926241728617,0.22253875691221175,nan,nan,nan,nan
15.453163623809814,0.24896698,0.016740775,-2.640093,1.2534013877300834,nan,nan,nan,nan,nan,5.44969630241394,6.649696302413941,0.0065572261810302734,0.5937292644532649,0.08651913390565652,2.0890637052266845,-5.0,0.7289238916868565,-0.0021186431542830108,0.04696641785605799,0.22086690372911721,nan,nan,nan,nan
15.548219680786133,0.24502455,0.042223997,-2.6440988,1.2704639278257828,nan,nan,nan,nan,nan,5.544855833053589,6.744855833053589,0.007245302200317383,0.5832718945440503,0.14069078518152606,2.118958953464342,-5.0,0.7286427471570143,0.0001820435139376261,0.05222284241169504,0.22120426194305973,nan,nan,nan,nan
15.650580644607544,0.23469278,0.08320683,-2.6485634,1.2977240377805361,nan,nan,nan,nan,nan,5.647081613540649,6.84708161354065,0.007158756256103516,0.5665466303596959,0.1975472491027757,2.1510741295629052,-5.0,0.7284340238937594,-0.00635151253004903,0.05085261744690861,0.21872951209379066,nan,nan,nan,nan
15.736833810806274,0.22771299,0.10511971,-2.6505947,1.3118776272082515,nan,nan,nan,nan,nan,5.733404636383057,6.933404636383057,0.008426189422607422,0.5481104527732914,0.244079764750496,2.1781933070026422,-5.0,0.7283809392853788,-0.001474391748548469,0.05214459600924624,0.22111332969808295,nan,nan,nan,nan
15.84402871131897,0.21216573,0.14369452,-2.6502995,1.3378806277968232,nan,nan,nan,nan,nan,5.840612888336182,7.040612888336182,0.005477190017700195,0.5199205611569188,0.2994705496142729,2.211873772676656,-5.0,0.728378016092779,-0.00098084970513134,0.05039223341487238,0.2215448585126932,nan,nan,nan,nan
15.950713634490967,0.19338532,0.18253952,-2.648059,1.3617525386943377,nan,nan,nan,nan,nan,5.947286128997803,7.147286128997803,0.0065670013427734375,0.4863337040283652,0.351396540002958,2.245386159596373,-5.0,0.7285489698807746,-0.010661067362277381,0.043248413073923464,0.2187763860980238,nan,nan,nan,nan
16.026607990264893,0.18445612,0.19977526,-2.647183,1.3718266669512291,nan,nan,nan,nan,nan,6.023524045944214,7.223524045944214,0.009545326232910156,0.45914097173594504,0.38625065446335766,2.2693370075767563,-5.0,0.7286306455144778,-0.007068802771156822,0.04783121764821199,0.22174483975002557,nan,nan,nan,nan
16.144585371017456,0.15430647,0.24568707,-2.644297,1.3967592146097214,nan,nan,nan,nan,nan,6.14106822013855,7.34106822013855,0.005157947540283203,0.41238761757093695,0.43581699470553764,2.306264598988877,-5.0,0.7288976623085843,-0.02531221335661054,0.05138868403099366,0.22027433221092813,nan,nan,nan,nan
16.24190330505371,0.11359149,0.287841,-2.644484,1.4221276387544175,nan,nan,nan,nan,nan,6.238417863845825,7.438417863845825,0.0056416988372802734,0.36961212204987653,0.47263821177914417,2.3368478915389126,-5.0,0.7289784978340866,-0.037814183582317265,0.05152579632089362,0.22093318752128052,nan,nan,nan,nan
16.336461305618286,0.07910223,0.31495792,-2.6485584,1.4428305967599258,nan,nan,nan,nan,nan,6.332971096038818,7.5329710960388185,0.00669550895690918,0.3249306745285833,0.5044006906720091,2.3665526655019806,-5.0,0.7289705005352928,-0.04250831091299299,0.05157794683891983,0.2223247084369126,nan,nan,nan,nan
16.43685269355774,0.03751386,0.33599517,-2.6549187,1.4656665340557151,nan,nan,nan,nan,nan,6.433513641357422,7.633513641357422,0.009277582168579102,0.2744523093811502,0.5335503067896722,2.3981390376765948,-5.0,0.7287120794841923,-0.0526928773685503,0.03237054866060621,0.21967655903283856,nan,nan,nan,nan
16.54003095626831,0.0038360048,0.3468319,-2.659938,1.4833065374925767,nan,nan,nan,nan,nan,6.536548137664795,7.736548137664795,0.005936384201049805,0.22003963950690747,0.5581958052920768,2.4305082793431514,-5.0,0.7285091115320386,-0.05243403767247094,0.02455699664522171,0.2220218081421507,nan,nan,nan,nan
16.64045786857605,-0.045691796,0.3501112,-2.6663988,1.5078471947648993,nan,nan,nan,nan,nan,6.636948585510254,7.836948585510254,0.005938053131103516,0.16491545175357897,0.5768907121569153,2.4620500102799934,-5.0,0.7282007313582877,-0.05633702207000353,-0.004021486586779301,0.2197445660965611,nan,nan,nan,nan
16.747477769851685,-0.10055308,0.35439825,-2.6754932,1.5321803255965873,nan,nan,nan,nan,nan,6.744124412536621,7.944124412536621,0.00675511360168457,0.10437169584959012,0.5908523919774554,2.495720289362838,-5.0,0.7279764946639633,-0.056787064909813216,-0.012522219547511409,0.22050022712510695,nan,nan,nan,nan
16.851742029190063,-0.1468942,0.35469478,-2.6763375,1.5531154060681158,nan,nan,nan,nan,nan,6.848275899887085,8.048275899887084,0.006077766418457031,0.04445814705520879,0.5983506272750263,2.5284404441149047,-5.0,0.7279329976180271,-0.05815097007034121,-0.01687877325185358,0.2196403209283192,nan,nan,nan,nan
16.945532083511353,-0.18304126,0.35243702,-2.6747622,1.570544646852301,nan,nan,nan,nan,nan,6.9420201778411865,8.142020177841186,0.005423784255981445,-0.009871025250896247,0.5999187968887923,2.557891077608573,-5.0,0.7280782567629809,-0.05362031971245804,-0.013324413253684435,0.2213887775099453,nan,nan,nan,nan
17.044423580169678,-0.23437363,0.34473,-2.670315,1.5966907163384003,nan,nan,nan,nan,nan,7.040931224822998,8.240931224822997,0.0061109066009521484,-0.0670978800864883,0.5962364249925521,2.5889648994642664,-5.0,0.7284701479601376,-0.04670877896052576,-0.01882258351395094,0.2182056095297693,nan,nan,nan,nan
17.15200924873352,-0.26695624,0.3368623,-2.6680574,1.6139557233173916,nan,nan,nan,nan,nan,7.148591756820679,8.348591756820678,0.0067484378814697266,-0.12867287857407314,0.5860403487128355,2.6227874531048148,-5.0,0.7286734403406704,-0.04007921046401694,-0.010862659608214212,0.22103405278068441,nan,nan,nan,nan
17.23535656929016,-0.30430686,0.32133985,-2.6660943,1.63440295599774,nan,nan,nan,nan,nan,7.231898784637451,8.43189878463745,0.007609128952026367,-0.17539769773887615,0.5737905956251825,2.648959127762972,-5.0,0.7288497397048572,-0.0339724674928803,-0.011133288841443498,0.2203467007701231,nan,nan,nan,nan
17.33580255508423,-0.34129587,0.30484965,-2.6670916,1.6565348939303775,nan,nan,nan,nan,nan,7.332427024841309,8.532427024841308,0.006811618804931641,-0.23024060472142538,0.5540661187417186,2.6805410058532466,-5.0,0.7289932116725938,-0.027089219486191914,-0.015165365035193851,0.2185212281632211,nan,nan,nan,nan
17.45408320426941,-0.38085586,0.2862017,-2.67123,1.6820211045557594,nan,nan,nan,nan,nan,7.450620889663696,8.650620889663696,0.00722193717956543,-0.2919047178708863,0.5242057188592264,2.717672703595787,-5.0,0.7289107041356562,-0.02077445972891476,-0.008586242142436312,0.2182428798258545,nan,nan,nan,nan
17.55102825164795,-0.40462998,0.2720884,-2.6747534,1.6990852657022661,nan,nan,nan,nan,nan,7.5476038455963135,8.747603845596313,0.006498098373413086,-0.33969420380141485,0.49457845475083406,2.74814079778392,-5.0,0.7288092708993474,-0.021368146506318846,0.00023169603185676003,0.2202139702364263,nan,nan,nan,nan
17.646385431289673,-0.432906,0.24798054,-2.6852396,1.72313460737627,nan,nan,nan,nan,nan,7.642870187759399,8.842870187759399,0.005578041076660156,-0.38373557025499366,0.461245067313543,2.7780696018513122,-5.0,0.728472711798515,-0.01839975730873047,-0.005449538381005233,0.216921325148,nan,nan,nan,nan
17.741624116897583,-0.45056015,0.22400056,-2.690062,1.74044415786239,nan,nan,nan,nan,nan,7.738144397735596,8.938144397735595,0.005991935729980469,-0.4245282618047576,0.4239997110011175,2.808000877665091,-5.0,0.7283424655540692,-0.017874090990096358,-0.002586010663881217,0.2193446013821417,nan,nan,nan,nan
17.839874029159546,-0.4676261,0.19766179,-2.6934142,1.7592305832964112,nan,nan,nan,nan,nan,7.836394786834717,9.036394786834716,0.007965087890625,-0.46282317410852203,0.38183073410624324,2.838867147725705,-5.0,0.7282739182971988,-0.014401383838585928,-0.015134561904369027,0.2170908346244902,nan,nan,nan,nan
17.94053840637207,-0.48445073,0.16674292,-2.696567,1.7812968470105344,nan,nan,nan,nan,nan,7.937041282653809,9.137041282653808,0.007535457611083984,-0.49772401960066137,0.33506835170239585,2.8704861769131864,-5.0,0.7283546080324301,-0.01582342659467162,-0.010942786589439972,0.22018791946473823,nan,nan,nan,nan
18.041086673736572,-0.49919006,0.12778687,-2.704464,1.8067771218115456,nan,nan,nan,nan,nan,8.037641286849976,9.237641286849975,0.0069239139556884766,-0.5279047017132306,0.28516070190169085,2.9020906003265643,-5.0,0.7282069156902548,-0.012605678196401102,-0.023806962809851402,0.2166093158438904,nan,nan,nan,nan
18.151134490966797,-0.50792325,0.085710876,-2.7058542,1.8307687175069103,nan,nan,nan,nan,nan,8.147754907608032,9.347754907608032,0.00598907470703125,-0.5552124573016415,0.22746236448492504,2.9366838145299328,-5.0,0.7282822724952963,-0.013042950591651819,-0.034448365809481976,0.21494995378518614,nan,nan,nan,nan
18.250468492507935,-0.51265746,0.05779993,-2.710062,1.8479248196384748,nan,nan,nan,nan,nan,8.247029304504395,9.447029304504394,0.005987405776977539,-0.5744524538375654,0.17321771930146115,2.9678717861278496,-5.0,0.7282716893457545,-0.01638771857625826,-0.03462655457429109,0.2156776366426125,nan,nan,nan,nan
18.347705364227295,-0.51772916,0.014789479,-2.7244794,1.8736382852397298,nan,nan,nan,nan,nan,8.344242811203003,9.544242811203002,0.0051763057708740234,-0.5881714322795384,0.1185511123956092,2.998412309975255,-5.0,0.7280262168763444,-0.017928561376066483,-0.03614815436915774,0.21430304332404962,nan,nan,nan,nan
18.44404411315918,-0.5202893,-0.0089498805,-2.7321713,1.887326701972417,nan,nan,nan,nan,nan,8.440552711486816,9.640552711486816,0.0060465335845947266,-0.5966452576690686,0.06335958097249964,3.028668957495214,-5.0,0.7277085984270703,-0.026396551883409426,-0.02816952682430525,0.21814242659681524,nan,nan,nan,nan
18.541609525680542,-0.52684504,-0.055638786,-2.7373717,1.9127281562446614,nan,nan,nan,nan,nan,8.538141012191772,9.738141012191772,0.007896184921264648,-0.5999605774450294,0.006877900248387696,3.0593272263523144,-5.0,0.7276167124706343,-0.031271119381038805,-0.031686947788902055,0.21442724287082127,nan,nan,nan,nan
18.646287441253662,-0.5265512,-0.08612906,-2.7356634,1.9294412695628527,nan,nan,nan,nan,nan,8.64277958869934,9.84277958869934,0.005700111389160156,-0.5975886067255526,-0.05373878591681069,3.092200404676141,-5.0,0.7278197936152017,-0.038714418910148075,-0.02768933080593598,0.21680924347125638,nan,nan,nan,nan
18.748027563095093,-0.51504725,-0.120760106,-2.725567,1.9543679973773198,nan,nan,nan,nan,nan,8.744516611099243,9.944516611099242,0.005431413650512695,-0.5894248201245509,-0.11215338345828339,3.124162032893105,-5.0,0.7283779428117441,-0.02566163799624442,-0.026753329249895624,0.21377128336355694,nan,nan,nan,nan
18.85166907310486,-0.49604768,-0.14752063,-2.7139695,1.97751888746498,nan,nan,nan,nan,nan,8.848421573638916,10.048421573638915,0.0064122676849365234,-0.5752086015940764,-0.17068996646606704,3.1568047395917205,-5.0,0.7289667133348192,-0.00896196888288403,-0.018346114021408167,0.21360519865690453,nan,nan,nan,nan
18.94966697692871,-0.47608715,-0.16970293,-2.7022786,1.9957203724507226,nan,nan,nan,nan,nan,8.946213245391846,10.146213245391845,0.005173444747924805,-0.5565292651817318,-0.22422126793924255,3.1875268993478474,-5.0,0.7293359592996257,-0.0028880378373863044,-0.012587591282639596,0.21576121276153162,nan,nan,nan,nan
19.045028924942017,-0.45399567,-0.19160616,-2.688283,2.0122500732128605,nan,nan,nan,nan,nan,9.041539430618286,10.241539430618285,0.005585193634033203,-0.5335362262171852,-0.2744796810584065,3.21747450366806,-5.0,0.7299977711470087,0.006160684637552666,-0.015484761913605741,0.21653523292432952,nan,nan,nan,nan
19.138269186019897,-0.42144662,-0.2183164,-2.6667836,2.0357573462552003,nan,nan,nan,nan,nan,9.134799480438232,10.334799480438232,0.006937742233276367,-0.5066590616935613,-0.32139787678794635,3.246773012406836,-5.0,0.7308729502956408,0.023445027010398762,-0.023538088288977306,0.21297859260975396,nan,nan,nan,nan
19.243664979934692,-0.40035677,-0.23836869,-2.6508899,2.0542330350277265,nan,nan,nan,nan,nan,9.240161657333374,10.440161657333373,0.006909370422363281,-0.4713564818742365,-0.37124529221950076,3.2798735164968367,-5.0,0.7313335540351522,0.0178285130627659,-0.022810431455993315,0.21644010918295375,nan,nan,nan,nan
19.338873863220215,-0.36802724,-0.26495203,-2.632472,2.0777968515089866,nan,nan,nan,nan,nan,9.335408449172974,10.535408449172973,0.00870823860168457,-0.4352279033149941,-0.41300928824426464,3.309796178648965,-5.0,0.7319678642453545,0.015990471264170806,-0.02500400859957911,0.21297562956680194,nan,nan,nan,nan
19.452075004577637,-0.3364673,-0.28508145,-2.6200428,2.0965405035006173,nan,nan,nan,nan,nan,9.448885440826416,10.648885440826415,0.006699800491333008,-0.3873991789124267,-0.4581723214882994,3.345446026981957,-5.0,0.732411580840921,0.01330381402378208,-0.03204203422778136,0.21254644458916036,nan,nan,nan,nan
19.536909103393555,-0.30313882,-0.29902264,-2.6109295,2.1153682092512875,nan,nan,nan,nan,nan,9.533428430557251,10.73342843055725,0.006911277770996094,-0.34870471223564453,-0.48826736903530255,3.372005990527048,-5.0,0.7325624573027557,0.01223006760892392,-0.032967473221125386,0.21313609345494577,nan,nan,nan,nan
19.65092706680298,-0.26216277,-0.31271335,-2.60797,2.139297084898363,nan,nan,nan,nan,nan,9.647645711898804,10.847645711898803,0.005346059799194336,-0.2927826557910212,-0.5237158737979558,3.40788840772461,-5.0,0.7324893794190737,0.009491019894339755,-0.03226771736232588,0.21388552480535403,nan,nan,nan,nan
19.74370837211609,-0.21383345,-0.324094,-2.6111689,2.1632787934232445,nan,nan,nan,nan,nan,9.740256309509277,10.940256309509277,0.006060123443603516,-0.24478902793543983,-0.5477940596633213,3.4369828850343724,-5.0,0.7320368507550474,0.017547731864808274,-0.03076921817553572,0.20962104681601137,nan,nan,nan,nan
19.838922262191772,-0.17805795,-0.33226845,-2.6182415,2.1802623828812067,nan,nan,nan,nan,nan,9.835505485534668,11.035505485534667,0.009783029556274414,-0.19338690753813786,-0.5679801968315759,3.4669062962005572,-5.0,0.7317152417882087,0.015064247001081566,-0.03345519292426615,0.21174248892493233,nan,nan,nan,nan
19.9537992477417,-0.13015606,-0.344281,-2.6313927,2.2038817424138184,nan,nan,nan,nan,nan,9.950303554534912,11.150303554534911,0.006302356719970703,-0.12929860273126034,-0.5859026124977971,3.5029711732223037,-5.0,0.7308110769731941,0.012477701043832709,-0.0373352993242111,0.21124086637165634,nan,nan,nan,nan
20.04859972000122,-0.08307374,-0.35588637,-2.635469,2.228873617036701,nan,nan,nan,nan,nan,10.045091390609741,11.24509139060974,0.0053386688232421875,-0.07514735250297688,-0.5952754617920961,3.532749650168539,-5.0,0.7303879772407885,0.011814067603741143,-0.037946581053514436,0.20727207262107655,nan,nan,nan,nan
20.140471935272217,-0.060817145,-0.3604555,-2.639018,2.243815638004057,nan,nan,nan,nan,nan,10.137039422988892,11.337039422988891,0.011067867279052734,-0.022011675499844337,-0.5995961025070873,3.5616359764719765,-5.0,0.7301913895613308,-0.00035876065398291547,-0.03843196694703387,0.20935495934474324,nan,nan,nan,nan
20.237536668777466,-0.029950118,-0.3621875,-2.6404815,2.2621415622503758,nan,nan,nan,nan,nan,10.234217643737793,11.434217643737792,0.00604701042175293,0.03432667074595717,-0.5990172615839201,3.5921654149113444,-5.0,0.7299688688146195,-0.0051658117140208305,-0.03162545618386453,0.207974078788585,nan,nan,nan,nan
20.336252450942993,0.015316967,-0.36153892,-2.6407886,2.2873326377109144,nan,nan,nan,nan,nan,10.333028793334961,11.53302879333496,0.006239891052246094,0.09129849863083118,-0.5930131399452765,3.6232078530780667,-5.0,0.7299145611989678,0.0014014931044741977,-0.02519735707302524,0.2063698223908701,nan,nan,nan,nan
20.451617002487183,0.062161874,-0.36065772,-2.6437447,2.312597450465247,nan,nan,nan,nan,nan,10.448204755783081,11.64820475578308,0.005333423614501953,0.15661954514134613,-0.5791979955763986,3.6593914488277814,-5.0,0.7297999075026419,0.008282063260278152,-0.02450911863904212,0.20462348071219835,nan,nan,nan,nan
20.54859471321106,0.091545224,-0.3578725,-2.6470468,2.3275357491460245,nan,nan,nan,nan,nan,10.545084714889526,11.745084714889526,0.0055506229400634766,0.21009499805935683,-0.5620143163571893,3.6898271856086704,-5.0,0.7296677577915613,0.0056357573027104885,-0.03301742467490036,0.20820228305949565,nan,nan,nan,nan
20.643014430999756,0.13455677,-0.3493616,-2.6521072,2.349071423130707,nan,nan,nan,nan,nan,10.63952350616455,11.83952350616455,0.006345987319946289,0.2604544946509991,-0.5405214669336387,3.719496006897022,-5.0,0.7294002343409033,0.024606253490187878,-0.028128538350805435,0.20346840406393266,nan,nan,nan,nan
20.742131233215332,0.16542405,-0.3400713,-2.6582437,2.365486362099475,nan,nan,nan,nan,nan,10.738710403442383,11.938710403442382,0.0072784423828125,0.31100324929697365,-0.5131052318255237,3.7506564896790624,-5.0,0.7293194364199047,0.025607645214368813,-0.03399203881802755,0.2064581799607514,nan,nan,nan,nan
20.835680723190308,0.21027143,-0.321598,-2.6701982,2.390016347885349,nan,nan,nan,nan,nan,10.832246780395508,12.032246780395507,0.0057506561279296875,0.3560627962901865,-0.4829278259719698,3.7800418091469967,-5.0,0.7288902032962821,0.0367938690872109,-0.02379222377350945,0.20345828438610983,nan,nan,nan,nan
20.947126388549805,0.25118673,-0.30076104,-2.6796217,2.4112471260672548,nan,nan,nan,nan,nan,10.943628549575806,12.143628549575805,0.005469083786010742,0.4058957905633528,-0.4418694458807384,3.8150334239270625,-5.0,0.7285714238060457,0.044740845842331456,-0.020792640599190414,0.20270602119491865,nan,nan,nan,nan
21.03883695602417,0.2910999,-0.27799645,-2.6856606,2.4309794608998385,nan,nan,nan,nan,nan,11.035373210906982,12.235373210906982,0.006143093109130859,0.44343625348344834,-0.40418348444309665,3.843855859331473,-5.0,0.728451692316956,0.049496244220273385,-0.02056276604535301,0.20270871786632494,nan,nan,nan,nan
21.154186248779297,0.326251,-0.24986444,-2.696934,2.454060200827493,nan,nan,nan,nan,nan,11.15072751045227,12.35072751045227,0.005589723587036133,0.4856580902819339,-0.3523297026134824,3.8800954813326207,-5.0,0.7281854173948794,0.049570614407190794,-0.013187079532278203,0.20115749426710572,nan,nan,nan,nan
21.251285314559937,0.34244397,-0.22440214,-2.7036192,2.470515920857019,nan,nan,nan,nan,nan,11.247807502746582,12.447807502746581,0.005562782287597656,0.5165359795943462,-0.3052713248644707,3.9105940603928566,-5.0,0.7280393772485649,0.04463326679850368,-0.012727236263588815,0.20337814461894296,nan,nan,nan,nan
21.344433546066284,0.35601017,-0.18477942,-2.7098336,2.4936757796025946,nan,nan,nan,nan,nan,11.34092903137207,12.54092903137207,0.006306171417236328,0.5418867204218513,-0.2576019841353136,3.9398490514149453,-5.0,0.7279086730856628,0.039299695530767,0.012694552815645788,0.20043589970246461,nan,nan,nan,nan
21.437686920166016,0.360483,-0.1551259,-2.7120454,2.510107132233573,nan,nan,nan,nan,nan,11.434196949005127,12.634196949005126,0.00543665885925293,0.5628790506961676,-0.2077671155100852,3.9691500319001083,-5.0,0.7279618781239491,0.03238485761560257,0.02257966837746745,0.20116084015026486,nan,nan,nan,nan
21.548622608184814,0.3621064,-0.11645422,-2.722596,2.529556530002422,nan,nan,nan,nan,nan,11.545121669769287,12.745121669769286,0.005406856536865234,0.5818815044038622,-0.14633494057366475,4.003998060685527,-5.0,0.7278035213150912,0.027968403404769245,0.03202377582930658,0.201624542031549,nan,nan,nan,nan
21.639658212661743,0.35642877,-0.06697395,-2.7336485,2.5518564876725387,nan,nan,nan,nan,nan,11.636208295822144,12.836208295822143,0.005767822265625,0.5924953463027349,-0.09460055290325838,4.03261376821032,-5.0,0.7275221982008451,0.028245927624256272,0.04688915937981188,0.1987146038828826,nan,nan,nan,nan
21.7521014213562,0.3485818,-0.019392097,-2.7437274,2.5740564143558355,nan,nan,nan,nan,nan,11.748749494552612,12.948749494552612,0.005344390869140625,0.5992638577272386,-0.02971243547520186,4.067969628526103,-5.0,0.7273085805779465,0.029249609496669146,0.051394960301654594,0.19842441284501203,nan,nan,nan,nan
21.845728874206543,0.3404259,0.012265132,-2.749269,2.590022122192705,nan,nan,nan,nan,nan,11.842253684997559,13.042253684997558,0.006237983703613281,0.5994995933392604,0.024499746653004178,4.0973448363042735,-5.0,0.7272101644620058,0.030301014246974525,0.04311746979416385,0.20074623327069166,nan,nan,nan,nan
21.94000506401062,0.32606512,0.045248844,-2.7527792,2.607682775272025,nan,nan,nan,nan,nan,11.936570167541504,13.136570167541503,0.0063018798828125,0.594779223102069,0.0789789577425478,4.126975233171523,-5.0,0.7272331706082857,0.024565952774821508,0.044910781750854084,0.19807526276142642,nan,nan,nan,nan
22.049715280532837,0.30549046,0.08865996,-2.7560554,2.6303063151533,nan,nan,nan,nan,nan,12.046209573745728,13.246209573745727,0.005199909210205078,0.5830872893251707,0.14145392545781332,4.161419468479036,-5.0,0.7273363693710538,0.02364671685995075,0.03916889740862936,0.19936388079234277,nan,nan,nan,nan
22.149640560150146,0.28689277,0.13192771,-2.7610435,2.6546240630606137,nan,nan,nan,nan,nan,12.146137714385986,13.346137714385986,0.006018161773681641,0.5667266394553272,0.1970302416677996,4.192812819731269,-5.0,0.7274073849321815,0.02230565371273882,0.034972386673896266,0.19698786721424855,nan,nan,nan,nan
22.24578547477722,0.27043512,0.1573781,-2.7674742,2.6707503793055896,nan,nan,nan,nan,nan,12.242285966873169,13.442285966873168,0.0060651302337646484,0.5459948345082305,0.2487762864308612,4.223018684098191,-5.0,0.7274450928419671,0.02589806763744795,0.024601740699590285,0.19865578892703994,nan,nan,nan,nan
22.341391801834106,0.24366061,0.18805657,-2.7774775,2.693412824170786,nan,nan,nan,nan,nan,12.338137149810791,13.53813714981079,0.007247447967529297,0.5206357518282491,0.2982254414335468,4.253131221313664,-5.0,0.7272015074794226,0.017793101191895987,0.022860915732964143,0.19577148058376553,nan,nan,nan,nan
22.436551809310913,0.22160523,0.20808259,-2.784148,2.711101588753385,nan,nan,nan,nan,nan,12.433139562606812,13.63313956260681,0.005325794219970703,0.49109332291595936,0.3447134290789397,4.282977109524992,-5.0,0.7270474269265618,0.014250379515627678,0.014938064108204438,0.1974013921421751,nan,nan,nan,nan
22.550342321395874,0.19287822,0.23679423,-2.7902086,2.734925079953177,nan,nan,nan,nan,nan,12.546847820281982,13.746847820281982,0.005778312683105469,0.4503166970598942,0.3965033068576698,4.318699612221473,-5.0,0.7269560888416138,0.008164693319714054,0.013121696050669691,0.19484819694008398,nan,nan,nan,nan
22.64430832862854,0.17731594,0.2536615,-2.7945747,2.7490504863937115,nan,nan,nan,nan,nan,12.64091968536377,13.840919685363769,0.007859945297241211,0.41245018802562455,0.4357577795032774,4.348253160246517,-5.0,0.7269589926703146,0.013988329331378805,0.008177292841927404,0.1962404636852079,nan,nan,nan,nan
22.742472648620605,0.14990047,0.27987063,-2.8006682,2.7726020278034538,nan,nan,nan,nan,nan,12.738974809646606,13.938974809646606,0.007943868637084961,0.369357615087509,0.47283713070873307,4.379058086055896,-5.0,0.7269706244648896,0.01932113113917583,0.006271217023018314,0.19525142406821733,nan,nan,nan,nan
22.848227977752686,0.12527815,0.29907456,-2.8039408,2.7914011922537085,nan,nan,nan,nan,nan,12.844728231430054,14.044728231430053,0.005854368209838867,0.31917731849447745,0.5080608618646736,4.412281503352582,-5.0,0.7269764707624422,0.02572152715305289,0.005347452950594625,0.19590479614506898,nan,nan,nan,nan
22.947909832000732,0.09603317,0.31811956,-2.804766,2.8116475808185193,nan,nan,nan,nan,nan,12.94445013999939,14.144450139999389,0.005744218826293945,0.26879654449958235,0.5364218653868279,4.4436100648889205,-5.0,0.7271314701562437,0.021810833908427366,0.01409579016832941,0.19298398322307017,nan,nan,nan,nan
23.044753789901733,0.07439899,0.32901794,-2.8044856,2.8256897409092376,nan,nan,nan,nan,nan,13.041281700134277,14.241281700134277,0.0071222782135009766,0.21748322558138178,0.5591967869996373,4.47403059668446,-5.0,0.7272895156982311,0.026497922031320977,0.01523282763724446,0.19568775823227966,nan,nan,nan,nan
23.13678002357483,0.043401957,0.34415573,-2.8076687,2.8476451451416755,nan,nan,nan,nan,nan,13.133582353591919,14.333582353591918,0.005852460861206055,0.16679174747148062,0.576351032770316,4.503027702166866,-5.0,0.7274525555290127,0.0206438461882868,0.021922237967501663,0.19393318586053,nan,nan,nan,nan
23.251766443252563,0.009022044,0.35168996,-2.8168375,2.8696656854784464,nan,nan,nan,nan,nan,13.248257637023926,14.448257637023925,0.0054624080657958984,0.1020102033212965,0.5912646771272133,4.539054004964699,-5.0,0.7273341336824105,0.013305203530777868,0.025873341816791587,0.19264420647694536,nan,nan,nan,nan
23.34572434425354,-0.017996477,0.35266706,-2.8246007,2.8853027835848057,nan,nan,nan,nan,nan,13.342253684997559,14.542253684997558,0.006725311279296875,0.04794057487994005,0.5980816844547079,4.5685837343427425,-5.0,0.7270936226422439,0.012038482930626353,0.028227530654316,0.19484645883963123,nan,nan,nan,nan
23.43875217437744,-0.04798816,0.35059196,-2.8317404,2.902438925138152,nan,nan,nan,nan,nan,13.435280799865723,14.635280799865722,0.0067234039306640625,-0.005962625298511966,0.5999703718514353,4.597809064408191,-5.0,0.7269305991122518,0.004702038224804248,0.032362602609623856,0.19512865592207024,nan,nan,nan,nan
23.53797197341919,-0.09181916,0.34595382,-2.8386645,2.9257768126319226,nan,nan,nan,nan,nan,13.534572124481201,14.7345721244812,0.005785465240478516,-0.06343157884348943,0.5966376076023219,4.629002354005909,-5.0,0.7268290126011069,-0.010081427846664182,0.039600024110477576,0.19222496253368482,nan,nan,nan,nan
23.639378309249878,-0.12332962,0.3379928,-2.838061,2.9412516446570702,nan,nan,nan,nan,nan,13.636037826538086,14.836037826538085,0.005791425704956055,-0.12155187374024878,0.5875586285556825,4.660878744423233,-5.0,0.7268956937640241,-0.007435018364730143,0.043130109595781715,0.19426817058246937,nan,nan,nan,nan
23.751445293426514,-0.16913399,0.32155877,-2.8344688,2.9627601086265627,nan,nan,nan,nan,nan,13.74793529510498,14.94793529510498,0.005514860153198242,-0.18427093732923255,0.5710028210576599,4.696032370943738,-5.0,0.7273688620989324,-0.017715374679733168,0.04719647786682417,0.19326405760079285,nan,nan,nan,nan
23.845592498779297,-0.214003,0.300944,-2.8347275,2.984264198436831,nan,nan,nan,nan,nan,13.842108249664307,15.042108249664306,0.007097959518432617,-0.23541556235527916,0.5518872285176997,4.725617677164781,-5.0,0.7275937202110151,-0.02736482487667007,0.05112064153932437,0.191949901381312,nan,nan,nan,nan
23.9415762424469,-0.23934336,0.2853314,-2.8387058,2.999784122459694,nan,nan,nan,nan,nan,13.938072443008423,15.138072443008422,0.006334781646728516,-0.28552484739471745,0.5277078372738302,4.755765717646535,-5.0,0.7275625682765636,-0.023522953341395564,0.04829555236159358,0.19368437213758016,nan,nan,nan,nan
24.03412175178528,-0.27378333,0.26021093,-2.8421047,3.019897049234213,nan,nan,nan,nan,nan,14.030616760253906,15.230616760253906,0.0058476924896240234,-0.33152756676114237,0.5000894644735443,4.784839372365525,-5.0,0.7275375474224344,-0.02781503978876427,0.039977285625918714,0.19094201908016295,nan,nan,nan,nan
24.149924516677856,-0.30999863,0.22489813,-2.8411474,3.0416078399693767,nan,nan,nan,nan,nan,14.146421670913696,15.346421670913696,0.0053861141204833984,-0.38531676917755436,0.4599249801767363,4.8212205580233665,-5.0,0.727711845014109,-0.03301504239876491,0.034208078595742354,0.19003251934166737,nan,nan,nan,nan
24.24707341194153,-0.33230564,0.19632837,-2.8392751,3.057078853131354,nan,nan,nan,nan,nan,14.243641138076782,15.443641138076782,0.0063321590423583984,-0.42677513458206523,0.42173805199727965,4.851762954405912,-5.0,0.727923950384117,-0.029059300819308995,0.03572836868763905,0.19358318503942473,nan,nan,nan,nan
24.34551453590393,-0.3571069,0.14926669,-2.8381708,3.080281452509464,nan,nan,nan,nan,nan,14.342059135437012,15.542059135437011,0.0063610076904296875,-0.4649069049896405,0.3792908774185762,4.8826818801547045,-5.0,0.7281157504432498,-0.04158037740088399,0.023317144172837343,0.19062512995871556,nan,nan,nan,nan
24.44284701347351,-0.36861226,0.11539921,-2.8389993,3.0957153761624996,nan,nan,nan,nan,nan,14.439431428909302,15.639431428909301,0.006671428680419922,-0.49849683919238963,0.33391750675158793,4.913272288338278,-5.0,0.7281533067818869,-0.04124492955237319,0.017646407644096654,0.19216360693115841,nan,nan,nan,nan
24.540284633636475,-0.3770631,0.076071225,-2.8440442,3.1171005482242355,nan,nan,nan,nan,nan,14.53681468963623,15.73681468963623,0.006509304046630859,-0.5276766826471119,0.28558241996057665,4.943866141986512,-5.0,0.728037245890931,-0.03945112639581233,0.0028875463473999915,0.19006420427633017,nan,nan,nan,nan
24.641661167144775,-0.3794699,0.049550496,-2.8422563,3.13225654258399,nan,nan,nan,nan,nan,14.638201475143433,15.838201475143432,0.006691455841064453,-0.5530882508381867,0.23257985034124307,4.975717740038563,-5.0,0.7279441721848122,-0.026238107748765865,-0.00021704708468955067,0.1920968881223206,nan,nan,nan,nan
24.738500356674194,-0.38147557,0.011735002,-2.8331478,3.1548369689994096,nan,nan,nan,nan,nan,14.735191345214844,15.935191345214843,0.005456686019897461,-0.57243274072469,0.17977974676369926,5.00618800636746,-5.0,0.728387536655972,-0.017528289727247497,-0.011944043180440454,0.18933057770475456,nan,nan,nan,nan
24.838974237442017,-0.3845391,-0.011061085,-2.827242,3.1699738650191556,nan,nan,nan,nan,nan,14.835586309432983,16.035586309432983,0.006467342376708984,-0.5871588456823453,0.12346857874364528,5.0377280145719725,-5.0,0.7286615336265461,-0.006109898019241307,-0.005502942970525007,0.19163273568013928,nan,nan,nan,nan
24.940218687057495,-0.37999284,-0.045302898,-2.8139267,3.1928987483770204,nan,nan,nan,nan,nan,14.936853170394897,16.136853170394897,0.006670951843261719,-0.5964148603207928,0.06549285753827815,5.069541937216977,-5.0,0.7291644215970009,-0.002339061566658647,-0.008140634368185108,0.18839931666344686,nan,nan,nan,nan
25.04431962966919,-0.37419033,-0.06705439,-2.8065875,3.20828247066677,nan,nan,nan,nan,nan,15.040869951248169,16.24086995124817,0.0076639652252197266,-0.5999766332854974,0.005295234782305714,5.102219772674847,-5.0,0.7294847478585622,0.0035413418899899935,-0.0015423589975026564,0.19152834312263134,nan,nan,nan,nan
25.148600339889526,-0.36153483,-0.1021268,-2.795157,3.23288133136575,nan,nan,nan,nan,nan,15.145192861557007,16.345192861557006,0.005811452865600586,-0.597461620327151,-0.0551326784770634,5.134993781537582,-5.0,0.7297941175067157,-0.0021943258971473135,-0.007839289074837046,0.1877638741245437,nan,nan,nan,nan
25.24984383583069,-0.35027358,-0.123193875,-2.79019,3.2481528101167108,nan,nan,nan,nan,nan,15.246438980102539,16.44643898010254,0.007389545440673828,-0.5892153939743812,-0.11324848565704848,5.166801187760295,-5.0,0.7299863459157019,-0.003993366929979134,-0.002983958838276774,0.18946027199541943,nan,nan,nan,nan
25.338117122650146,-0.33508682,-0.14233486,-2.7893891,3.2633604836826566,nan,nan,nan,nan,nan,15.334700345993042,16.53470034599304,0.007481098175048828,-0.5774218935254861,-0.16304587353699604,5.194529313628035,-5.0,0.7298701369261977,-0.009373739975200617,-0.009529165069819644,0.1876751223159619,nan,nan,nan,nan
25.436564683914185,-0.31861097,-0.16657369,-2.7933044,3.282907240876523,nan,nan,nan,nan,nan,15.43323802947998,16.63323802947998,0.00838017463684082,-0.5592976934168032,-0.21722359480186193,5.2254858398824675,-5.0,0.7296889042579595,-0.01140494605810181,-0.004650957572216097,0.18900575706509123,nan,nan,nan,nan
25.536679983139038,-0.3019652,-0.19074658,-2.7940495,3.3008298942111187,nan,nan,nan,nan,nan,15.53324270248413,16.73324270248413,0.009772062301635742,-0.5357203661459404,-0.2701919489852714,5.256903234485916,-5.0,0.729388965043135,-0.01597301494674239,0.0026950783870258992,0.19026800311962475,nan,nan,nan,nan
25.64110827445984,-0.27869526,-0.21910709,-2.7910838,3.3202595377209434,nan,nan,nan,nan,nan,15.637705087661743,16.837705087661742,0.007378101348876953,-0.5057543582422528,-0.3228196541708187,5.289721060670962,-5.0,0.729309472307628,-0.02527697638253094,0.0037855197713885704,0.18914406169209116,nan,nan,nan,nan
25.739221811294556,-0.2511125,-0.24683356,-2.7863393,3.3381827042313765,nan,nan,nan,nan,nan,15.736109972000122,16.93610997200012,0.012844085693359375,-0.4728068589120807,-0.36939636458104425,5.320635866842442,-5.0,0.7293636020406502,-0.03505069326093243,0.0010372791912729973,0.18944246325853964,nan,nan,nan,nan
25.853083610534668,-0.22430846,-0.2780882,-2.7806911,3.3590364577929313,nan,nan,nan,nan,nan,15.849807500839233,17.049807500839233,0.013283491134643555,-0.42943735562935526,-0.4190269175006143,5.356354998975668,-5.0,0.7294968099035279,-0.046095535890446515,-0.00488746104926842,0.18749859185804482,nan,nan,nan,nan
25.93251657485962,-0.20224495,-0.3002392,-2.7834618,3.373890762070033,nan,nan,nan,nan,nan,15.929254293441772,17.12925429344177,0.012660741806030273,-0.396023336368907,-0.4507388568242586,5.381313944974809,-5.0,0.7295648937566852,-0.04977892728873788,0.005329413560974297,0.19176329786790497,nan,nan,nan,nan
26.04784107208252,-0.16574334,-0.33031145,-2.7804272,3.3948151906612587,nan,nan,nan,nan,nan,16.044650554656982,17.24465055465698,0.013810157775878906,-0.3433876737936299,-0.4920212449545239,5.417566749623353,-5.0,0.7292832545569611,-0.05627581367687054,-0.006059131249300414,0.18710581504141247,nan,nan,nan,nan
26.123893976211548,-0.13721223,-0.34997466,-2.775166,3.4098114438818303,nan,nan,nan,nan,nan,16.120800971984863,17.320800971984863,0.013344764709472656,-0.30627262356493984,-0.5159429038708145,5.4414901087878595,-5.0,0.7293962677720146,-0.06126294242109225,0.0003186478506303295,0.19133942263843612,nan,nan,nan,nan
26.23914623260498,-0.0903942,-0.37681296,-2.7692873,3.4367858517276098,nan,nan,nan,nan,nan,16.23602819442749,17.43602819442749,0.014782190322875977,-0.2470258562335268,-0.5467890144764185,5.4776898083397905,-5.0,0.7296253695036514,-0.05100573990226565,-0.019572795664974732,0.18547044103455923,nan,nan,nan,nan
26.32191562652588,-0.0742412,-0.38485602,-2.766231,3.4473096805453585,nan,nan,nan,nan,nan,16.31887912750244,17.51887912750244,0.01380777359008789,-0.2024899846604812,-0.5647989076761729,5.503718196608923,-5.0,0.7297028006850095,-0.046052527271879175,-0.015830675135459656,0.18708331071905726,nan,nan,nan,nan
26.44614005088806,-0.02656266,-0.4048905,-2.7618277,3.477347310994653,nan,nan,nan,nan,nan,16.443092107772827,17.643092107772826,0.014283418655395508,-0.1333796972255226,-0.5849870565816203,5.542740855238717,-5.0,0.7297888306039437,-0.02802132722592871,-0.015484884817902625,0.18465176481669923,nan,nan,nan,nan
26.533071756362915,-0.004035766,-0.41006005,-2.757522,3.492374055765584,nan,nan,nan,nan,nan,16.529829502105713,17.729829502105712,0.014842033386230469,-0.08392084292933656,-0.5941020889729556,5.569990211321488,-5.0,0.7297437793174453,-0.021927931426778034,-0.013286851454547024,0.18491177291063904,nan,nan,nan,nan
26.619422674179077,0.009872501,-0.4118079,-2.7549264,3.501400633998715,nan,nan,nan,nan,nan,16.616201639175415,17.816201639175414,0.013315200805664062,-0.03408388787385209,-0.5990311248903538,5.597124818450792,-5.0,0.7297925518661388,-0.014629977246316863,-0.011113796210405043,0.18551479067512777,nan,nan,nan,nan
26.73616051673889,0.05558095,-0.41230747,-2.752491,3.5298870111169753,nan,nan,nan,nan,nan,16.732967138290405,17.932967138290405,0.014153003692626953,0.03360255769867471,-0.5990583177922724,5.633807781872031,-5.0,0.7297838427778688,-0.0022700386060334433,-0.015359275564183735,0.18393049532429886,nan,nan,nan,nan
26.819221258163452,0.06887684,-0.41255432,-2.7533545,3.538849905337054,nan,nan,nan,nan,nan,16.815956592559814,18.015956592559814,0.014449357986450195,0.08150017012501887,-0.59443899793805,5.659879687857852,-5.0,0.729703387417914,-0.0013801322542536408,-0.015486500078631652,0.18479070216994775,nan,nan,nan,nan
26.935497283935547,0.10064173,-0.4094902,-2.7554433,3.559649445917977,nan,nan,nan,nan,nan,16.93225336074829,18.13225336074829,0.013573646545410156,0.1476704424009898,-0.581544014190754,5.696415395115567,-5.0,0.7294578855964794,-0.003022078264793129,-0.01584680505953594,0.18507438129687112,nan,nan,nan,nan
27.042721033096313,0.14082657,-0.39386085,-2.7602732,3.584837452488909,nan,nan,nan,nan,nan,17.039592742919922,18.23959274291992,0.011262178421020508,0.20710844049229982,-0.5631217398368202,5.730137056562693,-5.0,0.7291842173337648,-6.0320286014587934e-05,-0.023333192215372205,0.18232223691573474,nan,nan,nan,nan
27.149893760681152,0.16455586,-0.3783875,-2.7626433,3.599718321479698,nan,nan,nan,nan,nan,17.146721839904785,18.346721839904784,0.00811767578125,0.2642092293019182,-0.5386960953558939,5.763792654970028,-5.0,0.7290287759583346,-0.009727249901118343,-0.02118963107927455,0.18821364260001747,nan,nan,nan,nan
27.241151809692383,0.19009149,-0.35795933,-2.7631128,3.616134582798601,nan,nan,nan,nan,nan,17.237706184387207,18.437706184387206,0.007005214691162109,0.3105050201974126,-0.5134068877919388,5.7923762297917945,-5.0,0.7288044093322669,0.008743751258585933,-0.03835137063478972,0.18250700796365898,nan,nan,nan,nan
27.338553428649902,0.21550754,-0.33535987,-2.7630312,3.634126930648243,nan,nan,nan,nan,nan,17.335046768188477,18.535046768188476,0.005941152572631836,0.35736857865853794,-0.48196234187701464,5.822956676088415,-5.0,0.7287898441837254,0.006382305260915586,-0.03925635563224612,0.18475592245258474,nan,nan,nan,nan
27.439961671829224,0.24454299,-0.3009388,-2.771578,3.656582919279014,nan,nan,nan,nan,nan,17.436534643173218,18.636534643173217,0.005999565124511719,0.4028562481786547,-0.4446423768641695,5.854840032336465,-5.0,0.7285907218829428,0.010420942918912305,-0.04150621786416182,0.18265330605157049,nan,nan,nan,nan
27.543904304504395,0.264151,-0.270142,-2.7795236,3.673038632468213,nan,nan,nan,nan,nan,17.540502309799194,18.740502309799194,0.0070002079010009766,0.44543474165090413,-0.4019799633444337,5.88750243810477,-5.0,0.7281769874070325,0.009868328067399375,-0.04187576339606779,0.18288543782269542,nan,nan,nan,nan
27.631999969482422,0.28850037,-0.22820877,-2.78937,3.6938540361773535,nan,nan,nan,nan,nan,17.62857222557068,18.828572225570678,0.010529279708862305,0.4780017078380047,-0.36264909665398415,5.9151704181437665,-5.0,0.7279043558956493,0.013284024076976906,-0.04349739477438414,0.1827763605122672,nan,nan,nan,nan
27.73826575279236,0.3046451,-0.2022471,-2.7970233,3.7070901374653475,nan,nan,nan,nan,nan,17.73482060432434,18.93482060432434,0.007112026214599609,0.5126630924252893,-0.3117315410171695,5.948549330758599,-5.0,0.7274934241622569,0.013245836165911695,-0.0454396232948306,0.18235069191141232,nan,nan,nan,nan
27.851783990859985,0.32785735,-0.14828952,-2.8114727,3.731863830638696,nan,nan,nan,nan,nan,17.8483624458313,19.048362445831298,0.006064891815185547,0.5437237054658829,-0.2537016596604165,5.984219552273931,-5.0,0.7270707414850255,0.014686039147268876,-0.04454974749692357,0.1804949742088747,nan,nan,nan,nan
27.937296152114868,0.34402126,-0.116534114,-2.815526,3.7477395561150786,nan,nan,nan,nan,nan,17.933783292770386,19.133783292770385,0.005644083023071289,0.5627959282999091,-0.2079921707397748,6.011055302794657,-5.0,0.7269349668807831,0.012138513097785098,-0.04319758351018509,0.180046094663141,nan,nan,nan,nan
28.03563356399536,0.35560134,-0.089757524,-2.8185697,3.7606915764241835,nan,nan,nan,nan,nan,18.032289028167725,19.232289028167724,0.005875825881958008,0.5800215577026088,-0.15354150123090252,6.042001792260731,-5.0,0.7269948300665475,0.005345287489931401,-0.04216829609327706,0.18114353427016358,nan,nan,nan,nan
28.143598318099976,0.3753896,-0.034593884,-2.8268301,3.786510999491588,nan,nan,nan,nan,nan,18.14062237739563,19.34062237739563,0.006638526916503906,0.5928935975069561,-0.09207161362363273,6.076035717668047,-5.0,0.7268573075929505,0.005213248695540918,-0.04015152225661737,0.1802179908451863,nan,nan,nan,nan
28.245250940322876,0.38700873,0.0012807557,-2.830323,3.8038384728889847,nan,nan,nan,nan,nan,18.242218494415283,19.442218494415282,0.011838912963867188,0.5990643378149022,-0.033495061701581307,6.1079530791542656,-5.0,0.726841355484232,0.0027939898542577095,-0.038596532080009446,0.17959809161139614,nan,nan,nan,nan
28.34459137916565,0.3968439,0.034169674,-2.8329413,3.819770316446533,nan,nan,nan,nan,nan,18.34110951423645,19.54110951423645,0.007015228271484375,0.5995263235242039,0.02383668184860507,6.139020609291884,-5.0,0.7269024436005302,0.00036389215599490524,-0.03720421506641794,0.17998613949327535,nan,nan,nan,nan
28.438133716583252,0.4031718,0.073714234,-2.8278909,3.8371632686307846,nan,nan,nan,nan,nan,18.434629678726196,19.634629678726196,0.0060040950775146484,0.5949263223567207,0.07786315538884346,6.168400835464234,-5.0,0.7271459402436549,0.004192246861068231,-0.03531919761902646,0.17934800648656685,nan,nan,nan,nan
28.549104928970337,0.403053,0.10738608,-2.8218315,3.8517534203599064,nan,nan,nan,nan,nan,18.54568362236023,19.74568362236023,0.006478786468505859,0.5831591302285382,0.14115746112442953,6.2032894608115186,-5.0,0.7276081547204317,0.005349759179688553,-0.03867930338750463,0.18184015981068985,nan,nan,nan,nan
28.63524603843689,0.39629933,0.15598947,-2.8142602,3.8737077794572556,nan,nan,nan,nan,nan,18.63180422782898,19.83180422782898,0.006311178207397461,0.5694020836344306,0.1891593697197388,6.230345046957852,-5.0,0.7281400179329881,0.025172492453728327,-0.02578395261873197,0.1783889753094614,nan,nan,nan,nan
28.751315593719482,0.39313897,0.18691924,-2.81286,3.88974424160829,nan,nan,nan,nan,nan,18.748278856277466,19.948278856277465,0.00998377799987793,0.5445445226208726,0.2519350370305923,6.266936630664189,-5.0,0.7282866546156314,0.02211146675102863,-0.027139869330861235,0.1810184740267341,nan,nan,nan,nan
28.85170602798462,0.38656503,0.22435346,-2.811107,3.9072304111028306,nan,nan,nan,nan,nan,18.848217487335205,20.048217487335204,0.006661653518676758,0.51770514395476,0.3032843285149783,6.29833327757827,-5.0,0.7284186480647413,0.023507154054093562,-0.025530690238664284,0.18117269521887572,nan,nan,nan,nan
28.954108715057373,0.3592059,0.27218777,-2.8109968,3.9318761790171384,nan,nan,nan,nan,nan,18.95064353942871,20.15064353942871,0.00856924057006836,0.48519071535522024,0.3529730439184976,6.330511370857586,-5.0,0.7284983101062811,0.03467737167616151,-0.01583759807647699,0.17895998478196803,nan,nan,nan,nan
29.034531831741333,0.34573403,0.28675973,-2.8096788,3.9405529184084793,nan,nan,nan,nan,nan,19.031078577041626,20.231078577041625,0.007105588912963867,0.45630814315205126,0.3895932218264674,6.355780783183182,-5.0,0.7285073715497946,0.036692839819741016,-0.014223491439966521,0.18116941972461667,nan,nan,nan,nan
29.14234948158264,0.3006235,0.3182163,-2.8026013,3.96357173792192,nan,nan,nan,nan,nan,19.138899326324463,20.338899326324462,0.007027387619018555,0.41330042180581156,0.43495144710086686,6.3896536705683324,-5.0,0.7287789097544329,0.04773644486829443,0.012432833638816018,0.17813696277636024,nan,nan,nan,nan
