time,x,y,z,yaw,platform,trajectory,traj_double,traj_short,traj_spin,traj_time,ref_time,comptime,x_ref,y_ref,yaw_ref,z_ref,throttle_input,p_input,q_input,r_input,cbf_term_pitch_cbf,cbf_term_roll_cbf,cbf_term_thrust_cbf,cbf_term_yaw_cbf
10.038585901260376,-0.008963893,0.0055482546,-2.796028,1.8110590982024603e-06,SIM,TRIANGLE,NormSpd,Not Short,NoSpin,0.03763556480407715,1.237635564804077,0.005527973175048828,nan,nan,nan,nan,0.7163137966385072,0.04797434274982357,-0.08229716079840564,0.00036483567138509865,nan,nan,nan,nan
10.138380765914917,-0.018403653,-0.0013801818,-2.8024404,-0.0001121296758149681,nan,nan,nan,nan,nan,0.13753247261047363,1.3375324726104736,0.005209445953369141,nan,nan,nan,nan,0.7168181644335041,0.0633070537447036,-0.06220830186392366,0.00015393921288926968,nan,nan,nan,nan
10.237698078155518,-0.027858116,-0.006658832,-2.8070161,-0.00021795817030861257,nan,nan,nan,nan,nan,0.23672723770141602,1.436727237701416,0.007300138473510742,nan,nan,nan,nan,0.7172393040774945,0.05821503881061228,-0.061863702084727495,0.00019214128589003024,nan,nan,nan,nan
10.344580888748169,-0.03332663,-0.015806718,-2.8147979,-0.00039967221866115017,nan,nan,nan,nan,nan,0.343595027923584,1.543595027923584,0.007016897201538086,nan,nan,nan,nan,0.7184255342806116,0.03187898221552406,-0.037300989028542716,0.00023838172927603794,nan,nan,nan,nan
10.43881607055664,-0.032542504,-0.021842485,-2.8150814,-0.00042302563345137344,nan,nan,nan,nan,nan,0.4378676414489746,1.6378676414489746,0.005158662796020508,nan,nan,nan,nan,0.7191910694174095,0.014225010137223909,-0.017367158106201725,0.0002441135811001357,nan,nan,nan,nan
10.531441450119019,-0.030357894,-0.02580326,-2.8136275,-0.0003597089465507356,nan,nan,nan,nan,nan,0.5305743217468262,1.7305743217468261,0.0059435367584228516,nan,nan,nan,nan,0.7200254945261603,-4.564555564787662e-05,-0.00040687556846161264,0.0001735891052271827,nan,nan,nan,nan
10.647638320922852,-0.026636513,-0.029281264,-2.8106432,-0.00023002449961003965,nan,nan,nan,nan,nan,0.646643877029419,1.846643877029419,0.006328105926513672,nan,nan,nan,nan,0.7210591460545358,-0.015719635839146016,0.01732368192929633,6.336982049616439e-05,nan,nan,nan,nan
10.742358446121216,-0.01769818,-0.02726757,-2.794653,1.189096742648145e-05,nan,nan,nan,nan,nan,0.7414770126342773,1.9414770126342773,0.005864858627319336,nan,nan,nan,nan,0.7223832970500694,-0.026710398412948796,0.03085271777826652,-0.00010702179995481062,nan,nan,nan,nan
10.845810174942017,-0.002901778,-0.020835651,-2.7784302,0.0002888255379415519,nan,nan,nan,nan,nan,0.8448803424835205,2.0448803424835207,0.007754802703857422,nan,nan,nan,nan,0.7234884721841859,-0.034709918823240794,0.03966784688296638,-0.00023959423644476495,nan,nan,nan,nan
10.94075345993042,0.016057512,-0.0064446544,-2.7582138,0.0007031055605995372,nan,nan,nan,nan,nan,0.9398953914642334,2.1398953914642336,0.0051727294921875,nan,nan,nan,nan,0.7247869583797788,-0.04292357080318639,0.049679753185516234,-0.00045325909469189047,nan,nan,nan,nan
11.033885478973389,0.028257374,0.005182515,-2.745018,0.0009192986655218198,nan,nan,nan,nan,nan,1.0329184532165527,2.232918453216553,0.005651950836181641,nan,nan,nan,nan,0.7256963189473274,-0.050844893067610704,0.051225044765423194,-0.0006096944313466324,nan,nan,nan,nan
11.13235092163086,0.049079373,0.019597711,-2.7216644,0.0011243536289224677,nan,nan,nan,nan,nan,1.1313669681549072,2.3313669681549074,0.005945444107055664,nan,nan,nan,nan,0.7268658110490359,-0.04922890954365062,0.048125996115919965,-0.000734501413272662,nan,nan,nan,nan
11.250587463378906,0.065796405,0.036453534,-2.703038,0.0011945254790363857,nan,nan,nan,nan,nan,1.2496337890625,2.4496337890625,0.0062103271484375,nan,nan,nan,nan,0.7277091159551302,-0.041073705628009945,0.036072299622676274,-0.0007574288565464709,nan,nan,nan,nan
11.34944772720337,0.07013562,0.04517732,-2.6897843,0.0012024341534815825,nan,nan,nan,nan,nan,1.3484573364257812,2.5484573364257814,0.006384134292602539,nan,nan,nan,nan,0.7281112283396322,-0.03414015541038242,0.024657745325034487,-0.000789191114434675,nan,nan,nan,nan
11.443939924240112,0.073968664,0.05278879,-2.6786048,0.0011492422580223478,nan,nan,nan,nan,nan,1.4431099891662598,2.64310998916626,0.006262779235839844,nan,nan,nan,nan,0.7285074110730562,-0.022334326723401604,0.007434416010474625,-0.0007482810218073556,nan,nan,nan,nan
11.539089918136597,0.07751142,0.063758925,-2.665214,0.0011565174988156955,nan,nan,nan,nan,nan,1.538130760192871,2.7381307601928713,0.0052258968353271484,nan,nan,nan,nan,0.728916788643402,-0.010890011204509739,-0.007731109615521983,-0.0007421269158351362,nan,nan,nan,nan
11.640037775039673,0.07545713,0.07479028,-2.6572132,0.0012952744230580555,nan,nan,nan,nan,nan,1.6392309665679932,2.8392309665679933,0.005151271820068359,nan,nan,nan,nan,0.7290799069650753,-0.007409817034358646,-0.021021913778791593,-0.0008052826738805969,nan,nan,nan,nan
11.733009576797485,0.07035105,0.07764687,-2.6477213,0.0014154291481750705,nan,nan,nan,nan,nan,1.7320401668548584,2.9320401668548586,0.005621194839477539,nan,nan,nan,nan,0.7292468116401092,0.0003874851106313243,-0.031367183132084996,-0.0008933831712230233,nan,nan,nan,nan
11.849112749099731,0.061647683,0.07609762,-2.6357038,0.0014032336113563486,nan,nan,nan,nan,nan,1.8481683731079102,3.0481683731079103,0.006124734878540039,nan,nan,nan,nan,0.7293995912766283,0.010095567071107259,-0.0381547157488572,-0.0009265518219449151,nan,nan,nan,nan
11.950870513916016,0.05699482,0.0725205,-2.6289926,0.0012833549914416723,nan,nan,nan,nan,nan,1.9498865604400635,3.1498865604400637,0.00547480583190918,nan,nan,nan,nan,0.7294856635795337,0.016746885883743456,-0.04071590241603177,-0.0009025104057553486,nan,nan,nan,nan
12.033344030380249,0.054725032,0.067679614,-2.6236567,0.0011323865005595929,nan,nan,nan,nan,nan,2.0323739051818848,3.232373905181885,0.006201505661010742,nan,nan,nan,nan,0.7295524763657276,0.02378632801830839,-0.03725432162607535,-0.0008032922892197132,nan,nan,nan,nan
12.147236108779907,0.044519078,0.06405249,-2.6119883,0.000944347130816032,nan,nan,nan,nan,nan,2.1462628841400146,3.346262884140015,0.007214784622192383,nan,nan,nan,nan,0.7296815707922402,0.02672994449362671,-0.03178866147381386,-0.0006512914137669502,nan,nan,nan,nan
12.24234914779663,0.040514827,0.058729492,-2.5964177,0.0008154276668931241,nan,nan,nan,nan,nan,2.241781234741211,3.441781234741211,0.006140947341918945,nan,nan,nan,nan,0.7299700422690563,0.02454813712344014,-0.02289871396725769,-0.0005364569421815437,nan,nan,nan,nan
12.337940216064453,0.040253032,0.05249191,-2.585113,0.0007426030657691491,nan,nan,nan,nan,nan,2.3369522094726562,3.5369522094726564,0.005163908004760742,nan,nan,nan,nan,0.730175523191857,0.022218890192916334,-0.014834092840197795,-0.0005128366121757428,nan,nan,nan,nan
12.432862997055054,0.04432329,0.04335024,-2.5742435,0.0006457805237469789,nan,nan,nan,nan,nan,2.432055711746216,3.632055711746216,0.005963325500488281,nan,nan,nan,nan,0.7304425462882124,0.02179291671253934,-8.69486494293433e-05,-0.0004195592903765457,nan,nan,nan,nan
12.546863794326782,0.055200856,0.034522917,-2.5704606,0.0006663853201202992,nan,nan,nan,nan,nan,2.545884370803833,3.745884370803833,0.00764155387878418,nan,nan,nan,nan,0.7302374927070318,0.01623910722941703,0.017307542050597865,-0.00041288368845513503,nan,nan,nan,nan
12.644057035446167,0.06696978,0.025178477,-2.5681803,0.0006999241283698263,nan,nan,nan,nan,nan,2.6431515216827393,3.8431515216827394,0.005223274230957031,nan,nan,nan,nan,0.7301183500164801,0.015563677436412826,0.026878537727561446,-0.0004977461335030495,nan,nan,nan,nan
12.737242221832275,0.084917665,0.014631684,-2.5584452,0.000597664258275048,nan,nan,nan,nan,nan,2.7362658977508545,3.9362658977508547,0.005112409591674805,nan,nan,nan,nan,0.7301113591393615,0.013924745189402558,0.038009557026399896,-0.0004732008552461788,nan,nan,nan,nan
12.833618879318237,0.097591326,0.00949113,-2.5489333,0.0004066685715646166,nan,nan,nan,nan,nan,2.83266544342041,4.03266544342041,0.005976200103759766,nan,nan,nan,nan,0.7301720064794774,0.011013935628429066,0.04211446149838141,-0.0003979384200588167,nan,nan,nan,nan
12.94631290435791,0.111291304,0.0064275246,-2.5354338,8.487353890152503e-05,nan,nan,nan,nan,nan,2.9453623294830322,4.145362329483032,0.007437229156494141,nan,nan,nan,nan,0.7304886140911013,0.0011136666142955523,0.03931061219616822,-0.00016066689424391238,nan,nan,nan,nan
13.049379587173462,0.1187017,0.006347721,-2.5221019,-0.00029771219587171414,nan,nan,nan,nan,nan,3.048400640487671,4.248400640487671,0.010554790496826172,nan,nan,nan,nan,0.7305366525516188,-0.011633010308252645,0.023448106035623063,0.00013580636043488288,nan,nan,nan,nan
13.150950908660889,0.124240525,0.0044217524,-2.5117755,-0.0006300495739916222,nan,nan,nan,nan,nan,3.1500298976898193,4.3500298976898195,0.006000995635986328,nan,nan,nan,nan,0.7307234690155499,-0.015690000039882274,0.01204187084466124,0.0003161676460380594,nan,nan,nan,nan
13.249468088150024,0.12555833,0.006303286,-2.4985595,-0.0008766026877109518,nan,nan,nan,nan,nan,3.248492956161499,4.448492956161499,0.006127357482910156,nan,nan,nan,nan,0.7308946060009194,-0.018372360438023073,0.0030181445777390454,0.0004964959229173332,nan,nan,nan,nan
13.344240427017212,0.12725627,0.005796882,-2.4880626,-0.0011319179215563409,nan,nan,nan,nan,nan,3.34340763092041,4.54340763092041,0.005356311798095703,nan,nan,nan,nan,0.7310597069584579,-0.019718524334188768,-0.007362058290300157,0.0006897508108363627,nan,nan,nan,nan
13.442055225372314,0.1292551,0.0016000499,-2.476803,-0.0014803381205860625,nan,nan,nan,nan,nan,3.4412789344787598,4.64127893447876,0.005413532257080078,nan,nan,nan,nan,0.7310431100443062,-0.012853839584304944,-0.012579973578681106,0.0009049721888901845,nan,nan,nan,nan
13.537855863571167,0.13003913,-0.0013500648,-2.4709127,-0.001628951866944727,nan,nan,nan,nan,nan,3.5368807315826416,4.736880731582642,0.00538325309753418,nan,nan,nan,nan,0.7310580131943487,-0.008744699212931898,-0.015760469724961704,0.0010139448427844047,nan,nan,nan,nan
13.632308959960938,0.12596981,-0.007019723,-2.4686196,-0.0018463313833160901,nan,nan,nan,nan,nan,3.631404399871826,4.831404399871826,0.0070018768310546875,nan,nan,nan,nan,0.7308272311307009,-0.0019291606659852445,-0.019458480188843046,0.0011509996718409776,nan,nan,nan,nan
13.735846519470215,0.1245283,-0.012021056,-2.4713314,-0.0018698430683937847,nan,nan,nan,nan,nan,3.734869956970215,4.934869956970215,0.005896568298339844,nan,nan,nan,nan,0.730531845402117,0.0009454615547137961,-0.02106455286839843,0.0012062390461115087,nan,nan,nan,nan
13.833440780639648,0.124346904,-0.017249854,-2.474888,-0.0018782692603449471,nan,nan,nan,nan,nan,3.832463264465332,5.032463264465332,0.006229877471923828,nan,nan,nan,nan,0.7299633619270449,0.004600849583034061,-0.01950069130015267,0.001218967996061079,nan,nan,nan,nan
13.949448585510254,0.12719022,-0.023031382,-2.4779668,-0.0017324098546658735,nan,nan,nan,nan,nan,3.948474645614624,5.148474645614624,0.008484601974487305,nan,nan,nan,nan,0.7294644810773648,0.005010254410727971,-0.014075704505456177,0.0011417957808554369,nan,nan,nan,nan
14.047793626785278,0.13348518,-0.029380638,-2.4799283,-0.0016235197029128108,nan,nan,nan,nan,nan,4.046824932098389,5.246824932098389,0.007563591003417969,nan,nan,nan,nan,0.729235699452923,0.006441816681136679,-0.004655970513093568,0.001074637386253135,nan,nan,nan,nan
14.132550477981567,0.13637431,-0.03531922,-2.4782438,-0.0014817360915933757,nan,nan,nan,nan,nan,4.131587743759155,5.3315877437591555,0.0073354244232177734,nan,nan,nan,nan,0.729110932570778,0.00770060733405414,0.0018578106489627693,0.0009749613623432716,nan,nan,nan,nan
14.246726274490356,0.13575768,-0.03891993,-2.4702492,-0.0013925938345983927,nan,nan,nan,nan,nan,4.245805501937866,5.445805501937866,0.006982326507568359,nan,nan,nan,nan,0.7292002354152306,0.00565147244020715,0.0028901839935139254,0.0008975672580493962,nan,nan,nan,nan
14.343081951141357,0.13214695,-0.042631038,-2.466152,-0.0012566801090963487,nan,nan,nan,nan,nan,4.342632293701172,5.542632293701172,0.005530834197998047,nan,nan,nan,nan,0.7293031166552915,0.002550225218898785,0.0014471165535105733,0.0008506061519320297,nan,nan,nan,nan
14.44123125076294,0.123248376,-0.050549384,-2.4634652,-0.0009456880751737718,nan,nan,nan,nan,nan,4.440242767333984,5.6402427673339846,0.00516200065612793,nan,nan,nan,nan,0.7292999698997743,0.002717708099680279,-0.008742111034179515,0.0006339194961628627,nan,nan,nan,nan
14.538719177246094,0.11579062,-0.05759639,-2.4629185,-0.0006774017027135247,nan,nan,nan,nan,nan,4.537769317626953,5.737769317626953,0.005446195602416992,nan,nan,nan,nan,0.7292902639814663,0.0045090882034880715,-0.015812899048645183,0.0004987692606824609,nan,nan,nan,nan
14.641755104064941,0.112501174,-0.06918447,-2.467536,-0.00020393546468061617,nan,nan,nan,nan,nan,4.640810251235962,5.840810251235962,0.005026817321777344,nan,nan,nan,nan,0.7290407107294586,0.008473384309227465,-0.016868561615411712,0.00019088012902022388,nan,nan,nan,nan
14.737821578979492,0.1134261,-0.07842191,-2.467576,1.2949296862007145e-05,nan,nan,nan,nan,nan,4.73689866065979,5.93689866065979,0.00532221794128418,nan,nan,nan,nan,0.7288413485803723,0.008946332975133777,-0.0134850031560415,1.0380936207296495e-05,nan,nan,nan,nan
14.83220386505127,0.11535377,-0.08906331,-2.46745,0.00013738654502930313,nan,nan,nan,nan,nan,4.8312461376190186,6.031246137619019,0.0077970027923583984,nan,nan,nan,nan,0.7287482765124866,0.010638402149529337,-0.00557511163690503,-0.0001298659352570183,nan,nan,nan,nan
14.9482901096344,0.11822177,-0.10618723,-2.4647787,0.00021420770514496857,nan,nan,nan,nan,nan,4.947343587875366,6.147343587875366,0.007912397384643555,nan,nan,nan,nan,0.728783444678921,0.013899444200869948,0.0021536964937060427,-0.00024197074178971382,nan,nan,nan,nan
15.047012090682983,0.11982782,-0.12343418,-2.4602869,1.511987835591238e-05,nan,nan,nan,nan,nan,5.046130895614624,6.246130895614624,0.0066835880279541016,nan,nan,nan,nan,0.7289565849950234,0.018708322254799552,0.006121858098315519,-0.00018345745356303122,nan,nan,nan,nan
15.141122102737427,0.1200332,-0.13187374,-2.4569066,-0.00017458900918189153,nan,nan,nan,nan,nan,5.140185356140137,6.340185356140137,0.005026817321777344,nan,nan,nan,nan,0.7290178319031289,0.017032564481960954,0.006493603941685831,-8.613636527075118e-05,nan,nan,nan,nan
15.239017009735107,0.12250841,-0.13860664,-2.4510524,-0.00045311393770554754,nan,nan,nan,nan,nan,5.238070487976074,6.438070487976074,0.005237579345703125,nan,nan,nan,nan,0.729139035959943,0.0076068098516338285,0.0072687265793855965,0.00013912902673563138,nan,nan,nan,nan
15.349899291992188,0.12715603,-0.1440241,-2.4424982,-0.0007409484459088202,nan,nan,nan,nan,nan,5.348957538604736,6.5489575386047365,0.007441282272338867,nan,nan,nan,nan,0.72938851400557,-0.003041096422157118,0.008884436703500483,0.0003061444330200449,nan,nan,nan,nan
15.448723793029785,0.13325007,-0.14889057,-2.4366755,-0.0010061734853024935,nan,nan,nan,nan,nan,5.447768926620483,6.647768926620484,0.008408784866333008,nan,nan,nan,nan,0.7295978687656054,-0.00958807708008792,0.00978577046150228,0.00041971694030386905,nan,nan,nan,nan
15.550009727478027,0.13958433,-0.15298752,-2.4350095,-0.0011211039970214507,nan,nan,nan,nan,nan,5.549072027206421,6.749072027206421,0.010415077209472656,nan,nan,nan,nan,0.7296590645020936,-0.012813429521325952,0.012294650550935562,0.0005659884123400859,nan,nan,nan,nan
15.647578001022339,0.15163395,-0.15993208,-2.4234264,-0.0010888140616367977,nan,nan,nan,nan,nan,5.646612167358398,6.846612167358399,0.006178140640258789,nan,nan,nan,nan,0.729896313180153,-0.011305502305568255,0.01637762818183993,0.0006044880180274141,nan,nan,nan,nan
15.742652416229248,0.15852012,-0.16455461,-2.4147515,-0.0010137937495324533,nan,nan,nan,nan,nan,5.74171257019043,6.94171257019043,0.00496220588684082,nan,nan,nan,nan,0.7301749382257885,-0.0092270830973514,0.018411410264061307,0.0005609325369827094,nan,nan,nan,nan
15.839000940322876,0.17231521,-0.17189403,-2.4000108,-0.0009948604323775645,nan,nan,nan,nan,nan,5.838079929351807,7.038079929351807,0.00549769401550293,nan,nan,nan,nan,0.7304893352669752,-0.0046412878153620045,0.01892198121060639,0.0005267396148309211,nan,nan,nan,nan
15.933229446411133,0.18542938,-0.17698386,-2.3887715,-0.0009803700007304287,nan,nan,nan,nan,nan,5.932278394699097,7.132278394699097,0.010563850402832031,nan,nan,nan,nan,0.7307844606174995,-0.0021434650032210387,0.019178163429902265,0.0005555481073593463,nan,nan,nan,nan
16.049227952957153,0.19893087,-0.18172556,-2.3782873,-0.0009509408946889444,nan,nan,nan,nan,nan,6.048268556594849,7.248268556594849,0.00923299789428711,nan,nan,nan,nan,0.7310116545930543,0.0005671048603448598,0.017634424417858945,0.000559499432732558,nan,nan,nan,nan
16.149110555648804,0.20346522,-0.18358913,-2.3679786,-0.000908031729093579,nan,nan,nan,nan,nan,6.148199558258057,7.348199558258057,0.006776094436645508,nan,nan,nan,nan,0.7312428356867386,-0.00033558926887057095,0.012999468753362536,0.0005518911685566963,nan,nan,nan,nan
16.247053146362305,0.20552197,-0.18583532,-2.356716,-0.0009312445861759844,nan,nan,nan,nan,nan,6.246165990829468,7.446165990829468,0.00541234016418457,nan,nan,nan,nan,0.731407674148929,-0.0020102487543026213,0.0061073154071228895,0.0005472931847846566,nan,nan,nan,nan
16.33884024620056,0.2050686,-0.18737538,-2.3411715,-0.0011190413144401149,nan,nan,nan,nan,nan,6.337964773178101,7.537964773178101,0.0069577693939208984,nan,nan,nan,nan,0.7316563578685799,-0.0027156023187907942,-0.007425359072111696,0.0006433807833072825,nan,nan,nan,nan
16.448261260986328,0.20438173,-0.18651763,-2.332106,-0.0012416747913200775,nan,nan,nan,nan,nan,6.447303533554077,7.647303533554077,0.005770683288574219,nan,nan,nan,nan,0.7319056976910527,-0.006209079178506109,-0.014926058128359692,0.0007487064027604828,nan,nan,nan,nan
16.54552388191223,0.21087942,-0.18079667,-2.3212574,-0.001452526766751584,nan,nan,nan,nan,nan,6.544666290283203,7.744666290283203,0.006026029586791992,nan,nan,nan,nan,0.7320154571234875,-0.011859646046798131,-0.015428087695693636,0.0008734504178488443,nan,nan,nan,nan
16.648816347122192,0.22051,-0.17830107,-2.3133543,-0.0016598543593645213,nan,nan,nan,nan,nan,6.6479573249816895,7.84795732498169,0.005825519561767578,nan,nan,nan,nan,0.7320369318013346,-0.015496603067850362,-0.01039471596988479,0.0009978738478738068,nan,nan,nan,nan
16.741875886917114,0.22920233,-0.17446752,-2.306414,-0.0018886189741985288,nan,nan,nan,nan,nan,6.740946054458618,7.940946054458618,0.005127668380737305,nan,nan,nan,nan,0.7319874379638062,-0.015230300701773284,-0.00018685972372209798,0.0011717779786957953,nan,nan,nan,nan
16.837085008621216,0.23334672,-0.17255305,-2.3047132,-0.0019011982383724062,nan,nan,nan,nan,nan,6.836153030395508,8.036153030395507,0.006237030029296875,nan,nan,nan,nan,0.7318136356358335,-0.01434550428316029,0.0002303189355437425,0.0012317839000637765,nan,nan,nan,nan
16.95088267326355,0.24326243,-0.1710171,-2.3028843,-0.0018541418097704715,nan,nan,nan,nan,nan,6.949946641921997,8.149946641921996,0.0065479278564453125,nan,nan,nan,nan,0.7315358550862847,-0.009476171917505197,0.005971392853031655,0.0012185563959569439,nan,nan,nan,nan
17.02992057800293,0.24715813,-0.1681806,-2.2990663,-0.0017908080211140637,nan,nan,nan,nan,nan,7.0294129848480225,8.229412984848022,0.007106781005859375,nan,nan,nan,nan,0.7313942892034766,-0.007548706392925236,0.0070254021913091266,0.0012105074834100691,nan,nan,nan,nan
17.143469095230103,0.254124,-0.16455166,-2.296334,-0.0016708517953764412,nan,nan,nan,nan,nan,7.142480373382568,8.342480373382568,0.005194664001464844,nan,nan,nan,nan,0.7311562640785355,-0.004393763037646049,0.0054015379077975035,0.0011473918465962677,nan,nan,nan,nan
17.240620613098145,0.2594432,-0.16123658,-2.295503,-0.001498968179631066,nan,nan,nan,nan,nan,7.2396931648254395,8.439693164825439,0.005112171173095703,nan,nan,nan,nan,0.7308605141357828,-0.0015276603247148493,0.0045657648018099205,0.0010558593654014425,nan,nan,nan,nan
17.341381549835205,0.26128337,-0.15934971,-2.2969031,-0.001354008480963849,nan,nan,nan,nan,nan,7.340422868728638,8.540422868728637,0.0050661563873291016,nan,nan,nan,nan,0.7306788010728823,-0.0014045986525933582,0.0020702729136860493,0.0009704515620748344,nan,nan,nan,nan
17.4353506565094,0.2561299,-0.16061178,-2.302351,-0.0010052981136107904,nan,nan,nan,nan,nan,7.434381008148193,8.634381008148193,0.010286569595336914,nan,nan,nan,nan,0.7303512323049258,0.0026619200906026225,-0.006362908320597862,0.0007830516713689381,nan,nan,nan,nan
17.539236783981323,0.25176352,-0.16014425,-2.3071551,-0.0006467525295051544,nan,nan,nan,nan,nan,7.538252115249634,8.738252115249633,0.005248546600341797,nan,nan,nan,nan,0.7299945618009416,0.0037838308282379172,-0.012495570496075649,0.0005871966729044401,nan,nan,nan,nan
17.63769221305847,0.24609059,-0.16198388,-2.3079038,-0.00033950013601995654,nan,nan,nan,nan,nan,7.636714458465576,8.836714458465575,0.005930423736572266,nan,nan,nan,nan,0.7296587778347808,0.0049071117010811675,-0.017017974798910096,0.0003039012310442075,nan,nan,nan,nan
17.749868392944336,0.23714703,-0.16164888,-2.3043685,-0.00014672859075015018,nan,nan,nan,nan,nan,7.748946905136108,8.948946905136108,0.006148815155029297,nan,nan,nan,nan,0.7297066777306284,0.007466565632467325,-0.019115497569366226,0.00015633226458046663,nan,nan,nan,nan
17.84138250350952,0.22916795,-0.15865389,-2.3028653,-0.00012843402570218368,nan,nan,nan,nan,nan,7.840396881103516,9.040396881103515,0.0055081844329833984,nan,nan,nan,nan,0.7298103461908585,0.001029846194831387,-0.01893281445208768,0.0001158273491454119,nan,nan,nan,nan
17.940826892852783,0.22220233,-0.16162735,-2.3037217,-0.00020452679357788525,nan,nan,nan,nan,nan,7.939896821975708,9.139896821975707,0.005223751068115234,nan,nan,nan,nan,0.7298079175785958,0.002796161333492101,-0.017028713615311615,0.00010287438152654166,nan,nan,nan,nan
18.041619062423706,0.21995339,-0.1677197,-2.3075714,-0.00034762951542125463,nan,nan,nan,nan,nan,8.040632247924805,9.240632247924804,0.005135297775268555,nan,nan,nan,nan,0.7296834466009068,0.006254795895029491,-0.01238533385030364,0.0001615827472918586,nan,nan,nan,nan
18.139060735702515,0.21929444,-0.17260806,-2.3098855,-0.0005101170724238933,nan,nan,nan,nan,nan,8.138153076171875,9.338153076171874,0.005275249481201172,nan,nan,nan,nan,0.7294642517541323,0.011774719210092805,-0.0028727643047284034,0.00026037231382834664,nan,nan,nan,nan
18.23462462425232,0.21580409,-0.18150234,-2.31606,-0.0006395016587238983,nan,nan,nan,nan,nan,8.233647584915161,9.43364758491516,0.007616281509399414,nan,nan,nan,nan,0.7292867234478879,0.013901209987368978,0.0064697800942937105,0.00037367001052481295,nan,nan,nan,nan
18.338724613189697,0.2113541,-0.1893518,-2.3235576,-0.0007271134572608298,nan,nan,nan,nan,nan,8.33774447441101,9.53774447441101,0.009299278259277344,nan,nan,nan,nan,0.729069059923388,0.017679999278958226,0.006779898182593995,0.00038157571964126275,nan,nan,nan,nan
18.438692808151245,0.19859272,-0.19928618,-2.3391995,-0.0008018271271756526,nan,nan,nan,nan,nan,8.437720537185669,9.637720537185668,0.006035804748535156,nan,nan,nan,nan,0.7285118233383169,0.018536877821953533,0.001467846031063933,0.0004155352039097711,nan,nan,nan,nan
18.532873392105103,0.19435585,-0.20373368,-2.3441362,-0.0008510105744855556,nan,nan,nan,nan,nan,8.531922101974487,9.731922101974487,0.006230831146240234,nan,nan,nan,nan,0.7282380872697686,0.01670559249175268,0.0006182290130970833,0.0004546239499114469,nan,nan,nan,nan
18.649701356887817,0.19388314,-0.20830771,-2.347262,-0.0010145481056727402,nan,nan,nan,nan,nan,8.648720741271973,9.848720741271972,0.006537199020385742,nan,nan,nan,nan,0.7281179903705362,0.01007276579339006,0.004750423671627535,0.000530160909637141,nan,nan,nan,nan
18.732783794403076,0.19658796,-0.21010001,-2.3468282,-0.0012087982685947615,nan,nan,nan,nan,nan,8.731840133666992,9.931840133666991,0.007595539093017578,nan,nan,nan,nan,0.7283099802145359,0.002829350008896686,0.01136202858036475,0.0006412694602931121,nan,nan,nan,nan
18.84754514694214,0.20004497,-0.2114361,-2.34868,-0.0013892892681409098,nan,nan,nan,nan,nan,8.846730947494507,10.046730947494506,0.005049705505371094,nan,nan,nan,nan,0.7284533488074596,-0.005146240702324564,0.017108818646869847,0.0007898252799170098,nan,nan,nan,nan
18.952420234680176,0.20350312,-0.21221583,-2.3516767,-0.0015250694050733364,nan,nan,nan,nan,nan,8.951702356338501,10.1517023563385,0.0063283443450927734,nan,nan,nan,nan,0.7284493765810633,-0.010646268385051297,0.017507447065882156,0.0009252781830070058,nan,nan,nan,nan
19.036511182785034,0.20422007,-0.21001936,-2.3541756,-0.0015949263932842654,nan,nan,nan,nan,nan,9.035613536834717,10.235613536834716,0.006768703460693359,nan,nan,nan,nan,0.7284075334212706,-0.013348454251836065,0.016174854616700002,0.0009988147852517423,nan,nan,nan,nan
19.135308742523193,0.20556305,-0.21003208,-2.3590717,-0.0015930537665795608,nan,nan,nan,nan,nan,9.134378433227539,10.334378433227538,0.00828695297241211,nan,nan,nan,nan,0.7283115380505656,-0.015266898625437168,0.015125888920805481,0.0010217310520375961,nan,nan,nan,nan
19.236032485961914,0.20855066,-0.21227096,-2.3689296,-0.0015350072355175479,nan,nan,nan,nan,nan,9.235074758529663,10.435074758529662,0.008504390716552734,nan,nan,nan,nan,0.7279666469481979,-0.011036689083197554,0.009978897442515877,0.0010033716141242073,nan,nan,nan,nan
19.351515769958496,0.21143001,-0.21330051,-2.3780658,-0.001473049621550461,nan,nan,nan,nan,nan,9.350534915924072,10.550534915924072,0.008343696594238281,nan,nan,nan,nan,0.7276691592875102,-0.007093114637883939,0.007934872171912799,0.000981941375644903,nan,nan,nan,nan
19.448122024536133,0.2206383,-0.2146113,-2.3890862,-0.0013715385632520167,nan,nan,nan,nan,nan,9.447420120239258,10.647420120239257,0.0051267147064208984,nan,nan,nan,nan,0.727422626462563,-0.0034777834287407876,0.009380531870426301,0.0009572665797516278,nan,nan,nan,nan
19.547869205474854,0.22947043,-0.21523272,-2.395194,-0.0013147430461412793,nan,nan,nan,nan,nan,9.547153234481812,10.74715323448181,0.005484342575073242,nan,nan,nan,nan,0.7273011336852907,-0.002023737712388939,0.013360046887572799,0.0009270988060992201,nan,nan,nan,nan
19.640754222869873,0.23858948,-0.21927713,-2.402394,-0.0013082805313237838,nan,nan,nan,nan,nan,9.639823198318481,10.83982319831848,0.005602598190307617,nan,nan,nan,nan,0.727213400108199,0.0012110097575159919,0.016095756096810587,0.000908561868080907,nan,nan,nan,nan
19.735424995422363,0.24435803,-0.22439611,-2.407078,-0.0012489623636301116,nan,nan,nan,nan,nan,9.734436511993408,10.934436511993407,0.006858110427856445,nan,nan,nan,nan,0.7272040139454636,0.005768553404572295,0.016550400747905473,0.0009229693149071041,nan,nan,nan,nan
19.834370136260986,0.24889478,-0.22927858,-2.411594,-0.0012864711877826204,nan,nan,nan,nan,nan,9.833434343338013,11.033434343338012,0.0062084197998046875,nan,nan,nan,nan,0.7272891586754571,0.010680409631270314,0.011562286752861186,0.0009026511195778216,nan,nan,nan,nan
19.947200536727905,0.24824055,-0.23194763,-2.4121976,-0.0014175048798650155,nan,nan,nan,nan,nan,9.94635009765625,11.14635009765625,0.005532503128051758,nan,nan,nan,nan,0.7274818600528448,0.010863663434673066,0.0017302650273401977,0.0009815366795411153,nan,nan,nan,nan
20.046507120132446,0.24552053,-0.23282269,-2.4111724,-0.0014696619597272258,nan,nan,nan,nan,nan,10.045625448226929,11.245625448226928,0.004899501800537109,nan,nan,nan,nan,0.7276074895861457,0.008767582056117187,-0.0034972356728908602,0.001070896473857664,nan,nan,nan,nan
20.144978284835815,0.23875071,-0.23741658,-2.4118729,-0.0014489891031132895,nan,nan,nan,nan,nan,10.144019603729248,11.344019603729247,0.00513458251953125,nan,nan,nan,nan,0.7277584761568845,0.0053872063812146756,-0.012499394029948646,0.0010572751064027131,nan,nan,nan,nan
20.24135422706604,0.23200588,-0.24135108,-2.4140608,-0.001412101946287343,nan,nan,nan,nan,nan,10.240437507629395,11.440437507629394,0.0052547454833984375,nan,nan,nan,nan,0.7277947656429912,0.007175529059638849,-0.016880156524831373,0.0010698334845310985,nan,nan,nan,nan
20.33784556388855,0.21921235,-0.24398986,-2.4182496,-0.0013201546909979603,nan,nan,nan,nan,nan,10.336931228637695,11.536931228637695,0.007498264312744141,nan,nan,nan,nan,0.7277221547410564,0.006044069110887433,-0.023943115503150092,0.0009807741060112543,nan,nan,nan,nan
20.429145574569702,0.21289413,-0.24413191,-2.4173536,-0.0012876477074081098,nan,nan,nan,nan,nan,10.42816686630249,11.62816686630249,0.007363557815551758,nan,nan,nan,nan,0.7277332112142849,0.0037892923930270086,-0.023959635243125988,0.0009608249852798156,nan,nan,nan,nan
20.548664569854736,0.20077561,-0.24192797,-2.4152484,-0.0011850042684705348,nan,nan,nan,nan,nan,10.547788619995117,11.747788619995116,0.005362272262573242,nan,nan,nan,nan,0.727880390272113,-0.002474266010074441,-0.022689626747623554,0.0008676123368841337,nan,nan,nan,nan
20.642207145690918,0.18830766,-0.23915058,-2.4097478,-0.0011858541975572675,nan,nan,nan,nan,nan,10.641276359558105,11.841276359558105,0.005144357681274414,nan,nan,nan,nan,0.7281040556289464,-0.009107145387076139,-0.0219746540726349,0.0008252341954613716,nan,nan,nan,nan
20.73942756652832,0.1809439,-0.2375365,-2.4053152,-0.0012504100839720294,nan,nan,nan,nan,nan,10.738435745239258,11.938435745239257,0.00646662712097168,nan,nan,nan,nan,0.7283268117120787,-0.010950194021310403,-0.019433919935697996,0.0008393609992315643,nan,nan,nan,nan
20.851492166519165,0.16682024,-0.23266287,-2.3907874,-0.001506632355282735,nan,nan,nan,nan,nan,10.85055136680603,12.05055136680603,0.00579380989074707,nan,nan,nan,nan,0.7288806308849171,-0.013289240276366476,-0.01364456426232746,0.0009491360889724077,nan,nan,nan,nan
20.92895531654358,0.15572068,-0.22669335,-2.3861287,-0.0015968929350287354,nan,nan,nan,nan,nan,10.927964448928833,12.127964448928832,0.008020401000976562,nan,nan,nan,nan,0.7291662299035265,-0.01489424799069942,-0.010652954104503395,0.0010348708720039086,nan,nan,nan,nan
21.051478147506714,0.14427544,-0.22469784,-2.38426,-0.0016299572288747232,nan,nan,nan,nan,nan,11.050546646118164,12.250546646118163,0.005403757095336914,nan,nan,nan,nan,0.7292506516183184,-0.012953992660559282,-0.006724843914167129,0.0010515364754853922,nan,nan,nan,nan
21.14790391921997,0.13707298,-0.22385117,-2.384844,-0.0016324560197030066,nan,nan,nan,nan,nan,11.146979331970215,12.346979331970214,0.005280494689941406,nan,nan,nan,nan,0.7291951948861852,-0.00848664951192481,-0.002643013399197124,0.0010648881805872322,nan,nan,nan,nan
21.246442079544067,0.122403406,-0.22218618,-2.3883326,-0.001707500806747531,nan,nan,nan,nan,nan,11.245485782623291,12.44548578262329,0.005660295486450195,nan,nan,nan,nan,0.7290320870910055,-0.003039251020979996,-0.0009153918609681399,0.0010829266442947047,nan,nan,nan,nan
21.345608472824097,0.11369755,-0.22162353,-2.3907945,-0.001733338969699801,nan,nan,nan,nan,nan,11.344629526138306,12.544629526138305,0.00525212287902832,nan,nan,nan,nan,0.7289138220964813,-0.0007148057101648216,-0.0038269165948721187,0.0011164756937460882,nan,nan,nan,nan
21.443225145339966,0.1041412,-0.21544461,-2.3924525,-0.0017913327536277974,nan,nan,nan,nan,nan,11.44228744506836,12.642287445068359,0.00684356689453125,nan,nan,nan,nan,0.7288399743324869,-0.0017115894143472918,-0.0032616760585676753,0.0011432169341901673,nan,nan,nan,nan
21.545835494995117,0.099710904,-0.21144658,-2.3956587,-0.0018633478788190132,nan,nan,nan,nan,nan,11.544856548309326,12.744856548309325,0.005241870880126953,nan,nan,nan,nan,0.7287733058484015,-0.004249723191714381,0.0004449249473465235,0.0011789514064166591,nan,nan,nan,nan
21.63751745223999,0.0960622,-0.20871112,-2.4035826,-0.002059381194899427,nan,nan,nan,nan,nan,11.636532068252563,12.836532068252563,0.0069043636322021484,nan,nan,nan,nan,0.7285035768882085,-0.0039792502502176965,0.004715889009435872,0.001295428089472205,nan,nan,nan,nan
21.74954652786255,0.09624168,-0.21120872,-2.4113162,-0.002236206954552217,nan,nan,nan,nan,nan,11.748664855957031,12.94866485595703,0.00531315803527832,nan,nan,nan,nan,0.7282393354961301,0.0017965025272599167,0.011415368369012125,0.0014147763015794129,nan,nan,nan,nan
21.85078001022339,0.09749548,-0.21521598,-2.4141455,-0.0022556186501831083,nan,nan,nan,nan,nan,11.849894046783447,13.049894046783447,0.007950782775878906,nan,nan,nan,nan,0.7282275149590945,0.009175606147235477,0.017018791107495223,0.001487415030441953,nan,nan,nan,nan
21.94824194908142,0.101800725,-0.22102319,-2.4148116,-0.002248859866715488,nan,nan,nan,nan,nan,11.947289228439331,13.14728922843933,0.0050754547119140625,nan,nan,nan,nan,0.7282720931489826,0.014985893672809714,0.021630606605357667,0.0014915778261308588,nan,nan,nan,nan
22.040114879608154,0.110070944,-0.22815503,-2.4161768,-0.0023097367040666684,nan,nan,nan,nan,nan,12.039202451705933,13.239202451705932,0.005921363830566406,nan,nan,nan,nan,0.7283718423587492,0.019851152155619792,0.025813521897789383,0.0015381105620495008,nan,nan,nan,nan
22.136519193649292,0.1218656,-0.23679933,-2.416937,-0.0023538083344771736,nan,nan,nan,nan,nan,12.135595321655273,13.335595321655273,0.00594019889831543,nan,nan,nan,nan,0.7284227061076747,0.022699302740084946,0.03093476444709958,0.0015907241136841788,nan,nan,nan,nan
22.24972939491272,0.13158089,-0.24339661,-2.4171863,-0.0023030005265005293,nan,nan,nan,nan,nan,12.249123811721802,13.449123811721801,0.005353450775146484,nan,nan,nan,nan,0.7286224746963902,0.019705949857313554,0.029970477268742985,0.0015884773491625977,nan,nan,nan,nan
22.344146490097046,0.13974404,-0.24904563,-2.4198194,-0.0021643645560299267,nan,nan,nan,nan,nan,12.343218564987183,13.543218564987182,0.005295515060424805,nan,nan,nan,nan,0.7286897821499928,0.01840428949157026,0.02959205050219504,0.0015890548511371691,nan,nan,nan,nan
22.440818786621094,0.15019271,-0.25665608,-2.4268327,-0.0019392121064490996,nan,nan,nan,nan,nan,12.439860820770264,13.639860820770263,0.009160995483398438,nan,nan,nan,nan,0.7285944683859445,0.013947276476426495,0.024698984049582852,0.0014632998660981103,nan,nan,nan,nan
22.53566598892212,0.15579697,-0.26156208,-2.43332,-0.001800108638924311,nan,nan,nan,nan,nan,12.534782409667969,13.734782409667968,0.005837440490722656,nan,nan,nan,nan,0.7284522083012058,0.011126091786110804,0.022008316013815782,0.0013972841507828742,nan,nan,nan,nan
22.647435188293457,0.161075,-0.26756248,-2.4428627,-0.0015746610255707276,nan,nan,nan,nan,nan,12.646490097045898,13.846490097045898,0.00511622428894043,nan,nan,nan,nan,0.7280875314409219,0.00797214317194762,0.014266680258728402,0.0012994534416381081,nan,nan,nan,nan
22.738810300827026,0.15978952,-0.2691677,-2.4449012,-0.0013673686729777793,nan,nan,nan,nan,nan,12.737850427627563,13.937850427627563,0.006568431854248047,nan,nan,nan,nan,0.7281270459543779,-0.00029931724211008123,-0.00038657489241695337,0.0011380511109032648,nan,nan,nan,nan
22.84847903251648,0.1541868,-0.27318072,-2.443848,-0.0012518251687941339,nan,nan,nan,nan,nan,12.847532749176025,14.047532749176025,0.005157470703125,nan,nan,nan,nan,0.7283238616290767,-0.00433169898243939,-0.012752488097782117,0.0010856228344838098,nan,nan,nan,nan
22.9426007270813,0.14781682,-0.27554163,-2.4425237,-0.0011044998382705885,nan,nan,nan,nan,nan,12.941614866256714,14.141614866256713,0.005408525466918945,nan,nan,nan,nan,0.7284260596835094,-0.005992898393151858,-0.018844051522977547,0.001028708035438501,nan,nan,nan,nan
23.03555965423584,0.13834885,-0.27962822,-2.4442558,-0.0010192017696338072,nan,nan,nan,nan,nan,13.034639596939087,14.234639596939086,0.005934000015258789,nan,nan,nan,nan,0.7285185948648193,-0.007837142557017233,-0.02723701736195307,0.0009120771773418407,nan,nan,nan,nan
23.151291370391846,0.12541397,-0.2831076,-2.448367,-0.0010774049636796089,nan,nan,nan,nan,nan,13.15041971206665,14.35041971206665,0.005392551422119141,nan,nan,nan,nan,0.728483892204418,-0.004968799238997659,-0.02867500134182099,0.0009094418201829345,nan,nan,nan,nan
23.246520042419434,0.11028814,-0.28381953,-2.4535792,-0.0012289258935937655,nan,nan,nan,nan,nan,13.245537281036377,14.445537281036376,0.005790233612060547,nan,nan,nan,nan,0.7283980545517285,-0.005260529119848422,-0.032599164780305584,0.0009652874972088433,nan,nan,nan,nan
23.34680938720703,0.08716823,-0.2792191,-2.4595633,-0.0013789341063324082,nan,nan,nan,nan,nan,13.345825433731079,14.545825433731078,0.008330106735229492,nan,nan,nan,nan,0.7282546309608852,-0.009204505678291649,-0.03681366389328699,0.0010428855540505944,nan,nan,nan,nan
23.448034524917603,0.07100177,-0.27579623,-2.458748,-0.0013541413003880527,nan,nan,nan,nan,nan,13.44705581665039,14.64705581665039,0.0049898624420166016,nan,nan,nan,nan,0.728227490654388,-0.011874851166119166,-0.03635433283420459,0.0010306385369290938,nan,nan,nan,nan
23.54373002052307,0.053860266,-0.27105874,-2.4574597,-0.001255259837125819,nan,nan,nan,nan,nan,13.542752981185913,14.742752981185912,0.010615348815917969,nan,nan,nan,nan,0.7283020440424885,-0.014972266068295412,-0.03469642683412469,0.0009550484129016181,nan,nan,nan,nan
23.646217584609985,0.032926608,-0.26516926,-2.4564416,-0.001056068203923048,nan,nan,nan,nan,nan,13.64524221420288,14.84524221420288,0.005248069763183594,nan,nan,nan,nan,0.7285132799026985,-0.017102387824387964,-0.028806323908844515,0.0008009013375527541,nan,nan,nan,nan
23.74768567085266,0.015356089,-0.2627165,-2.4585073,-0.0008197541982508669,nan,nan,nan,nan,nan,13.746694326400757,14.946694326400756,0.005019664764404297,nan,nan,nan,nan,0.7285462850671424,-0.013936970320644159,-0.024308004927503974,0.00063346176099905,nan,nan,nan,nan
23.839864015579224,-0.00505591,-0.2574195,-2.466685,-0.0006573699907323515,nan,nan,nan,nan,nan,13.838879823684692,15.038879823684692,0.007989168167114258,nan,nan,nan,nan,0.7283453391620865,-0.0107000698861334,-0.017094863943210865,0.0004914990213905404,nan,nan,nan,nan
23.940428495407104,-0.017459583,-0.250351,-2.4735422,-0.000602385812678985,nan,nan,nan,nan,nan,13.939453601837158,15.139453601837157,0.007138729095458984,nan,nan,nan,nan,0.728115122059677,-0.010867886940500936,-0.011632686883205028,0.00041146675565434073,nan,nan,nan,nan
24.033386707305908,-0.029309103,-0.24083379,-2.4789622,-0.0006355024159269128,nan,nan,nan,nan,nan,14.032516479492188,15.232516479492187,0.005342721939086914,nan,nan,nan,nan,0.7278200362607531,-0.013322383865595812,-0.0011787840299558863,0.00039970347376043936,nan,nan,nan,nan
24.13315725326538,-0.03359639,-0.23570706,-2.479822,-0.0006943777470334264,nan,nan,nan,nan,nan,14.132208585739136,15.332208585739135,0.005239725112915039,nan,nan,nan,nan,0.7279520920761837,-0.012766413322897227,0.00685987532548442,0.0004316238326540426,nan,nan,nan,nan
24.248955249786377,-0.03999335,-0.22898151,-2.4813406,-0.000648968443973565,nan,nan,nan,nan,nan,14.248002052307129,15.448002052307128,0.005409717559814453,nan,nan,nan,nan,0.7280637155409384,-0.008888236290234225,0.016883022966252582,0.00044503417546831514,nan,nan,nan,nan
24.34603238105774,-0.04885092,-0.22329004,-2.4876308,-0.0004635642579718396,nan,nan,nan,nan,nan,14.345098733901978,15.545098733901977,0.005402565002441406,nan,nan,nan,nan,0.7279811033029269,-0.004138534225267673,0.01914257274274195,0.0003491034289770664,nan,nan,nan,nan
24.445956468582153,-0.050683662,-0.2197008,-2.4930232,-0.00032251359111767214,nan,nan,nan,nan,nan,14.444984912872314,15.644984912872314,0.005086660385131836,nan,nan,nan,nan,0.7278549895076313,-0.0007059807986910313,0.02050965928866272,0.000291120625847828,nan,nan,nan,nan
24.541073322296143,-0.04824016,-0.21323493,-2.502335,-6.421831829702134e-05,nan,nan,nan,nan,nan,14.540180206298828,15.740180206298827,0.008761167526245117,nan,nan,nan,nan,0.7276567245634697,0.004256275315785869,0.02470874141495684,0.00014291986791596501,nan,nan,nan,nan
24.6364848613739,-0.04508604,-0.20908278,-2.5086355,8.977038725369881e-05,nan,nan,nan,nan,nan,14.6355562210083,15.8355562210083,0.005589485168457031,nan,nan,nan,nan,0.727535566618124,0.003588313783147214,0.028783865706938926,7.087015827008508e-05,nan,nan,nan,nan
24.75185799598694,-0.04153572,-0.20234492,-2.5088425,0.00031708582148041705,nan,nan,nan,nan,nan,14.751019716262817,15.951019716262817,0.005234479904174805,nan,nan,nan,nan,0.7276305685323581,0.0021276528062855165,0.029255152881521102,-6.90958808775926e-05,nan,nan,nan,nan
24.84824824333191,-0.036035568,-0.18977115,-2.5076656,0.0005293644375903174,nan,nan,nan,nan,nan,14.847277641296387,16.047277641296386,0.005311727523803711,nan,nan,nan,nan,0.7278481394281329,-0.0030610366852936535,0.02562344660591984,-0.00020756276371080302,nan,nan,nan,nan
24.944823026657104,-0.032159496,-0.18347052,-2.5075934,0.0005741976012083054,nan,nan,nan,nan,nan,14.94387412071228,16.14387412071228,0.005290985107421875,nan,nan,nan,nan,0.727938324269445,-0.006147926514852687,0.024116938129111327,-0.000246058196576732,nan,nan,nan,nan
25.041204929351807,-0.02532309,-0.18083446,-2.507477,0.0005659216307551587,nan,nan,nan,nan,nan,15.040300369262695,16.240300369262695,0.00773930549621582,nan,nan,nan,nan,0.7279962977191745,-0.006634775602878587,0.019170307429508572,-0.0002605381406976408,nan,nan,nan,nan
25.14457869529724,-0.018510384,-0.18338667,-2.5069757,0.0005169241679299377,nan,nan,nan,nan,nan,15.143596410751343,16.343596410751342,0.005257844924926758,nan,nan,nan,nan,0.7281802820001076,0.003072887401387716,0.018076677472756132,-0.00018534909853318721,nan,nan,nan,nan
25.240684747695923,-0.016941573,-0.18566561,-2.502628,0.0005382858126554436,nan,nan,nan,nan,nan,15.239965915679932,16.43996591567993,0.008275270462036133,nan,nan,nan,nan,0.7284398175923664,0.01039002433146057,0.01028245334276626,-0.0001731485039713673,nan,nan,nan,nan
25.33845043182373,-0.015474027,-0.18217234,-2.5009878,0.0006803196200675266,nan,nan,nan,nan,nan,15.337512016296387,16.537512016296386,0.006899833679199219,nan,nan,nan,nan,0.7285665871086162,0.010685478057876022,0.0061683115948843025,-0.00019222882941811824,nan,nan,nan,nan
25.432608366012573,-0.009372951,-0.17994031,-2.4983807,0.0008815519453112714,nan,nan,nan,nan,nan,15.431646585464478,16.631646585464477,0.0054094791412353516,nan,nan,nan,nan,0.7286476237693154,0.007020003167609854,0.0019509354718152585,-0.0003412040691406406,nan,nan,nan,nan
25.54861068725586,-0.004460853,-0.18250415,-2.4982803,0.0008531643947963255,nan,nan,nan,nan,nan,15.547620058059692,16.74762005805969,0.0052831172943115234,nan,nan,nan,nan,0.728811075000128,0.007993665787943905,0.0036595864618829107,-0.0003440746705082822,nan,nan,nan,nan
25.64764094352722,-0.0045924387,-0.18572271,-2.5016859,0.0007173698578532254,nan,nan,nan,nan,nan,15.64665699005127,16.84665699005127,0.005069732666015625,nan,nan,nan,nan,0.7287355316634039,0.009954268569851842,0.001314819810155049,-0.00024410491958417325,nan,nan,nan,nan
25.744241952896118,-0.0037198258,-0.19594926,-2.4970636,0.000506150647099369,nan,nan,nan,nan,nan,15.743269205093384,16.943269205093383,0.00597691535949707,nan,nan,nan,nan,0.7288355643037254,0.015791905177806403,-0.003970082711569049,-8.622979273521839e-05,nan,nan,nan,nan
25.847601890563965,-0.0027370872,-0.20490946,-2.5020902,0.0002483462280359421,nan,nan,nan,nan,nan,15.846614599227905,17.046614599227905,0.005270242691040039,nan,nan,nan,nan,0.7287309007986784,0.019286775940804166,-0.00487319799668226,8.159040298597914e-05,nan,nan,nan,nan
25.950023889541626,-0.007482417,-0.21099555,-2.5049365,9.262953787991888e-05,nan,nan,nan,nan,nan,15.949034929275513,17.149034929275512,0.005115985870361328,nan,nan,nan,nan,0.728559147877226,0.020030266944883288,-0.005658716294532691,0.0002732980398736539,nan,nan,nan,nan
26.044852256774902,-0.015220521,-0.21973887,-2.508998,-7.304653421451833e-05,nan,nan,nan,nan,nan,16.043904781341553,17.243904781341552,0.0054476261138916016,nan,nan,nan,nan,0.7284735562885564,0.017584075491178096,-0.013691809288345236,0.00032076356748599315,nan,nan,nan,nan
26.147504091262817,-0.017639393,-0.22898519,-2.5140758,-0.00024050827385756895,nan,nan,nan,nan,nan,16.146522045135498,17.346522045135497,0.00550079345703125,nan,nan,nan,nan,0.7283937335442823,0.017759341401875278,-0.012149973224715822,0.000507302186942762,nan,nan,nan,nan
26.242570161819458,-0.023333505,-0.24018602,-2.5209444,-0.00031477292974963107,nan,nan,nan,nan,nan,16.241612911224365,17.441612911224365,0.007467508316040039,nan,nan,nan,nan,0.7281800880423074,0.016432098251867165,-0.011140698578059868,0.0005615861655009153,nan,nan,nan,nan
26.341098308563232,-0.028632961,-0.24524401,-2.5267148,-0.00036130316250574616,nan,nan,nan,nan,nan,16.340186834335327,17.540186834335326,0.007324695587158203,nan,nan,nan,nan,0.7279909647489897,0.013880986979091,-0.01005558265744919,0.0006328302993324643,nan,nan,nan,nan
26.436253547668457,-0.037200715,-0.25147057,-2.5338306,-0.00038912097956956583,nan,nan,nan,nan,nan,16.435373544692993,17.635373544692992,0.005037784576416016,nan,nan,nan,nan,0.7277329296372875,0.005163665816415954,-0.00988542929704119,0.0005969562711202015,nan,nan,nan,nan
26.533747673034668,-0.044309944,-0.25577193,-2.537649,-0.00037251181611194784,nan,nan,nan,nan,nan,16.532755851745605,17.732755851745605,0.005329608917236328,nan,nan,nan,nan,0.727688385839078,0.0027457934049826003,-0.009861276723783622,0.0006291831057516873,nan,nan,nan,nan
26.65005397796631,-0.05810694,-0.2593558,-2.5392141,-0.00018768989311329122,nan,nan,nan,nan,nan,16.649057865142822,17.84905786514282,0.004988193511962891,nan,nan,nan,nan,0.7277513692020618,-0.0026092683724579942,-0.012979514812148995,0.0005300054527439802,nan,nan,nan,nan
26.746408939361572,-0.06549838,-0.2503192,-2.541396,5.6196235913836753e-05,nan,nan,nan,nan,nan,16.745417594909668,17.945417594909667,0.0060787200927734375,nan,nan,nan,nan,0.7277889745037619,-0.014397881608028663,-0.011983939113250967,0.0003007644301428756,nan,nan,nan,nan
26.849785804748535,-0.07438111,-0.24338034,-2.5426736,0.0001804958889698189,nan,nan,nan,nan,nan,16.848808526992798,18.048808526992797,0.00514674186706543,nan,nan,nan,nan,0.7278100814384992,-0.022958567650129966,-0.010769512596137544,0.00015458780028214733,nan,nan,nan,nan
26.9461669921875,-0.08827032,-0.23089603,-2.546842,0.0002618471347897826,nan,nan,nan,nan,nan,16.945210218429565,18.145210218429565,0.0057561397552490234,nan,nan,nan,nan,0.7278104321685226,-0.03202072959936899,-0.012507478859188929,3.364146498028754e-05,nan,nan,nan,nan
27.046537399291992,-0.09731564,-0.22185269,-2.549733,0.00031876564854659093,nan,nan,nan,nan,nan,17.045928478240967,18.245928478240966,0.00554966926574707,nan,nan,nan,nan,0.7277386358161272,-0.03504267643540137,-0.012315437862972973,-5.939877670851008e-05,nan,nan,nan,nan
27.144885063171387,-0.11045781,-0.2078487,-2.5495486,0.0004016203966237162,nan,nan,nan,nan,nan,17.143917322158813,18.343917322158813,0.006403446197509766,nan,nan,nan,nan,0.7278117547777301,-0.03431363131117314,-0.011205565923077913,-0.000134634747352438,nan,nan,nan,nan
27.240267276763916,-0.1191452,-0.19909424,-2.5499082,0.00045675914662646146,nan,nan,nan,nan,nan,17.239404439926147,18.439404439926147,0.006222963333129883,nan,nan,nan,nan,0.7278708637392045,-0.03265530578460537,-0.01047138839328537,-0.0002394716830327001,nan,nan,nan,nan
27.340166091918945,-0.132744,-0.18594079,-2.5527782,0.0003793596345752537,nan,nan,nan,nan,nan,17.339301347732544,18.539301347732543,0.006562232971191406,nan,nan,nan,nan,0.7279055708410997,-0.025178211130514903,-0.00926092852830149,-0.00022412177469690917,nan,nan,nan,nan
27.449537992477417,-0.14242558,-0.177051,-2.5549138,0.00024239032966153233,nan,nan,nan,nan,nan,17.448545932769775,18.648545932769775,0.005128145217895508,nan,nan,nan,nan,0.7279032095653484,-0.01970621066734381,-0.007655252400115298,-0.00021055897347903925,nan,nan,nan,nan
27.55103635787964,-0.15640421,-0.1652466,-2.5544424,0.00017765168623880322,nan,nan,nan,nan,nan,17.550065517425537,18.750065517425536,0.005145549774169922,nan,nan,nan,nan,0.7279962798825957,-0.009762644916096429,-0.006078673381497203,-0.00010023806413314493,nan,nan,nan,nan
27.633158206939697,-0.16610828,-0.15771706,-2.5520487,0.00018660212222728744,nan,nan,nan,nan,nan,17.63218092918396,18.83218092918396,0.005776882171630859,nan,nan,nan,nan,0.7282882044891086,-0.006344760503190157,-0.007779523749736003,-0.00012505700099274894,nan,nan,nan,nan
27.732555150985718,-0.16799104,-0.15121032,-2.5501492,0.00018648140522815795,nan,nan,nan,nan,nan,17.731569290161133,18.931569290161132,0.006738901138305664,nan,nan,nan,nan,0.7284665447680361,-0.0018972120078321914,-0.00531909557249542,-0.0001483939272285188,nan,nan,nan,nan
27.84903860092163,-0.16578294,-0.14419067,-2.5474617,0.00021178641699254493,nan,nan,nan,nan,nan,17.84809923171997,19.04809923171997,0.0054051876068115234,nan,nan,nan,nan,0.7286562415535364,0.006236582441319633,0.005523794433835155,-0.00012331379432644818,nan,nan,nan,nan
27.945051670074463,-0.1622679,-0.1428349,-2.546363,2.2426433370851227e-05,nan,nan,nan,nan,nan,17.94412326812744,19.14412326812744,0.00627589225769043,nan,nan,nan,nan,0.7287839696508587,0.011252601211358414,0.013662273449657085,-4.39528602217975e-05,nan,nan,nan,nan
28.03755831718445,-0.15697525,-0.1465224,-2.546104,-0.00036235583517930155,nan,nan,nan,nan,nan,18.03661584854126,19.23661584854126,0.005348682403564453,nan,nan,nan,nan,0.7288126573685593,0.020773745398182712,0.020037415449443007,0.00022742997348491445,nan,nan,nan,nan
28.136178493499756,-0.15236795,-0.14931853,-2.5438898,-0.0006159573371252382,nan,nan,nan,nan,nan,18.135202646255493,19.335202646255492,0.00516200065612793,nan,nan,nan,nan,0.7289019695613194,0.02522457699049205,0.021596329312484452,0.0004411448127407707,nan,nan,nan,nan
28.232177734375,-0.14836307,-0.15451844,-2.5459511,-0.0008955778296569896,nan,nan,nan,nan,nan,18.231481552124023,19.431481552124023,0.006640434265136719,nan,nan,nan,nan,0.7289196480165246,0.02658984696240001,0.01999187364803214,0.0006482709281571775,nan,nan,nan,nan
28.329094886779785,-0.14570978,-0.15841861,-2.5510147,-0.0009978974383908707,nan,nan,nan,nan,nan,18.328214645385742,19.52821464538574,0.006413459777832031,nan,nan,nan,nan,0.7288295436082924,0.02737574367850668,0.016334816190586677,0.000796983540473333,nan,nan,nan,nan
28.450700759887695,-0.13976675,-0.16917497,-2.5656617,-0.001119907776109312,nan,nan,nan,nan,nan,18.449711084365845,19.649711084365844,0.005143642425537109,nan,nan,nan,nan,0.7282780946291927,0.027100309082479037,0.011224670849275451,0.0009461557209908419,nan,nan,nan,nan
28.54452681541443,-0.13496661,-0.18094774,-2.5774832,-0.0011599296004934168,nan,nan,nan,nan,nan,18.543538093566895,19.743538093566894,0.009074687957763672,nan,nan,nan,nan,0.7279454734683886,0.028096203183469313,0.006328644660769247,0.000981594403426288,nan,nan,nan,nan
28.64254879951477,-0.13077028,-0.18690729,-2.5845516,-0.0011411372858528496,nan,nan,nan,nan,nan,18.64156746864319,19.841567468643188,0.006403923034667969,nan,nan,nan,nan,0.7277317326462109,0.0267240785484746,0.004437377905374244,0.0010634497669151346,nan,nan,nan,nan
28.736311674118042,-0.1258076,-0.19423257,-2.5865657,-0.0009276738901003601,nan,nan,nan,nan,nan,18.73535919189453,19.93535919189453,0.005146026611328125,nan,nan,nan,nan,0.7277441124087775,0.019698596318252437,0.0026444139911469787,0.0009618068012583855,nan,nan,nan,nan
28.845730781555176,-0.124051355,-0.19757392,-2.5851796,-0.0006480703428096875,nan,nan,nan,nan,nan,18.844773530960083,20.044773530960082,0.006073951721191406,nan,nan,nan,nan,0.7280138462281424,0.010301284383420617,-0.0005041716241554735,0.0007560794686418177,nan,nan,nan,nan
28.939385890960693,-0.12481679,-0.19971655,-2.5815084,-0.00034498065627424496,nan,nan,nan,nan,nan,18.93857192993164,20.13857192993164,0.005128383636474609,nan,nan,nan,nan,0.7281650392788784,0.004610310707500746,-0.0034413847590161156,0.0006386734597383975,nan,nan,nan,nan
29.050771474838257,-0.12948704,-0.20168719,-2.5712562,-6.959587979586852e-05,nan,nan,nan,nan,nan,19.049822568893433,20.249822568893432,0.005072355270385742,nan,nan,nan,nan,0.7287256447790197,-0.003790258008749744,-0.011036091907430096,0.00043394543664386384,nan,nan,nan,nan
29.1461980342865,-0.12789826,-0.20065379,-2.5599174,0.000166096256329077,nan,nan,nan,nan,nan,19.145214319229126,20.345214319229125,0.006136417388916016,nan,nan,nan,nan,0.7292462883767208,-0.011807568029323532,-0.011750399148272589,0.0002142270197922903,nan,nan,nan,nan
29.235591411590576,-0.1300245,-0.19981231,-2.5504699,0.0003155039598393798,nan,nan,nan,nan,nan,19.23460340499878,20.43460340499878,0.005308866500854492,nan,nan,nan,nan,0.7295806780499048,-0.01464595249311331,-0.0109830234564405,0.00010737505924377878,nan,nan,nan,nan
29.348723649978638,-0.13369556,-0.19681264,-2.536716,0.0004905104832013995,nan,nan,nan,nan,nan,19.34775733947754,20.54775733947754,0.0055506229400634766,nan,nan,nan,nan,0.7300850569761616,-0.01789156340749483,-0.010632483554790536,-7.723446537347313e-05,nan,nan,nan,nan
29.438379287719727,-0.13443348,-0.19107464,-2.5219684,0.0006048594386411539,nan,nan,nan,nan,nan,19.43742322921753,20.63742322921753,0.0051076412200927734,nan,nan,nan,nan,0.7305278523500525,-0.018474602545018797,-0.008695726986968579,-0.00018235184549584158,nan,nan,nan,nan
29.549707651138306,-0.13080613,-0.1829062,-2.5081131,0.0006824377067492955,nan,nan,nan,nan,nan,19.548722505569458,20.748722505569457,0.0052623748779296875,nan,nan,nan,nan,0.7310433558190753,-0.01978103593221307,-0.0005269933799403561,-0.0002862890680239442,nan,nan,nan,nan
29.647191524505615,-0.12995343,-0.1758005,-2.5008047,0.0007511588034266239,nan,nan,nan,nan,nan,19.646249055862427,20.846249055862426,0.005923271179199219,nan,nan,nan,nan,0.7312877730861044,-0.0203584709978623,0.0022735369687697147,-0.00035719696764936596,nan,nan,nan,nan
29.736893892288208,-0.12488382,-0.16037033,-2.4946957,0.0006851059215513739,nan,nan,nan,nan,nan,19.735904455184937,20.935904455184936,0.005277156829833984,nan,nan,nan,nan,0.7313815567331245,-0.023664951839169324,0.006427241132200239,-0.0003837931477503741,nan,nan,nan,nan
29.846802473068237,-0.118570626,-0.14611097,-2.4922426,0.0006880946061050084,nan,nan,nan,nan,nan,19.845826625823975,21.045826625823974,0.005583047866821289,nan,nan,nan,nan,0.7312885054363831,-0.026795054867556248,0.01134926296910539,-0.00038900236068474054,nan,nan,nan,nan
29.939376831054688,-0.114477806,-0.1384978,-2.4931905,0.0007655079865214597,nan,nan,nan,nan,nan,19.938623666763306,21.138623666763305,0.005330562591552734,nan,nan,nan,nan,0.7311698928658403,-0.02469799365252621,0.01219748229171881,-0.0004441630138455437,nan,nan,nan,nan
30.04618501663208,-0.107603416,-0.12935112,-2.4993572,0.000883492567073507,nan,nan,nan,nan,nan,20.04522681236267,21.24522681236267,0.006435871124267578,nan,nan,nan,nan,0.7307822964968737,-0.018315005244054328,0.013303769868797437,-0.0005291728466576594,nan,nan,nan,nan
30.135451316833496,-0.10577657,-0.12253422,-2.5035987,0.0009633178419359396,nan,nan,nan,nan,nan,20.134455919265747,21.334455919265746,0.005468606948852539,nan,nan,nan,nan,0.7304360635305452,-0.00859704749048813,0.010157568628284378,-0.0005731319732388528,nan,nan,nan,nan
30.235104084014893,-0.10613225,-0.122336835,-2.5070984,0.0009665236330732793,nan,nan,nan,nan,nan,20.23411726951599,21.43411726951599,0.005254983901977539,nan,nan,nan,nan,0.7302532242523843,-0.0003205140546235181,0.006055078828092446,-0.0005999181516505803,nan,nan,nan,nan
30.350176095962524,-0.108205795,-0.12685396,-2.5115838,0.0008155134230006071,nan,nan,nan,nan,nan,20.34922695159912,21.54922695159912,0.005116701126098633,nan,nan,nan,nan,0.7299851232260353,0.016601040628100448,-0.0019915318429231657,-0.0005050123928755019,nan,nan,nan,nan
30.43835473060608,-0.110045284,-0.13093358,-2.5130196,0.0005761915187891755,nan,nan,nan,nan,nan,20.43741464614868,21.63741464614868,0.005556821823120117,nan,nan,nan,nan,0.7299564566294143,0.026110109620422716,-0.007727337575251279,-0.00034612789580988645,nan,nan,nan,nan
30.53438687324524,-0.110796705,-0.1392898,-2.512355,0.00022033012342352962,nan,nan,nan,nan,nan,20.53339910507202,21.73339910507202,0.0053408145904541016,nan,nan,nan,nan,0.7299824835511537,0.03207783845215372,-0.010578594765843117,-9.06510993301306e-05,nan,nan,nan,nan
30.634716272354126,-0.11086706,-0.14414215,-2.5102413,0.0001531482496824675,nan,nan,nan,nan,nan,20.633742570877075,21.833742570877074,0.00505518913269043,nan,nan,nan,nan,0.7300440366701957,0.03278711314682827,-0.010464387943209598,4.044341304854629e-05,nan,nan,nan,nan
30.742836952209473,-0.11065195,-0.15229186,-2.508187,8.927207645931115e-05,nan,nan,nan,nan,nan,20.741889476776123,21.941889476776122,0.00609898567199707,nan,nan,nan,nan,0.7300972466957806,0.029539151638123266,-0.008204187325679527,9.70700996660056e-05,nan,nan,nan,nan
30.83485460281372,-0.11077913,-0.1625764,-2.511035,0.00014699495843183922,nan,nan,nan,nan,nan,20.83406352996826,22.03406352996826,0.005409955978393555,nan,nan,nan,nan,0.730078708321759,0.027221693103136747,-0.005449441123230099,0.0001182717440498322,nan,nan,nan,nan
30.933724641799927,-0.11127313,-0.16898416,-2.5174072,0.0003306045453180164,nan,nan,nan,nan,nan,20.93273115158081,22.13273115158081,0.005850076675415039,nan,nan,nan,nan,0.7297654539543591,0.025898212501710132,-0.004889639065325253,5.914319470358738e-05,nan,nan,nan,nan
31.050628900527954,-0.1051309,-0.17546296,-2.5191417,0.0005624065927824504,nan,nan,nan,nan,nan,21.04963731765747,22.24963731765747,0.005780935287475586,nan,nan,nan,nan,0.7295511694712892,0.018542150148665983,0.0011817341087659015,-0.00012674294501502893,nan,nan,nan,nan
31.14113187789917,-0.09746893,-0.17878538,-2.529819,0.0008166167238820802,nan,nan,nan,nan,nan,21.140268802642822,22.34026880264282,0.006390571594238281,nan,nan,nan,nan,0.7292325795632246,0.008792512117752812,0.0078775141149715,-0.0002741527413382673,nan,nan,nan,nan
31.234442710876465,-0.093926035,-0.18053715,-2.5391946,0.0010207517946605339,nan,nan,nan,nan,nan,21.233455419540405,22.433455419540405,0.005476713180541992,nan,nan,nan,nan,0.7289071509851738,0.003561452149283997,0.010332212271101909,-0.000422163297353343,nan,nan,nan,nan
31.3371160030365,-0.088360146,-0.18077865,-2.548567,0.0010666936831810123,nan,nan,nan,nan,nan,21.336121082305908,22.536121082305907,0.005063056945800781,nan,nan,nan,nan,0.7283625030822645,-0.006187388094609796,0.010861989587491894,-0.0005593129326769883,nan,nan,nan,nan
31.45068597793579,-0.08060215,-0.17660826,-2.551039,0.0008572993039888659,nan,nan,nan,nan,nan,21.449709177017212,22.64970917701721,0.00551915168762207,nan,nan,nan,nan,0.7283858444010852,-0.01183062436256347,0.010664032295649564,-0.0004761039870638425,nan,nan,nan,nan
31.548978805541992,-0.07300253,-0.16973196,-2.552009,0.0006913942728462297,nan,nan,nan,nan,nan,21.548049211502075,22.748049211502074,0.006251096725463867,nan,nan,nan,nan,0.7284852935540952,-0.01852812674061425,0.012916930958927849,-0.00041254800981436974,nan,nan,nan,nan
31.64149761199951,-0.06730021,-0.15866531,-2.5577884,0.0005955556258772218,nan,nan,nan,nan,nan,21.6405508518219,22.8405508518219,0.005315542221069336,nan,nan,nan,nan,0.7284576674565396,-0.027035113483972334,0.012195552121652176,-0.000322514952908811,nan,nan,nan,nan
31.734195709228516,-0.06379789,-0.14859219,-2.5596251,0.0005136951965123739,nan,nan,nan,nan,nan,21.73320436477661,22.93320436477661,0.005852699279785156,nan,nan,nan,nan,0.7283829340705351,-0.029689647265352163,0.009091028292204734,-0.0003434759126444234,nan,nan,nan,nan
31.842777967453003,-0.060372468,-0.13173853,-2.5606873,0.00040412026851435485,nan,nan,nan,nan,nan,21.841784238815308,23.041784238815307,0.005938291549682617,nan,nan,nan,nan,0.7285333527655965,-0.03520167189844365,0.005212893798280282,-0.0002958796545280332,nan,nan,nan,nan
31.93472695350647,-0.06126321,-0.11263523,-2.5633972,0.00042183254486737346,nan,nan,nan,nan,nan,21.933749675750732,23.13374967575073,0.005767345428466797,nan,nan,nan,nan,0.7286263377621526,-0.036772651200598735,-0.002904829344402177,-0.00026946080045992215,nan,nan,nan,nan
