time,x,y,z,yaw,platform,trajectory,traj_double,traj_short,traj_spin,traj_time,ref_time,comptime,x_ref,y_ref,yaw_ref,z_ref,throttle_input,p_input,q_input,r_input,cbf_term_pitch_cbf,cbf_term_roll_cbf,cbf_term_thrust_cbf,cbf_term_yaw_cbf
10.066547870635986,-0.03878695,0.0039958893,-2.860512,0.00011496563665178768,SIM,HELIX,NormSpd,Not Short,Spin,0.06018471717834473,1.2601847171783447,0.00035500526428222656,-0.5998034490223988,-0.015356514605684093,0.3958987049653619,-2.5040738868713377,0.7346188610907101,-0.010507384204150661,0.031523192,0.03152319200000001,-3.5051803630318403,0.0,31.13502505699094,-9.111162986517925
10.166147470474243,-0.04027297,0.005464974,-2.8688726,0.0015968842432290261,nan,nan,nan,nan,nan,0.15977692604064941,1.3597769260406494,0.0003733634948730469,-0.5773083298784066,-0.16344752140367488,0.4271865201370216,-2.5439107704162596,0.7278642096047775,-0.06099649999047422,0.09798318160082561,0.09798318160082566,-1.994240244561666,0.0,16.366844858908205,-8.00723038207109
10.266104459762573,-0.040244885,0.00862809,-2.8842926,0.004976672220430153,nan,nan,nan,nan,nan,0.25972580909729004,1.45972580909729,0.0003490447998046875,-0.5185621603765355,-0.30181664272471836,0.4585863878115463,-2.583890323638916,0.7209785755667298,-0.10249381475753581,0.16123844964176126,0.16510857308507565,0.0,0.0,2.3734306957553635,-6.778293041843134
10.366239547729492,-0.040806316,0.013320524,-2.8972266,0.01059956273884484,nan,nan,nan,nan,nan,0.359851598739624,1.559851598739624,0.00035643577575683594,-0.4270786183279825,-0.4214307223815813,0.49004183232906967,-2.6239406394958498,0.7198163684991488,-0.13251189916674955,0.11736488115002838,0.22581557392137996,0.0,0.0,0.0,-5.616991914580923
10.466276407241821,-0.043570586,0.01832796,-2.9078765,0.020680146894664127,nan,nan,nan,nan,nan,0.4598963260650635,1.6598963260650634,0.00039005279541015625,-0.3087977726005264,-0.5144355505181903,0.5214718103686691,-2.6639585304260254,0.7222131027154589,-0.1480916869492914,0.028719521564435076,0.28071789730527813,0.0,0.0,0.0,-4.426970324491403
10.566205263137817,-0.051315706,0.021680089,-2.9166617,0.034422242411758244,nan,nan,nan,nan,nan,0.5598776340484619,1.7598776340484619,0.00034332275390625,-0.17118841919476033,-0.575060453459981,0.5528818646343634,-2.703951053619385,0.724788403854307,-0.1428628674088158,-0.054814182888341376,0.33037057445001233,0.19747522808494933,0.0,0.0,-3.172806018879738
10.66631531715393,-0.06809947,0.022999195,-2.928365,0.05535891416825393,nan,nan,nan,nan,nan,0.6599547863006592,1.8599547863006591,0.0003497600555419922,-0.022682241663921406,-0.5995711099720361,0.5843220292651324,-2.7439819145202637,0.7269818536359852,-0.11541023833025592,-0.1260673044534267,0.37527556563590925,0.3652322103923601,0.0,0.0,-1.8527848614455054
10.766151905059814,-0.08089684,0.018875727,-2.9371939,0.0799454329166109,nan,nan,nan,nan,nan,0.7597618103027344,1.9597618103027343,0.00037407875061035156,0.12685322645171454,-0.5864369181240128,0.6156773306032904,-2.783904724121094,0.7291889352729539,-0.0725934813199682,-0.19050735038531313,0.4158868347428628,0.10388078955551394,0.0,0.0,-0.5703230343941366
10.866040468215942,-0.10297436,0.0063757366,-2.94671,0.11121374873558147,nan,nan,nan,nan,nan,0.8596649169921875,2.0596649169921877,0.0003504753112792969,0.2685781822484895,-0.5365312293055243,0.6470628172079288,-2.823865966796875,0.7313083297158389,-0.018454646579428906,-0.23545242811333325,0.4414389822899456,0.0,0.0,0.0,0.0
10.966284275054932,-0.12073291,-0.013498975,-2.9507585,0.14394973879826234,nan,nan,nan,nan,nan,0.9598925113677979,2.159892511367798,0.0003390312194824219,0.39382918319670784,-0.4526572372807198,0.6785502446256683,-2.863957004547119,0.7333068303269987,0.04190627699403694,-0.2479255225391721,0.44316571621978285,0.0,0.0,0.0,0.0
11.06608271598816,-0.13294491,-0.040843733,-2.952205,0.18361024658606137,nan,nan,nan,nan,nan,1.05991792678833,2.2599179267883303,0.0003409385681152344,0.49404934088211017,-0.3404632855007313,0.7099741556514094,-2.9039671707153323,0.7353491477518609,0.10281986218313871,-0.2363268380630247,0.44542458248554073,0.0,0.0,0.0,0.0
11.165972232818604,-0.13605693,-0.0658838,-2.9534514,0.220836002715537,nan,nan,nan,nan,nan,1.1595940589904785,2.3595940589904787,0.0006723403930664062,0.563029050181333,-0.20736028706554702,0.7412883361178608,-2.9438376235961914,0.737101327054657,0.15693526517305495,-0.20372387244286042,0.44586338834465294,0.0,0.0,0.0,0.0
11.266024589538574,-0.14047796,-0.1000347,-2.9623535,0.2646035937365036,nan,nan,nan,nan,nan,1.2596378326416016,2.4596378326416017,0.0003426074981689453,0.5969155518016523,-0.06076038197155107,0.7727180145518378,-2.983855133056641,0.7382807674247645,0.2033348978408202,-0.16061401806837453,0.44217213374620795,0.0,0.0,0.0,0.0
11.366245746612549,-0.12860799,-0.13960236,-2.975606,0.3141800401731254,nan,nan,nan,nan,nan,1.3598463535308838,2.559846353530884,0.00034427642822265625,0.5932258088947356,0.08990628265692342,0.8041994498571245,-3.023938541412354,0.7389787115295335,0.24002366758749807,-0.10527077577857383,0.4332840909458923,0.0,0.0,0.0,0.0
11.466260194778442,-0.108053505,-0.17632458,-2.98865,0.3600645753613235,nan,nan,nan,nan,nan,1.4598755836486816,2.659875583648682,0.0003387928009033203,0.5522125091670244,0.23465153892412244,0.8356245593053562,-3.063950233459473,0.7395825146691449,0.26686232997095555,-0.04357697538882542,0.42055718875009407,0.0,0.0,0.0,0.0
11.566340446472168,-0.076445125,-0.21331804,-3.003954,0.41003116136640605,nan,nan,nan,nan,nan,1.5600907802581787,2.760090780258179,0.0003528594970703125,0.4763110051420719,0.3648668611706866,0.8671080918500015,-3.1040363121032715,0.7401482210704592,0.2785722936806161,0.02123838155262679,0.40251177523973286,0.0,0.0,0.0,0.0
11.666198253631592,-0.030479925,-0.24084973,-3.023006,0.45984419938077215,nan,nan,nan,nan,nan,1.6598083972930908,2.859808397293091,0.00034546852111816406,0.37094290723842255,0.4715944863646171,0.8984353051610375,-3.1439233589172364,0.7403365153093767,0.2752233971886879,0.09018514903555476,0.3761944705168734,0.0,0.0,0.0,0.0
11.766280174255371,0.028792981,-0.25688332,-3.0445516,0.5139245605300176,nan,nan,nan,nan,nan,1.7598848342895508,2.959884834289551,0.00040721893310546875,0.2419027973900492,0.5490747095021485,0.9298752450875896,-3.1839539337158205,0.7404562185671427,0.25748200195797877,0.15604106724025557,0.34420898037369074,-0.03362945367395531,0.0,0.0,0.0
11.866111040115356,0.09746753,-0.25868177,-3.0679262,0.5741390196980898,nan,nan,nan,nan,nan,1.8597393035888672,3.0597393035888674,0.0003783702850341797,0.0979701650361396,0.5919475033842034,0.9612454518054735,-3.223895721435547,0.7404204991798948,0.220249007091397,0.21761508417028713,0.3059239590637465,-0.06562707430098824,0.0,0.0,0.0
11.966238021850586,0.16631405,-0.24496187,-3.0913327,0.6339480060713655,nan,nan,nan,nan,nan,1.9598586559295654,3.1598586559295656,0.00034427642822265625,-0.052498396861914536,0.5976988525394112,0.9926988739850441,-3.2639434623718264,0.7405283472150348,0.17169556656273152,0.27003252142312645,0.2713086395306756,0.0,0.0,0.0,0.0
12.066169738769531,0.22648135,-0.2189234,-3.1140275,0.683977842500596,nan,nan,nan,nan,nan,2.0598320960998535,3.2598320960998537,0.0003447532653808594,-0.1994529502283565,0.5658785387741831,1.0241064565043516,-3.3039328384399416,0.7406498823883755,0.1150923663580539,0.303246218651205,0.24570042949356097,0.0,0.0,0.0,0.0
12.165985345840454,0.28680357,-0.17241532,-3.1417387,0.733701578789796,nan,nan,nan,nan,nan,2.159641742706299,3.359641742706299,0.00038933753967285156,-0.33367651398946097,0.49865818354042984,1.055462581757972,-3.34385669708252,0.7405682131700049,0.0512252276860773,0.3233187397219513,0.2299649174434877,0.0,0.0,0.0,0.0
12.266170978546143,0.3299062,-0.11826816,-3.1686141,0.7756460833323578,nan,nan,nan,nan,nan,2.2597873210906982,3.4597873210906984,0.0003349781036376953,-0.447351025169805,0.39984629581818626,1.0869242430921648,-3.3839149284362793,0.7404032821344075,-0.015603043757772165,0.32776753341472,0.22454374529742793,0.0,0.0,0.0,0.0
12.366314172744751,0.35979038,-0.046408188,-3.1987615,0.8164526358584723,nan,nan,nan,nan,nan,2.3599326610565186,3.5599326610565187,0.0003445148468017578,-0.5328351937418769,0.2758380980032607,1.1183858295249522,-3.4239730644226074,0.7403196815500804,-0.08342895550971859,0.32049783761679923,0.2287375362733549,0.0,0.0,0.0,0.0
12.466332912445068,0.3730913,0.027255116,-3.2298121,0.8508723974557896,nan,nan,nan,nan,nan,2.4599668979644775,3.6599668979644777,0.0003535747528076172,-0.5847049267936023,0.13461110126318762,1.1498125119027027,-3.4639867591857914,0.7401507122994991,-0.1496030859793249,0.3002535061277681,0.23793917239141582,0.0,0.04509942246873744,0.0,0.0
12.566169738769531,0.37322384,0.10992834,-3.2690897,0.8857029970127841,nan,nan,nan,nan,nan,2.55979061126709,3.75979061126709,0.0003445148468017578,-0.5998183653607267,-0.0147624041397603,1.1811730563392568,-3.503916244506836,0.7397586676249697,-0.21179268931865886,0.2674147821346509,0.2500796779390836,0.0,0.08700613654970624,0.0,0.0
12.666079044342041,0.36361587,0.1790467,-3.3108659,0.9155490352750707,nan,nan,nan,nan,nan,2.6596879959106445,3.8596879959106447,0.0003745555877685547,-0.5773448469265576,-0.16331848556532014,1.2125567453101593,-3.543875198364258,0.7387318296401635,-0.2680358518306602,0.2200298315259602,0.2604088533705037,0.0,0.018598448127582934,0.0,0.0
12.766280889511108,0.33223587,0.2535465,-3.3470058,0.9485913177412106,nan,nan,nan,nan,nan,2.759899616241455,3.9598996162414553,0.0003571510314941406,-0.5184302698514357,-0.30204313483634665,1.2440391543337197,-3.5839598464965823,0.7382201541351169,-0.316144555970234,0.16060207405367022,0.2668737647083333,0.0,0.0,0.0,0.0
12.866280794143677,0.28009397,0.32290947,-3.3889234,0.9853940416240583,nan,nan,nan,nan,nan,2.859903573989868,4.059903573989868,0.00034499168395996094,-0.42702356401027736,-0.42148650723357745,1.2754563242329515,-3.6239614295959472,0.7378296653467151,-0.348752440085742,0.08704800046851144,0.26558931907907074,0.0,0.0,0.0,0.0
12.96642780303955,0.21162932,0.37473303,-3.431379,1.0235394664231419,nan,nan,nan,nan,nan,2.960036516189575,4.160036516189575,0.0003535747528076172,-0.30861649916377454,-0.5145443192222571,1.3069140157926447,-3.6640146064758303,0.7373405355300835,-0.36433325052952265,0.007206592971509676,0.25561569408629975,0.0,0.0,0.0,0.0
13.066219329833984,0.13743712,0.40370396,-3.4670548,1.0573657792666569,nan,nan,nan,nan,nan,3.059875249862671,4.259875249862671,0.000354766845703125,-0.1711918650185912,-0.5750594276693988,1.3382792790177551,-3.7039500999450685,0.737025357725315,-0.3577492864486951,-0.0713447836274243,0.23724525401952362,0.3065850903023165,0.0,0.0,0.0
13.166686058044434,0.049867466,0.40993202,-3.4972062,1.0935078360952821,nan,nan,nan,nan,nan,3.1603126525878906,4.360312652587891,0.00034809112548828125,-0.02214296866533559,-0.5995912682308557,1.3698326196724742,-3.7441250610351564,0.7371599689004914,-0.33259244435664426,-0.14101728345098055,0.21376800415763225,0.8276942601528549,0.0,0.0,0.0
13.266481637954712,-0.049906917,0.39530522,-3.5362177,1.1307663044612104,nan,nan,nan,nan,nan,3.2600903511047363,4.4600903511047365,0.0003726482391357422,0.1273374117955533,-0.5863319738486121,1.401178708137736,-3.7840361404418945,0.7371433308629646,-0.28864744793752417,-0.20402784341245891,0.18714296808113637,1.5114128514384566,0.0,0.0,0.0
13.36615252494812,-0.13874964,0.36271423,-3.569844,1.1629210353109163,nan,nan,nan,nan,nan,3.3598382472991943,4.5598382472991945,0.00033974647521972656,0.268811884018957,-0.5364141786065864,1.4325154339272907,-3.823935298919678,0.7373769414650004,-0.2334896660680194,-0.2610134643778874,0.16503861044335105,1.96618108446186,0.0,0.0,0.0
13.466453313827515,-0.22787616,0.31066015,-3.6035442,1.1943600261064917,nan,nan,nan,nan,nan,3.4600722789764404,4.660072278976441,0.0003459453582763672,0.3940336559233169,-0.4524792569827981,1.464004883682983,-3.864028911590576,0.7380984045317275,-0.16847544622436256,-0.3125502385122668,0.15002761721457183,2.22899034698471,0.0,0.0,0.0
13.566152334213257,-0.30737644,0.24585938,-3.6368668,1.220713443844812,nan,nan,nan,nan,nan,3.5598373413085938,4.759837341308594,0.0003504753112792969,0.49398037556259017,-0.34056334001040445,1.4953470023737452,-3.9039349365234375,0.7391484226717181,-0.10022912007554137,-0.3591591732431771,0.14686043571012178,2.0289813503341163,0.0,0.0,0.0
13.666072130203247,-0.35879984,0.18054956,-3.6687577,1.242676947161475,nan,nan,nan,nan,nan,3.6597025394439697,4.85970253944397,0.00036263465881347656,0.5630855641949665,-0.20720677449165686,1.5267205796548837,-3.943881015777588,0.7399442420280362,-0.02960750904263716,-0.4013114583490676,0.1542970672392416,1.2842045780991722,0.0,0.0,0.0
13.766276121139526,-0.39765057,0.09676164,-3.702746,1.269031190659966,nan,nan,nan,nan,nan,3.760017156600952,4.960017156600952,0.0004558563232421875,0.5969732061464093,-0.060191287935021584,1.5582353460856886,-3.984006862640381,0.7406156367007174,0.041264044663573377,-0.43943322941949564,0.16973215508964598,0.05391068084639883,-0.017447295479501523,0.0,0.0
13.866384029388428,-0.41465458,0.0012143309,-3.7388692,1.2991446536855662,nan,nan,nan,nan,nan,3.8600099086761475,5.060009908676148,0.0003674030303955078,0.5931888019983298,0.09015012581126149,1.5896489956188546,-4.024003963470459,0.7407195675777811,0.11151709995273991,-0.426318583310317,0.19173534893889346,0.0,-0.2674977179836482,0.0,0.0
13.966461658477783,-0.40898457,-0.08646762,-3.7726414,1.3255009508445372,nan,nan,nan,nan,nan,3.9600937366485596,5.16009373664856,0.0003712177276611328,0.5520837718290533,0.23495426976968475,1.621091257488982,-4.064037494659424,0.7405012500096707,0.1773484062471796,-0.3781883840992499,0.21841068375433426,0.0,-0.4525595411000016,0.0,0.0
14.066338777542114,-0.38578498,-0.17831632,-3.8118246,1.3525889532770519,nan,nan,nan,nan,nan,4.060052394866943,5.2600523948669435,0.0003559589385986328,0.47634620273001854,0.36482090831624775,1.6524941961211388,-4.104020957946777,0.7400508975740452,0.2368850596342851,-0.3156048686406299,0.24410159525990519,0.0,-0.7024343008429162,0.0,0.0
14.166148900985718,-0.34825093,-0.2554188,-3.856255,1.3773393849781823,nan,nan,nan,nan,nan,4.159811496734619,5.359811496734619,0.00034046173095703125,0.37093923362581604,0.47159737590140627,1.6838344422767593,-4.1439245986938475,0.7390684728300799,0.29072894176359554,-0.23983246908959335,0.2651328025701375,0.0,-0.8191189869371436,0.0,0.0
14.266646146774292,-0.2871425,-0.32164696,-3.9003701,1.4045500836141072,nan,nan,nan,nan,nan,4.260305166244507,5.460305166244507,0.0003516674041748047,0.24132261481771317,0.5493299514659123,1.7154054596632138,-4.184122066497803,0.7382256149077131,0.33942438361023075,-0.15399341423297855,0.2789056600960319,0.0,-0.7737411668983457,0.0,0.0
14.366224527359009,-0.2169061,-0.3654756,-3.943431,1.4300850296305234,nan,nan,nan,nan,nan,4.359853982925415,5.559853982925415,0.00037384033203125,0.09779954949935075,0.5919757158175697,1.7466796427790436,-4.223941593170166,0.7376871671101697,0.3834636683509614,-0.060673475000619405,0.28273036314299266,0.0,-0.4786848810170784,0.0,0.0
14.466323852539062,-0.1296036,-0.3924511,-3.9924808,1.458233274064721,nan,nan,nan,nan,nan,4.45996356010437,5.65996356010437,0.00040459632873535156,-0.05265598009987028,0.5976849904085948,1.778129994000982,-4.263985424041748,0.7372041429126464,0.41900903212417706,0.029469326040046838,0.2765333567212376,-0.33498552292806905,0.0,0.0,0.0
14.56633710861206,-0.03954171,-0.39651647,-4.036531,1.485769452126981,nan,nan,nan,nan,nan,4.5599846839904785,5.759984683990479,0.00036978721618652344,-0.1996699472580973,0.5658020079161513,1.8095525568014215,-4.303993873596192,0.7368855460192775,0.41551341661946134,0.10314587022616495,0.26056977967923983,-0.9227883425424881,0.0,0.0,0.0
14.666128158569336,0.05142982,-0.37104794,-4.0855165,1.5184734301642377,nan,nan,nan,nan,nan,4.659821510314941,5.859821510314942,0.00037550926208496094,-0.3339017763251411,0.4985073758400325,1.8409172208152866,-4.343928604125977,0.7363676337646932,0.38145150382226684,0.16977761613668432,0.23561284706340968,-1.9651365867753026,0.0,0.0,0.0
14.76620101928711,0.12780955,-0.32541847,-4.131677,1.5510411588297868,nan,nan,nan,nan,nan,4.759841203689575,5.959841203689575,0.0003714561462402344,-0.44740516894932797,0.3997857110971117,1.872339334207292,-4.38393648147583,0.7358458054673654,0.32547183046301076,0.23003817276469926,0.20627615909848304,-2.904269251827806,0.0,0.0,0.0
14.866458654403687,0.20193824,-0.25900352,-4.1796823,1.5864010382346057,nan,nan,nan,nan,nan,4.860084056854248,6.060084056854248,0.0005373954772949219,-0.5329401113267875,0.2756353347069118,1.9038315553149936,-4.4240336227417,0.7356668434100001,0.25515029847684806,0.284536740009129,0.17879894170756996,-3.7487293688844283,0.0,0.0,0.0
14.967034816741943,0.26261836,-0.1851179,-4.2208605,1.6169982122082744,nan,nan,nan,nan,nan,4.960721969604492,6.160721969604492,0.000415802001953125,-0.5849593255575216,0.13350126382656255,1.9354478880518713,-4.464288787841797,0.7361567338040037,0.17895239757356024,0.3338242673386533,0.16087867312942436,-4.170333903257642,0.0,0.0,0.0
15.066625833511353,0.319078,-0.093372144,-4.2622194,1.6475584805310417,nan,nan,nan,nan,nan,5.060247898101807,6.260247898101807,0.00039768218994140625,-0.5998010029845109,-0.015451757789155625,1.966714880632758,-4.504099159240723,0.7374495171921087,0.10923290987969006,0.3783990235769816,0.15501730429575958,-4.224787034767385,0.0,0.0,0.0
15.166338682174683,0.34320492,-0.0022825226,-4.301268,1.6762675769348692,nan,nan,nan,nan,nan,5.160036087036133,6.360036087036133,0.0003733634948730469,-0.5772017470878007,-0.1638235122282224,1.998064264759869,-4.5440144348144536,0.7384403577759217,0.028149558511991774,0.4187116341168126,0.15980078387746968,-3.6319863804555728,0.0,0.0,0.0
15.266286373138428,0.34986755,0.08914916,-4.3355722,1.7039947217183742,nan,nan,nan,nan,nan,5.259897708892822,6.459897708892822,0.0004534721374511719,-0.5184317177466229,-0.30204064963889543,2.0294367185199227,-4.583959083557129,0.7393543132316974,-0.05225054227957578,0.4551696364858467,0.17735166603627303,-2.4153609388176536,0.09997961625399665,0.0,0.0
15.366428136825562,0.33927053,0.17944981,-4.367563,1.7309519216938853,nan,nan,nan,nan,nan,5.3600475788116455,6.560047578811646,0.00041985511779785156,-0.4268709901352423,-0.4216410295274379,2.0608997280794177,-4.624019031524658,0.7401795471792251,-0.12374879384009445,0.48814160031902976,0.20468357370115675,-0.40682302260412156,0.4357124460870512,0.0,0.0
15.46634292602539,0.30826065,0.27181363,-4.402761,1.7599160813836932,nan,nan,nan,nan,nan,5.45995831489563,6.65995831489563,0.0004062652587890625,-0.3087176224058941,-0.5144836534002337,2.092287611529037,-4.663983325958252,0.7399525603234628,-0.1884105309458978,0.4506373818232542,0.23843342949672225,0.0,0.8760708546364311,0.0,0.0
15.56642746925354,0.26001206,0.34606543,-4.437968,1.7865249839972859,nan,nan,nan,nan,nan,5.560039281845093,6.760039281845093,0.0006284713745117188,-0.17095477800963413,-0.575129953902313,2.1237289745822965,-4.7040157127380375,0.7390471891984368,-0.24688944692331802,0.3623114930210525,0.26966684331814567,0.0,1.328413372489868,0.0,0.0
15.666564464569092,0.19235328,0.4021726,-4.4807744,1.8160697230454605,nan,nan,nan,nan,nan,5.660191535949707,6.860191535949707,0.0004222393035888672,-0.02232548280653273,-0.5995845001477733,2.155192733155848,-4.744076614379883,0.7379476346342903,-0.29977673029924296,0.26359835723070774,0.29379278702263273,0.0,1.68178805187971,0.0,0.0
15.76643419265747,0.11900685,0.4339383,-4.5236106,1.8446857638319178,nan,nan,nan,nan,nan,5.760142087936401,6.9601420879364015,0.00036406517028808594,0.12741365078540495,-0.5863154113559824,2.186593125140212,-4.784056835174561,0.7365875655446662,-0.34760704138034054,0.1500952129949279,0.3058605986842952,0.0,1.8947443207553825,0.0,0.0
15.866366863250732,0.03551369,0.44525543,-4.571653,1.876436070641359,nan,nan,nan,nan,nan,5.8599770069122314,7.059977006912232,0.0004208087921142578,0.26899893725610385,-0.5363204002786829,2.2179571899428323,-4.823990802764893,0.735781389336005,-0.39086391736418014,0.04053103048672784,0.30519304690005744,0.0,1.7386085682584738,0.0,0.0
15.966387510299683,-0.040946208,0.43429404,-4.6173697,1.9056215607429816,nan,nan,nan,nan,nan,5.960032224655151,7.1600322246551515,0.0005955696105957031,0.39398810397611855,-0.45251892106883573,2.2493904636442807,-4.864012889862061,0.7355340145504842,-0.4299846606248435,-0.04918953299259897,0.29325073398480905,0.6608999682884877,1.07731086371439,0.0,0.0
16.06659984588623,-0.12333337,0.402146,-4.6705484,1.9357232964530064,nan,nan,nan,nan,nan,6.060240745544434,7.260240745544434,0.0004673004150390625,0.4943254070126746,-0.34006233543536335,2.2808718989495675,-4.904096298217774,0.7356311284079143,-0.4647667743198456,-0.1209804719095171,0.2749406795041885,1.1829269939599947,0.0,0.0,0.0
16.166760683059692,-0.19170181,0.35230738,-4.7204976,1.9630731688766723,nan,nan,nan,nan,nan,6.160416841506958,7.360416841506958,0.00036525726318359375,0.5634566418636622,-0.20619556915638282,2.3123431476636847,-4.944166736602783,0.7354100684794537,-0.43872821340672175,-0.18590691021402994,0.2502733581932538,1.9683552928825816,0.0,0.0,0.0
16.266256093978882,-0.24984005,0.2776965,-4.7714953,1.9931188102467825,nan,nan,nan,nan,nan,6.259976625442505,7.459976625442505,0.0004487037658691406,0.596967071608703,-0.06025209884252691,2.3436207762441748,-4.983990650177002,0.7349759542251721,-0.37327612941029437,-0.2446252172107963,0.2252837167697417,2.753360985340974,0.0,0.0,0.0
16.366196632385254,-0.28480798,0.20032927,-4.8123455,2.0193374172238836,nan,nan,nan,nan,nan,6.359838008880615,7.559838008880615,0.0004487037658691406,0.5932276943142184,-0.08989384127200355,2.374993155102823,-4.976064796447754,0.7302622203757898,-0.24936613029104784,-0.29772900153353593,0.23117341373843417,0.5678723397536534,0.0,0.8102118081668257,0.0
16.466657876968384,-0.30733225,0.10630002,-4.8544865,2.0487929625795704,nan,nan,nan,nan,nan,6.460270643234253,7.660270643234253,0.0004699230194091797,0.5519792531314066,-0.2351997111233229,2.4065449977294286,-4.935891742706299,0.7231680007126288,-0.09575466788889664,-0.3098403399982419,0.25273632263467805,0.0,0.0,0.2659331119674584,0.0
16.566680192947388,-0.30404162,0.0016686984,-4.9001846,2.083038565805653,nan,nan,nan,nan,nan,6.560317277908325,7.760317277908325,0.0003933906555175781,0.47610322726994425,-0.3651379424041601,2.4379755749802734,-4.8958730888366695,0.7174749290734898,0.029300305836617184,-0.29110952402531975,0.27186377703514525,0.0,-0.8630504306820774,0.0,0.0
16.666521072387695,-0.28457606,-0.09215983,-4.935104,2.113937040414992,nan,nan,nan,nan,nan,6.6601457595825195,7.86014575958252,0.00038170814514160156,0.3705429165715881,-0.47190883333396194,2.469337617444941,-4.855941696166992,0.7139672486027648,0.10299301138386885,-0.2748984311911277,0.2881072006713632,0.0,-1.821022629740034,0.0,0.0
16.766412258148193,-0.24555214,-0.19045758,-4.969636,2.1466653444357324,nan,nan,nan,nan,nan,6.760078430175781,7.960078430175781,0.00040268898010253906,0.24163561123330976,-0.5491923446151674,2.5007323918238806,-4.815968627929688,0.7122765408486299,0.1696393733397051,-0.2727534714685898,0.30226703838489916,0.0,-2.3556442253288834,0.0,0.0
16.866374015808105,-0.19614643,-0.27567703,-4.9979205,2.17676145436339,nan,nan,nan,nan,nan,6.860002756118774,8.060002756118774,0.0004658699035644531,0.09757819832032742,-0.5920122424515889,2.5321245446536222,-4.7759988975524905,0.7121062816399052,0.2299131484571122,-0.28422129850928685,0.3142628350120165,0.0,-2.40243225689648,0.0,0.0
16.966408729553223,-0.13857268,-0.35384265,-5.021014,2.2066547757744273,nan,nan,nan,nan,nan,6.960023880004883,8.160023880004882,0.00044918060302734375,-0.05274658880498296,-0.5976770008704015,2.563547107454062,-4.735990447998047,0.7131977005682782,0.28442367026640686,-0.3031313676303411,0.3257515204155419,0.0,-1.7128737721208975,0.0,0.0
17.06649613380432,-0.06558076,-0.42844555,-5.036599,2.2396398898923007,nan,nan,nan,nan,nan,7.060138702392578,8.260138702392577,0.00043845176696777344,-0.1998889488554783,-0.5657246751958518,2.5949991065069247,-4.695944519042969,0.7153589207462999,0.3337220090901094,-0.3191052818769862,0.3329604432354624,0.0,-0.1856722821492643,0.0,0.0
17.16625475883484,0.012011731,-0.49382105,-5.04528,2.272399853405962,nan,nan,nan,nan,nan,7.159965515136719,8.359965515136718,0.00040435791015625,-0.33408217603269846,-0.49838649626294756,2.6263606246617526,-4.656013793945313,0.7172907257218876,0.31936441527868464,-0.3210280965998216,0.33302517824352634,0.0,0.0,0.0,0.0
17.26617932319641,0.08269753,-0.5456328,-5.0472856,2.30226944170128,nan,nan,nan,nan,nan,7.259833335876465,8.459833335876464,0.00046181678771972656,-0.44739726351076353,-0.39979455799582914,2.6577350258583534,-4.616066665649415,0.7182640272011911,0.24962671421532662,-0.2978084186486669,0.32505817499318307,0.0,0.0,0.0,0.0
17.36648654937744,0.14548957,-0.5881842,-5.046202,2.331861010143527,nan,nan,nan,nan,nan,7.360122203826904,8.560122203826904,0.0006346702575683594,-0.5329665350841551,-0.27558423844695823,2.689241702937347,-4.575951118469239,0.7186135154049823,0.16306125796813548,-0.25740265640634,0.31493366048073,0.0,0.0,0.0,0.0
17.466431617736816,0.19612592,-0.62225145,-5.045618,2.363105261840568,nan,nan,nan,nan,nan,7.460105895996094,8.660105895996093,0.0004730224609375,-0.5847519161774902,-0.1344068321431369,2.720652506217098,-4.535957641601563,0.7181205178656414,0.0674518536013065,-0.19010937938398462,0.30495718730941845,0.0,0.0,0.0,0.0
17.566547870635986,0.22620103,-0.6437201,-5.0393615,2.3947340476100756,nan,nan,nan,nan,nan,7.560181140899658,8.760181140899657,0.00038313865661621094,-0.5998035870251142,0.01535112347048964,2.7520920716366217,-4.495927543640137,0.7173694643180466,-0.0168161781188891,-0.11869382437768046,0.30358899766325365,0.0,0.0075442807839884996,0.0,0.0
17.66643714904785,0.23273799,-0.65478724,-5.0364447,2.4242339597884226,nan,nan,nan,nan,nan,7.660123825073242,8.860123825073241,0.0004107952117919922,-0.577165608375205,0.16395078685044293,2.7834899918745992,-4.455950469970704,0.7166044440919662,-0.08907040945864758,-0.02793569168072204,0.3083190244063424,0.0,0.0,0.0,0.0
17.7664692401886,0.22246975,-0.65251666,-5.033293,2.454470719499409,nan,nan,nan,nan,nan,7.760087251663208,8.960087251663207,0.0003867149353027344,-0.5182877749356417,0.3022875821999005,2.814894428534869,-4.415965099334717,0.7158304877410884,-0.142532596312703,0.057063780817460164,0.32096877003796354,-0.39887291724572327,0.0,0.0,0.0
17.866366863250732,0.1968798,-0.6371781,-5.025831,2.48561858235313,nan,nan,nan,nan,nan,7.8600172996521,9.060017299652099,0.0005095005035400391,-0.4269030757090559,0.4216085434975767,2.846288378998347,-4.37599308013916,0.7154075980872543,-0.16466876174641287,0.12810180049649864,0.3363142901498233,-1.3316489185459033,0.0,0.0,0.0
17.966256141662598,0.15019642,-0.60943645,-5.006495,2.5200814630332635,nan,nan,nan,nan,nan,7.959884881973267,9.159884881973266,0.0005335807800292969,-0.30881256874000446,0.5144266686207083,2.877662705293542,-4.336046047210694,0.716061008395748,-0.15972462396553738,0.19234731213834377,0.3501890652771832,-2.1845648354302964,0.0,0.0,0.0
18.066652297973633,0.096127,-0.57502496,-4.9787946,2.5520890902467803,nan,nan,nan,nan,nan,8.060283899307251,9.26028389930725,0.00036978721618652344,-0.1706011611556202,0.5752349466195131,2.90920398682195,-4.2958864402770995,0.717804994685619,-0.12813923455130422,0.25044980126699795,0.35674969751007574,-3.059513793715271,0.0,0.0,0.0
18.166436433792114,0.031421073,-0.5151301,-4.952959,2.585599255823662,nan,nan,nan,nan,nan,8.160090446472168,9.360090446472167,0.0004885196685791016,-0.022477815860938253,0.5995788086599807,2.9405591383572967,-4.255963821411133,0.7197843883829371,-0.07568275013674002,0.3029966509483467,0.35378314780074216,-3.592741740689049,0.0,0.0,0.0
18.266129732131958,-0.029945618,-0.4415491,-4.929512,2.614621567444711,nan,nan,nan,nan,nan,8.259869813919067,9.459869813919067,0.0005667209625244141,0.12701240579339299,0.5864024631382225,2.9719057511323985,-4.2160520744323735,0.7219954165535063,-0.002254105141603502,0.3505190798983407,0.33770606437031403,-3.768338059667157,0.0,0.0,0.0
18.366366863250732,-0.093212605,-0.3451594,-4.9047756,2.6432687532547865,nan,nan,nan,nan,nan,8.360004663467407,9.560004663467407,0.0005588531494140625,0.26903621543517836,0.5363017012692727,3.0033640419033367,-4.175998134613037,0.7245388453916852,0.07368621847687597,0.39349751280159473,0.31377525843980886,-3.3969788992233667,-0.1701207923363952,0.0,0.0
18.46728229522705,-0.14543264,-0.24646449,-4.8845983,2.6673146980302036,nan,nan,nan,nan,nan,8.46116328239441,9.661163282394408,0.0007317066192626953,0.3952728669917544,0.45139712074859184,3.0351439593101723,-4.135534687042236,0.7271852458075636,0.14313483515862563,0.43236643713126627,0.28548985291046175,-2.2382042769022754,-0.5932033159752841,0.0,0.0
18.56640625,-0.19833338,-0.12491919,-4.8645887,2.691152152774542,nan,nan,nan,nan,nan,8.56004810333252,9.760048103332519,0.0005168914794921875,0.494160703587041,0.34030162948531495,3.0662095420112436,-4.095980758666992,0.7297163944252052,0.2059429192197574,0.46751879556989484,0.26081051482065853,-0.41655984135576973,-0.8129869812876228,0.0,0.0
18.666179895401,-0.2429444,-0.0067950594,-4.8417177,2.7123317359361296,nan,nan,nan,nan,nan,8.659812450408936,9.859812450408935,0.0004305839538574219,0.5631427807608231,0.2070512218678448,3.0975514359977887,-4.056075019836426,0.7315019277817503,0.26274542461029116,0.43080495944485825,0.2502167166147734,0.0,-0.9485335717802339,0.0,0.0
18.766287326812744,-0.27265346,0.11895936,-4.818262,2.7351956509606405,nan,nan,nan,nan,nan,8.760024785995483,9.960024785995483,0.00041937828063964844,0.5969743601901554,0.06017984110609316,3.129034069725566,-4.015990085601807,0.7317663242790684,0.31411659230108097,0.32195425806895944,0.2662810634923067,0.0,-0.8059946315286945,0.0,0.0
18.866312503814697,-0.27934098,0.21898936,-4.8000264,2.7551244149547816,nan,nan,nan,nan,nan,8.860067367553711,10.06006736755371,0.00040340423583984375,0.5931757772415648,-0.09023578721253274,3.1604633736525147,-3.9759730529785156,0.7308551978900157,0.3585585727207308,0.1813618914165743,0.3075867967172148,0.0,0.0,0.0,0.0
18.96620464324951,-0.2705461,0.31961262,-4.7819843,2.7779110853518385,nan,nan,nan,nan,nan,8.95993161201477,10.15993161201477,0.0005414485931396484,0.5521794613196898,-0.2347292962045794,3.1918366513280305,-3.936027355194092,0.7295860150621183,0.35699998694284757,0.04566213515980986,0.3544697353523566,0.0,0.0,0.0,-0.1796708590683357
19.065985202789307,-0.24125074,0.40875486,-4.7591968,2.805547742155863,nan,nan,nan,nan,nan,9.059632301330566,10.259632301330566,0.00046062469482421875,0.47673111879987917,-0.3643177738840304,3.2231585466392647,-3.8961470794677737,0.7282460150380247,0.3063946368128938,-0.05415513560399258,0.3970704147787425,1.21457376607442,0.0,0.0,-0.21317199003943188
19.16635251045227,-0.19448778,0.47103402,-4.735382,2.832961044706302,nan,nan,nan,nan,nan,9.160005331039429,10.360005331039428,0.0004029273986816406,0.37070944683401486,-0.4717780262242178,3.254691663914456,-3.855997867584229,0.7269870553254383,0.22991975668520656,-0.12547127390287843,0.43469389146299936,1.9432162260901116,0.0,0.0,0.0
19.26606059074402,-0.12764171,0.5129173,-4.7068563,2.864121488604943,nan,nan,nan,nan,nan,9.259724617004395,10.459724617004394,0.0004863739013671875,0.24212387366220733,-0.5489772580014654,3.2860194015353317,-3.8161101531982426,0.725953806746085,0.12892407720060997,-0.1899683110392397,0.4500586353664879,2.8657753660692036,0.0,0.0,0.0
19.36625909805298,-0.05617918,0.5250179,-4.6785574,2.893681971965416,nan,nan,nan,nan,nan,9.35996675491333,10.55996675491333,0.0004582405090332031,0.09763176372017368,-0.5920034110652472,3.317511397938816,-3.776013298034668,0.7254302693109522,0.014956705834207922,-0.248298275316542,0.4452122851466332,3.4166943014031017,0.0,0.0,0.0
19.46638011932373,0.027639078,0.5110631,-4.646147,2.9257919115087043,nan,nan,nan,nan,nan,9.459998607635498,10.659998607635497,0.0005612373352050781,-0.05270862641193399,-0.5976803499377967,3.34893733130251,-3.7360005569458012,0.7258539496292015,-0.0705785275958123,-0.3010508494448381,0.4231496004114031,3.6458177807545127,1.4503867219653581,0.0,0.0
19.56615424156189,0.10702924,0.4712323,-4.6136847,2.955196383571901,nan,nan,nan,nan,nan,9.559823036193848,10.759823036193847,0.0003871917724609375,-0.1994400651068649,-0.5658830801766116,3.380298100443281,-3.696070785522461,0.7273098437359071,-0.14032429523112327,-0.34875933189704234,0.3896219419006674,3.3104253066425957,2.75602454884654,0.0,0.0
19.666210174560547,0.19105539,0.4021999,-4.5762906,2.9861790090596756,nan,nan,nan,nan,nan,9.659854173660278,10.859854173660278,0.00044274330139160156,-0.3339426986378852,-0.4984799635155325,3.411723809102758,-3.656058330535889,0.7296156189591437,-0.20340111728822774,-0.391906028252688,0.3496844316892673,2.2777922263581973,4.157022987224823,0.0,0.0
19.76687216758728,0.26231122,0.31602162,-4.540023,3.013583750940157,nan,nan,nan,nan,nan,9.7606840133667,10.960684013366699,0.00042700767517089844,-0.44825099539451724,-0.39883711603588806,3.443400437471191,-3.6157263946533202,0.7325241049103467,-0.26044666450519305,-0.4309271270325815,0.30762707329164973,0.199621277773937,5.683353779740729,0.0,0.0
19.86627984046936,0.32819426,0.2027674,-4.498174,3.042034029731139,nan,nan,nan,nan,nan,9.860020637512207,11.060020637512206,0.0004215240478515625,-0.5328961709885277,-0.27572027663152704,3.4746079583359846,-3.5759917449951173,0.734849765931408,-0.3120376348672848,-0.38546196256002346,0.2858329163510423,0.0,6.833843874548913,0.0,0.0
19.967071294784546,0.37839258,0.07998959,-4.458166,3.0671636914259963,nan,nan,nan,nan,nan,9.961038589477539,11.161038589477538,0.0008192062377929688,-0.5850653743106793,-0.13303573874228203,3.506343683913482,-3.5355845642089845,0.7362719178854208,-0.3586955836950711,-0.2540583339347471,0.30738229044412685,0.0,7.695980918066436,0.0,0.0
20.06632351875305,0.40576813,-0.05985512,-4.4061785,3.0954740448108695,nan,nan,nan,nan,nan,10.060083389282227,11.260083389282226,0.0004379749298095703,-0.5998073403358872,0.015203765296436411,3.53745952545775,-3.4959666442871096,0.7378367390708317,-0.40089219627159906,-0.10226922928414768,0.3537398979908833,0.0,7.679264498875674,0.0,-0.4934911729907524
20.166889190673828,0.4074092,-0.19126222,-4.3569436,3.12379016043801,nan,nan,nan,nan,nan,10.160566091537476,11.360566091537475,0.0004162788391113281,-0.5769830145218124,0.16459222628460277,3.569027097379544,-3.45577356338501,0.7401169465388902,-0.4390540563119021,0.032994992825902736,0.3964103629513543,-1.057784692983995,6.386525178549239,0.0,-1.4290923915281757
20.26624608039856,0.38478664,-0.33172095,-4.3031373,3.156921936503931,nan,nan,nan,nan,nan,10.259891033172607,11.459891033172607,0.0005488395690917969,-0.51843678528596,0.30203195139315864,3.6002309480754606,-3.4160435867309573,0.7423327597083565,-0.47356695848134694,0.10633442006974697,0.43500076659389547,-2.5047879991478785,4.018450063784889,0.0,-2.0231633254603842
20.36649179458618,0.3474027,-0.4454304,-4.2571898,3.186429267800433,nan,nan,nan,nan,nan,10.36016297340393,11.56016297340393,0.0004203319549560547,-0.4267486885943355,0.4217648121678892,3.6317323071546523,-3.375934810638428,0.7433651924415218,-0.5047798085599254,0.17266128346049203,0.46990123591556426,-3.8486501240150344,0.011848353879633677,0.0,-2.3286000053951645
20.466192960739136,0.27584624,-0.5667402,-4.2125573,3.2217241659841056,nan,nan,nan,nan,nan,10.459856748580933,11.659856748580932,0.0005040168762207031,-0.30884894149689945,0.5144048321470598,3.663052030325123,-3.336057300567627,0.7418929045359999,-0.40548313748570897,0.23264610980263953,0.5014645947794761,-4.598323047893054,0.0,0.0,-1.6340322611128595
20.566681623458862,0.19124182,-0.6519456,-4.173502,3.254189893867274,nan,nan,nan,nan,nan,10.560373783111572,11.760373783111572,0.000583648681640625,-0.17047120971091084,0.575273471194091,3.6946303880493314,-3.2958504867553713,0.7394171849762068,-0.23101745219577302,0.2868953115189938,0.5265058721799197,-4.815310052820529,0.0,0.0,0.0
20.666550874710083,0.09015204,-0.7141722,-4.1307497,3.2891641763157393,nan,nan,nan,nan,nan,10.660213947296143,11.860213947296142,0.0004000663757324219,-0.02229171066028897,0.5995857566986043,3.725996100682876,-3.255914421081543,0.7377481847808942,-0.05246213216914329,0.33595731713480137,0.49135571010370344,-4.5527525335728605,0.0,0.0,0.0
20.766196489334106,-0.00850072,-0.741162,-4.091493,3.3207071088063373,nan,nan,nan,nan,nan,10.759862899780273,11.959862899780273,0.0004856586456298828,0.12700221578466223,0.5864046701602794,3.7573017423890827,-3.2160548400878906,0.7370456307910358,0.05998200397343515,0.38032811557771906,0.43510786294839865,-3.3358773985881025,-2.904042016666483,0.0,0.0
20.866865634918213,-0.12034186,-0.7358436,-4.0511136,3.352876284377992,nan,nan,nan,nan,nan,10.860692977905273,12.060692977905273,0.0004229545593261719,0.2699635729848048,0.5358354871238727,3.788978445658921,-3.175722808837891,0.7363212943874505,0.13074098920963803,0.4204562703433224,0.37583106122796484,-1.294442057306989,-5.777460156294925,0.0,0.0
20.96658182144165,-0.2118731,-0.6999754,-4.0130258,3.3807296244542737,nan,nan,nan,nan,nan,10.960580110549927,12.160580110549926,0.0004703998565673828,0.394610843131352,0.4519759755597232,3.8203589138693803,-3.1357679557800298,0.7355327612738208,0.19473414710307257,0.4036889629711997,0.3203283589703023,0.0,-8.896681658521707,0.0,0.0
21.06629776954651,-0.30617037,-0.63147795,-3.9665563,3.4098714641121823,nan,nan,nan,nan,nan,11.060045003890991,12.26004500389099,0.0004506111145019531,0.4941580527087262,0.3403054788614484,3.8516067316904183,-3.0959819984436034,0.7341514256941551,0.252608412025103,0.2701509446986105,0.3127742640934672,0.0,-11.365636249975418,0.0,0.0
21.166565656661987,-0.38501775,-0.54314834,-3.9235368,3.4385776347279498,nan,nan,nan,nan,nan,11.16026496887207,12.36026496887207,0.0005011558532714844,0.5633778964734246,0.20641062415771924,3.883091762263177,-3.055894012451172,0.7340751742510092,0.30494885982489817,0.08547024799764519,0.3498492243052509,0.0,-13.263233981061898,0.0,-0.1920887390619428
21.26644802093506,-0.45683143,-0.4246495,-3.8762493,3.4732151731064134,nan,nan,nan,nan,nan,11.260366439819336,12.460366439819335,0.00043702125549316406,0.5970258147121174,0.059667215179966614,3.914539566837323,-3.015853424072266,0.7361650518290644,0.35228462261296684,-0.04173999423134957,0.39289170741035995,1.923233388367278,-14.08159625030768,0.0,-0.897362119316041
21.366440296173096,-0.50291455,-0.31028822,-3.8338587,3.504429483926007,nan,nan,nan,nan,nan,11.360089778900146,12.560089778900146,0.0004343986511230469,0.5931706936925604,-0.09026919820341117,3.9458685777820945,-2.9759640884399414,0.7404862332283273,0.39509423798536497,-0.11424324258675987,0.43181855759448984,4.166489907064432,-13.851307402955568,0.0,-1.6027894592931675
21.46606469154358,-0.52773875,-0.16971269,-3.7900658,3.5395056760137704,nan,nan,nan,nan,nan,11.459741592407227,12.659741592407226,0.00041413307189941406,0.5522914983362305,-0.23446556434905647,3.977175118305169,-2.9361033630371094,0.7451232380979664,0.4338104867661832,-0.17981388077930452,0.46702330313757007,6.158060956386025,-12.289083862730388,0.0,-2.504715401223996
21.566691875457764,-0.5293119,-0.0043270937,-3.7380514,3.5787557673483787,nan,nan,nan,nan,nan,11.560435771942139,12.760435771942138,0.0006215572357177734,0.4759944651625536,-0.3652797135547148,4.008809127773782,-2.895825691223145,0.7499163724741484,0.4688247681751368,-0.2391147906075296,0.498861843961978,7.983077064947819,-9.123812916859997,0.0,-3.2579453494218034
21.666841983795166,-0.5111869,0.15226336,-3.690979,3.6157148238117243,nan,nan,nan,nan,nan,11.660732984542847,12.860732984542846,0.0011322498321533203,0.36984604317935016,-0.4724551876576002,4.040318426401974,-2.8557068061828614,0.7533467341627372,0.5004910566507084,-0.2927454704878898,0.5276560495780087,8.920922703824868,-5.069916889648945,0.0,-3.555638117891899
21.766574144363403,-0.47357556,0.317486,-3.6451075,3.6559178648418165,nan,nan,nan,nan,nan,11.760372877120972,12.960372877120971,0.0003745555877685547,0.2412291285534937,-0.5493710108272205,4.071621221854765,-2.8158508491516114,0.7535359648894749,0.5193740002344154,-0.3412480960422229,0.5536970130012644,8.852533544638725,0.0,0.0,-2.748277219868157
21.866196155548096,-0.42272314,0.4614238,-3.6050296,3.6922503157049,nan,nan,nan,nan,nan,11.859841108322144,13.059841108322143,0.000990152359008789,0.09781870424746425,-0.5919725509678191,4.102870088295482,-2.7760635566711427,0.7499637510537752,0.34562440770332975,-0.3851130011844257,0.5731600631315383,7.923952741631484,0.0,0.0,0.0
21.966485023498535,-0.34624523,0.58946365,-3.5675678,3.729869927735897,nan,nan,nan,nan,nan,11.960303783416748,13.160303783416747,0.00036144256591796875,-0.053167025950475746,-0.597639747131649,4.134431368499201,-2.735878486633301,0.7457589355066131,0.10733919968891768,-0.42478363511699546,0.4937191702534838,6.208096343062822,0.0,0.0,0.0
22.06611919403076,-0.26498115,0.6808013,-3.5385153,3.7625111475576976,nan,nan,nan,nan,nan,12.059758424758911,13.25975842475891,0.00039839744567871094,-0.1993481708478257,-0.5659154590392685,4.165675965559796,-2.6960966300964357,0.7423580004300775,-0.04899870887764144,-0.4606610453498476,0.40377295421985504,3.5832857387093586,2.9556927642062854,0.0,0.0
22.16647505760193,-0.16605754,0.74657416,-3.510611,3.794927844661226,nan,nan,nan,nan,nan,12.160141706466675,13.360141706466674,0.0004086494445800781,-0.3343028373389649,-0.49823851010045134,4.197212303595431,-2.6559433174133305,0.7378094996845707,-0.12080789400047011,-0.4823285855740077,0.3274415190752334,0.0,6.510331753841634,0.0,0.0
22.266223907470703,-0.06645812,0.7738259,-3.4853466,3.8216443112535727,nan,nan,nan,nan,nan,12.259899377822876,13.459899377822875,0.0007987022399902344,-0.4474636158539927,-0.3997202928134503,4.228552100342617,-2.6160402488708496,0.7319898304933894,-0.18575083384654523,-0.3364678758378162,0.29079856842702667,0.0,8.869072051636314,0.0,0.0
22.366188049316406,0.050222065,0.75899994,-3.4508953,3.849426410118582,nan,nan,nan,nan,nan,12.359843015670776,13.559843015670776,0.0004181861877441406,-0.5327730329494957,-0.2759581405970758,4.259950320186218,-2.5760627937316896,0.7278288529072338,-0.24448406454171065,-0.12342281671650351,0.3130330028898089,0.0,10.870295255804104,0.0,0.0
22.46638011932373,0.15089275,0.70829815,-3.416371,3.878051618144161,nan,nan,nan,nan,nan,12.46009612083435,13.66009612083435,0.0009751319885253906,-0.5847486139395258,-0.13442119808945055,4.291445762054362,-2.5359615516662597,0.7270945627113676,-0.2976013455897752,0.03907068560889152,0.35954705313322505,-2.395451405320853,11.845223180100477,0.0,-0.3960410585744912
22.56649923324585,0.25041068,0.6207275,-3.3722582,3.912650686157525,nan,nan,nan,nan,nan,12.560149192810059,13.760149192810058,0.0005011558532714844,-0.599804817699412,0.01530296260777997,4.32287836164316,-2.4959403228759767,0.729398305268778,-0.3456396624428496,0.11182916771594234,0.40166224996888333,-5.880736000080491,12.258221576224106,0.0,-0.9187547205386679
22.666300058364868,0.33026585,0.51312965,-3.3252692,3.946645962052477,nan,nan,nan,nan,nan,12.659943580627441,13.85994358062744,0.0005426406860351562,-0.5772398194652042,0.1636893118800934,4.354229693206818,-2.4560225677490237,0.7334343187613823,-0.38908465511836343,0.17763063473840796,0.43975047907252024,-8.361088721551265,11.409418586418461,0.0,-1.7495352641038053
22.76656699180603,0.40007657,0.37260354,-3.269834,3.9852592357516756,nan,nan,nan,nan,nan,12.760225534439087,13.960225534439086,0.0004076957702636719,-0.5181826858480892,0.3024676909808061,4.385734198145047,-2.4159097862243653,0.7392773663467971,-0.4283755277429871,0.23714030202280884,0.4741967907426781,-11.353498432501075,9.215547413275242,0.0,-2.72872795476023
22.866482973098755,0.44688097,0.23231651,-3.2212477,4.02231470697174,nan,nan,nan,nan,nan,12.86017656326294,14.060176563262939,0.0004012584686279297,-0.4267342829509795,0.42177938754082495,4.417134739932223,-2.3759293746948242,0.7448355846904742,-0.4639094886561508,0.2909597784045589,0.5053494175673355,-13.41375579357701,5.4779333764599,0.0,-3.3368989496148918
22.96626091003418,0.47660857,0.07976265,-3.1768372,4.060398527139817,nan,nan,nan,nan,nan,12.959923028945923,14.159923028945922,0.0005192756652832031,-0.3087632472816584,0.5144562732906319,4.448471016313344,-2.336030788421631,0.7483886590281216,-0.49604576596007954,0.3396331481305734,0.533523294856994,-14.273386323161452,0.6982386219874779,0.0,-3.2890336029946705
23.066582679748535,0.48741323,-0.077423535,-3.1337478,4.098673166077671,nan,nan,nan,nan,nan,13.060442209243774,14.260442209243774,0.0006182193756103516,-0.17037227532497837,0.5753027792394104,4.480050048150204,-2.2958231163024903,0.7485781807749453,-0.37694321418447835,0.38365247124105706,0.5590032444612589,-13.854733728932542,0.0,0.0,-0.6397148090104907
23.16617774963379,0.47833937,-0.2453636,-3.0893114,4.1397974935726305,nan,nan,nan,nan,nan,13.159825086593628,14.359825086593627,0.0008845329284667969,-0.02287768320016662,0.5995636843667175,4.511272099887695,-2.256069965362549,0.7470908267178827,-0.16019829727142762,0.4234627580161992,0.4988829129773026,-12.566011573665692,0.0,0.0,0.0
23.266366958618164,0.45193112,-0.39194807,-3.0508692,4.176618865743477,nan,nan,nan,nan,nan,13.260048866271973,14.460048866271972,0.00044655799865722656,0.12727627851561887,0.5863452472112438,4.542758328882944,-2.215980453491211,0.7464512108364539,0.02697949704986053,0.4594664677765979,0.3961568251827685,-10.153707929831388,-1.6183001379014834,0.0,0.0
23.366232872009277,0.40502512,-0.52925885,-3.0141695,4.213228210800895,nan,nan,nan,nan,nan,13.35998010635376,14.559980106353759,0.00055694580078125,0.2690031150477357,0.536318304828965,4.57415265385345,-2.1760079574584963,0.7450082258937282,0.10089411351760322,0.49202757751772197,0.3213507834402235,-6.257488388121365,-4.177956563439242,0.0,0.0
23.466084241867065,0.34770834,-0.6371449,-2.9854019,4.243077537668158,nan,nan,nan,nan,nan,13.459789752960205,14.659789752960204,0.00039076805114746094,0.3937122667849041,0.45275893252711474,4.605508779107071,-2.136084098815918,0.7414928062843215,0.16774116773218026,0.5214752615099894,0.2535835666824298,-0.6510351380642755,-6.584905298062418,0.0,0.0
23.565961360931396,0.2689375,-0.729237,-2.9556022,4.270818323505813,nan,nan,nan,nan,nan,13.55958867073059,14.75958867073059,0.0003657341003417969,0.4937674347363741,0.34087200001446366,4.636861533797436,-2.096164531707764,0.7358470556220059,0.22819644533098557,0.39506610849822793,0.22772409839289842,0.0,-8.131438494708675,0.0,0.0
23.666032314300537,0.18397243,-0.78720254,-2.9269874,4.295211785008677,nan,nan,nan,nan,nan,13.65969204902649,14.859692049026489,0.0005164146423339844,0.5630801009315665,0.20722162033652994,4.668309937582827,-2.0561231803894042,0.731106449945742,0.28287111473102644,0.16149818827335743,0.2695392389180417,0.0,-8.73182229746289,0.0,-0.09426147300787069
23.76590609550476,0.08332473,-0.81653404,-2.8919458,4.324113270042811,nan,nan,nan,nan,nan,13.75954818725586,14.959548187255859,0.00040268898010253906,0.5969018471292055,0.06089486754844481,4.699680668610552,-2.0161807250976564,0.7294148525390654,0.33231790569345576,-0.028092295715778256,0.3202607961819489,1.72690897637557,-8.223223525648645,0.0,-0.7127802217077073
23.86590838432312,-0.0036036123,-0.813251,-2.8505833,4.35102264239634,nan,nan,nan,nan,nan,13.85960340499878,15.059603404998779,0.0006849765777587891,0.5932805947456384,0.08954404446003944,4.731113942312,-2.0238413619995113,0.7352915752677176,0.3770366971065841,-0.10190050868415289,0.36613246338795913,1.9973456656487065,-5.820336007414355,0.0,-0.4392217400095271
23.96589422225952,-0.09379357,-0.78220385,-2.8026557,4.38162904640768,nan,nan,nan,nan,nan,13.959529399871826,15.159529399871825,0.0004208087921142578,0.552416459811066,0.2341709950651636,4.762506619451581,-2.06381175994873,0.7422177676187639,0.417479570476675,-0.16865133348118333,0.4062650410880813,1.270307920047485,-2.4423957432293086,0.0,0.0
24.066333055496216,-0.18146281,-0.7164886,-2.753748,4.41558443395162,nan,nan,nan,nan,nan,14.05999207496643,15.25999207496643,0.001104593276977539,0.47640150426801303,0.3647486898279065,4.7940678996553,-2.103996829986572,0.7462568969482224,0.41891326225617154,-0.22901958291967084,0.4183214075930143,0.4513086151277088,0.0,0.0,0.0
24.166119813919067,-0.25125334,-0.6323417,-2.71343,4.447038216087585,nan,nan,nan,nan,nan,14.159741640090942,15.359741640090942,0.0005435943603515625,0.37102202573850224,0.47153224324206944,4.825405149754694,-2.1438966560363766,0.7463392035463514,0.2745299979172569,-0.26712704542276916,0.40684561358257987,0.0,0.0,0.0,0.0
24.26609754562378,-0.31569007,-0.52590555,-2.6746955,4.4806864771921155,nan,nan,nan,nan,nan,14.2597017288208,15.4597017288208,0.0004241466522216797,0.24215545278284498,0.5489633290917849,4.856808537795285,-2.18388069152832,0.74559719570306,0.0991153387323895,-0.28066097270936796,0.3842119967020954,0.0,0.0,0.0,0.0
24.365919589996338,-0.358288,-0.4116012,-2.6437767,4.510770061921971,nan,nan,nan,nan,nan,14.359544038772583,15.559544038772582,0.0005664825439453125,0.09826065383785833,0.5918993528526253,4.88817492454148,-2.223817615509033,0.7457220375952172,-0.038034062972440545,-0.28983911238802995,0.3607085676396019,0.0,1.0145979088978216,0.0,0.0
24.466073751449585,-0.37939122,-0.28259143,-2.6109457,4.5422134996110515,nan,nan,nan,nan,nan,14.459676742553711,15.65967674255371,0.00043463706970214844,-0.052225124556906664,0.5977227922415336,4.919632541199768,-2.263870697021484,0.7469413943296074,-0.11089166478498774,-0.2945036179533098,0.34055903873053545,0.0,2.177735083432518,0.0,0.0
24.565959692001343,-0.38026497,-0.16188738,-2.5829258,4.570285481182151,nan,nan,nan,nan,nan,14.55956506729126,15.759565067291259,0.0004410743713378906,-0.19907313486235598,0.5660122675137653,4.951013383917255,-2.3038260269165036,0.7488796434423385,-0.17678277389238442,-0.2938357198217447,0.32272648352926675,0.0,2.79500048288721,0.0,0.0
24.665947198867798,-0.36619654,-0.041934993,-2.5586827,4.597778656153386,nan,nan,nan,nan,nan,14.659550905227661,15.85955090522766,0.0005044937133789062,-0.333562661888512,0.49873434872068934,4.982424861309657,-2.3438203620910643,0.7513143469812433,-0.23637351187156336,-0.2883161126967341,0.309084895624261,0.0,2.962591819912065,0.0,0.0
24.765918016433716,-0.33203247,0.08520648,-2.5423224,4.627227016602204,nan,nan,nan,nan,nan,14.759528875350952,15.959528875350951,0.000415802001953125,-0.44709121265926016,0.4001367860655556,5.013833866955673,-2.3838115501403805,0.7535997778601273,-0.29026630713647916,-0.27597733012887676,0.29855519244320056,0.0,2.6421644422912243,0.0,0.0
24.86602473258972,-0.2828285,0.1942284,-2.528765,4.654471755923453,nan,nan,nan,nan,nan,14.859641075134277,16.059641075134277,0.0004725456237792969,-0.53263290677112,0.2762285043664889,5.045285042093073,-2.4238564300537107,0.7559057306554268,-0.3390059851461884,-0.258824406425376,0.29410489400239276,0.0,1.7477088877063731,0.0,0.0
24.96592140197754,-0.21835549,0.30639935,-2.5179265,4.684656161641458,nan,nan,nan,nan,nan,14.959529399871826,16.159529399871825,0.0004885196685791016,-0.5845565613735543,0.13525393360315302,5.07666588481056,-2.4638117599487304,0.7576531641804625,-0.38308527627987027,-0.23352711288470313,0.2941111378455735,0.0,0.0829730404862361,0.0,0.0
25.0661518573761,-0.15617707,0.3962658,-2.5107293,4.713429470200083,nan,nan,nan,nan,nan,15.059757471084595,16.259757471084594,0.0005156993865966797,-0.5998195928461709,-0.014712444999171858,5.108153462031112,-2.5039029884338375,0.7581794332744592,-0.3552301048563679,-0.20774503885677598,0.29873661438538723,0.0,0.0,0.0,0.0
25.166178464889526,-0.09448441,0.4738331,-2.5058277,4.745635741070345,nan,nan,nan,nan,nan,15.159806966781616,16.359806966781616,0.0004875659942626953,-0.5772959878442936,-0.16349110807282846,5.139584938098824,-2.5439227867126464,0.7569025429160521,-0.2661285641461904,-0.17482009640496518,0.307145525106763,0.0,0.0,0.0,0.0
25.26598048210144,-0.044809695,0.5334535,-2.5047295,4.778659085219636,nan,nan,nan,nan,nan,15.259616374969482,16.45961637496948,0.0004138946533203125,-0.5186451517961294,-0.30167400703138136,5.170940988451038,-2.5838465499877925,0.7549593660350061,-0.15864386086346452,-0.14259588548502752,0.3169240338351975,0.0,0.0,0.0,0.0
25.36603546142578,-0.010783656,0.5706532,-2.5167181,4.8095399032690445,nan,nan,nan,nan,nan,15.359641551971436,16.559641551971435,0.00039124488830566406,-0.42730103423833066,-0.42120520668535544,5.202364824575374,-2.623856620788574,0.7519350875629981,-0.040228177639009,-0.10247125061690791,0.32605447595993514,0.0,0.0,0.0,0.0
25.465996980667114,0.010953635,0.5868648,-2.5288763,4.840455442519621,nan,nan,nan,nan,nan,15.45960283279419,16.65960283279419,0.0004904270172119141,-0.3091771511609855,-0.514207632382073,5.233768587122993,-2.6638411331176757,0.7491612471102881,0.05248000864866825,-0.06174652957448719,0.3347069977410546,0.0,-0.6334451558836623,0.0,0.0
25.56590962409973,0.020609548,0.5839872,-2.540778,4.871230773056327,nan,nan,nan,nan,nan,15.559517860412598,16.759517860412597,0.0003447532653808594,-0.1717083244223339,-0.5749054281567313,5.265157818797914,-2.703807144165039,0.7466630094079144,0.12395631911111898,-0.008162562330543377,0.34066619149919325,0.0,-1.422669971995491,0.0,0.0
25.666078090667725,0.0188961,0.56321186,-2.5527413,4.901849326715944,nan,nan,nan,nan,nan,15.659692764282227,16.859692764282226,0.00035262107849121094,-0.023077074173952213,-0.5995560429580957,5.296628693005003,-2.7438771057128903,0.7450689229883111,0.18859821308112373,0.04597500568787125,0.3427738652766233,0.0,-2.0433527201978294,0.0,0.0
25.766002655029297,0.0002111611,0.5240104,-2.576752,4.935012025460297,nan,nan,nan,nan,nan,15.759615898132324,16.959615898132324,0.00035190582275390625,0.12663816137408393,-0.5864833979609239,5.328020471327717,-2.7838463592529292,0.7438735427742157,0.24705918328221574,0.09772347758943553,0.33980107538381193,0.0,-2.5534610109526934,0.0,0.0
25.86605477333069,-0.02314881,0.46254095,-2.5990622,4.965440554166328,nan,nan,nan,nan,nan,15.859657526016235,17.059657526016235,0.0003523826599121094,0.2685682158402254,-0.5365362182000373,5.3594494756490425,-2.823863010406494,0.7433282343784475,0.2999302368197073,0.15272673520949845,0.3300379350428432,0.0,-2.8226072465832734,0.0,0.0
25.966010093688965,-0.056553543,0.37749174,-2.6252613,4.9981873704886155,nan,nan,nan,nan,nan,15.959612846374512,17.15961284637451,0.000457763671875,0.39351092457969444,-0.45293393804884396,5.39085136566152,-2.8638451385498045,0.7437980325856589,0.34774586992584555,0.20338627579004634,0.315741388448737,0.0,-2.6490494425424793,0.0,0.0
26.066015481948853,-0.09447511,0.27715576,-2.6527262,5.031026293106335,nan,nan,nan,nan,nan,16.05962300300598,17.25962300300598,0.0003376007080078125,0.49379684552253006,-0.3408293933216421,5.422270482997299,-2.903849201202392,0.7449540397335019,0.3909894714122345,0.24430630926268854,0.2999592899709804,0.0,-1.9596220166999512,0.0,0.0
26.166106462478638,-0.12844938,0.17433707,-2.678936,5.061904883383456,nan,nan,nan,nan,nan,16.159727811813354,17.359727811813354,0.0003437995910644531,0.5630987240858333,-0.20717100891028775,5.453719336191124,-2.9438911247253414,0.7463208005489484,0.43009820945534877,0.2740216317570047,0.2834437428436936,0.0,-0.437520028913679,0.0,0.0
26.266084671020508,-0.16407645,0.04690179,-2.7136,5.095856376023342,nan,nan,nan,nan,nan,16.259714603424072,17.45971460342407,0.00034236907958984375,0.5969272641644782,-0.06064520836068886,5.485131113189149,-2.9838858413696285,0.747035211995536,0.42249589734749055,0.2988019574892629,0.26819721036026656,0.0,0.0,0.0,0.0
26.365946531295776,-0.18764973,-0.072412044,-2.7473526,5.12772547340627,nan,nan,nan,nan,nan,16.359554767608643,17.559554767608642,0.0003376007080078125,0.5932915360959653,0.08947152170880861,5.516496825822694,-3.0238219070434567,0.7464862287934829,0.34652642965882985,0.3199526207846637,0.25641760982113115,0.0,0.0,0.0,0.0
26.465943336486816,-0.1973933,-0.17537008,-2.7774017,5.1573047483871655,nan,nan,nan,nan,nan,16.459550380706787,17.659550380706786,0.0003399848937988281,0.5524041110684376,0.2342001239852133,5.5479113741727275,-3.0638201522827146,0.7453198016246876,0.24527995520115636,0.33112940353882253,0.2521401291937609,0.0,0.0,0.0,0.0
26.56613516807556,-0.19274186,-0.28309423,-2.8135738,5.192471374034605,nan,nan,nan,nan,nan,16.559736490249634,17.759736490249633,0.00033783912658691406,0.4766357039115288,0.3644425959691888,5.579385768745882,-3.1038945960998534,0.7436209254405803,0.12749513962808018,0.32554755591464374,0.25687239635689596,0.0,0.0,0.0,0.0
26.666380643844604,-0.17205139,-0.36423594,-2.8496199,5.224801820284451,nan,nan,nan,nan,nan,16.65998077392578,17.85998077392578,0.0003371238708496094,0.3707385636818974,0.471755145598947,5.610878439262018,-3.1439923095703124,0.7415797613635315,0.005606401288674232,0.3057968451127528,0.269398011661641,0.0,0.0,0.0,0.0
26.766060829162598,-0.13575096,-0.43133798,-2.890739,5.259730173979318,nan,nan,nan,nan,nan,16.759672164916992,17.95967216491699,0.00034117698669433594,0.24219624129436335,0.5489453348949078,5.642197413418431,-3.183868865966797,0.7397110328225892,-0.07313190800484509,0.27342036596596486,0.28649318232020504,0.0,1.2657690864856166,0.0,0.0
26.866116285324097,-0.08669891,-0.46833977,-2.9267907,5.291823015564278,nan,nan,nan,nan,nan,16.859724760055542,18.05972476005554,0.0003371238708496094,0.0979918017683287,0.5919439219944711,5.673629863204418,-3.2238899040222164,0.7377625182957306,-0.14263352670373122,0.22213307436747323,0.3049228125702478,0.0,2.3403470921719007,0.0,0.0
26.96602463722229,-0.024101866,-0.48270547,-2.9683883,5.326363202049793,nan,nan,nan,nan,nan,16.95963191986084,18.15963191986084,0.0004210472106933594,-0.05215778972856075,0.597728671698649,5.705016623132952,-3.2638527679443357,0.7361880505239282,-0.20548954483910062,0.1604713516604917,0.32054125286013324,0.0,3.6642824116994674,0.0,0.0
27.066036701202393,0.038431596,-0.47076726,-3.0074682,5.358031201547298,nan,nan,nan,nan,nan,17.059645175933838,18.259645175933837,0.0003390312194824219,-0.1991870888944544,0.565972175656854,5.736436714187005,-3.303858070373535,0.7351009326615977,-0.262335400947157,0.0931648099105855,0.33019954236056814,0.0,4.783874983486523,0.0,0.0
27.166134357452393,0.10755584,-0.42920873,-3.045446,5.3921471439997966,nan,nan,nan,nan,nan,17.159756660461426,18.359756660461425,0.0003349781036376953,-0.3338205224372501,0.4985617903527319,5.767887664620189,-3.34390266418457,0.7351627574232014,-0.31374577424981304,0.02000329292700642,0.3318884752681467,0.0,5.8674962351131565,0.0,0.0
27.26601219177246,0.17212866,-0.3670686,-3.0855937,5.423281673782158,nan,nan,nan,nan,nan,17.259641647338867,18.459641647338866,0.000339508056640625,-0.44720460423659797,0.40001005231067355,5.799267458717997,-3.3838566589355468,0.7360617684964464,-0.3602403943342463,-0.05131956144317584,0.3251352725072375,0.0,6.51532335643711,0.0,0.0
27.36604619026184,0.23460145,-0.27646336,-3.124787,5.456642373993592,nan,nan,nan,nan,nan,17.359652280807495,18.559652280807494,0.0003428459167480469,-0.5326406859635158,0.2762135037544606,5.830686725856587,-3.423860912322998,0.7379695029595318,-0.40228929532295205,-0.11759030928538192,0.3112755939116466,0.004882088387093031,6.64750222343344,0.0,0.0
27.465970516204834,0.28495628,-0.17313664,-3.1635447,5.4873223273058045,nan,nan,nan,nan,nan,17.45957899093628,18.65957899093628,0.00037479400634765625,-0.5845734143342456,0.13518107579688224,5.8620796277003855,-3.4638315963745114,0.740508062708783,-0.44031756765095753,-0.17695309807687465,0.29208575499945877,0.0,6.104944954169191,0.0,0.0
