time,x,y,z,yaw,platform,trajectory,traj_double,traj_short,traj_spin,traj_time,ref_time,comptime,x_ref,y_ref,yaw_ref,z_ref,throttle_input,p_input,q_input,r_input,cbf_term_pitch_cbf,cbf_term_roll_cbf,cbf_term_thrust_cbf,cbf_term_yaw_cbf
10.068626403808594,0.023489615,-0.05489944,-2.9013953,0.004994590691114655,SIM,FIG8_HORIZONTAL,DblSpd,Not Short,NoSpin,0.05949521064758301,1.259495210647583,0.0003981590270996094,0.22724495888350582,0.3283810420442603,0.0,-5.0,0.7971074606728015,0.031523192000000005,-0.03341409815903579,-0.0016202234557003968,0.0,-1.595200935910742,-78.42129825780368,0.0
10.168520212173462,0.02936494,-0.056304622,-2.90845,0.0059973906715955864,nan,nan,nan,nan,nan,0.15938258171081543,1.3593825817108154,0.0003941059112548828,0.17193464540052464,0.3385264720187282,0.0,-5.0,0.8044770376114978,0.08687666184675201,-0.0304029157499868,-0.002973404614222167,0.0,0.0,-59.614514458761064,0.0
10.26848292350769,0.036358073,-0.056748215,-2.9279056,0.0067330296082570495,nan,nan,nan,nan,nan,0.2593371868133545,1.4593371868133544,0.00037932395935058594,0.11018928836697255,0.34552190960366164,0.0,-5.0,0.8118533230719189,0.0804330368753348,-0.007852592081461043,-0.0050934992537595815,0.0,0.0,-26.921670986295673,0.0
10.368941307067871,0.04239688,-0.05588813,-2.9627907,0.007385557210150535,nan,nan,nan,nan,nan,0.3597869873046875,1.5597869873046875,0.0005211830139160156,0.04400962666949969,0.3493048223830594,0.0,-5.0,0.8170085501692069,0.05857209247892381,0.01757570652773942,-0.0070783647522685645,0.0,0.0,0.0,0.0
10.46866774559021,0.049009513,-0.052788664,-3.0232584,0.007706524651443182,nan,nan,nan,nan,nan,0.45954322814941406,1.659543228149414,0.0003838539123535156,-0.023356330447913996,0.34980490031775935,0.0,-5.0,0.8056153757441543,0.03401975832063463,0.04045040602771841,-0.008424277925376318,0.0,0.0,0.0,0.0
10.569303750991821,0.055817362,-0.0470287,-3.1012132,0.006984628470973038,nan,nan,nan,nan,nan,0.5603883266448975,1.7603883266448974,0.0004241466522216797,-0.09056814277008939,0.3470069528550924,0.0,-5.0,0.7908904311955715,0.009327696673349277,0.0592126381061938,-0.00834352227976825,0.0,0.0,0.0,0.0
10.668607950210571,0.06289336,-0.0335405,-3.2056067,0.005571603491871406,nan,nan,nan,nan,nan,0.6594767570495605,1.8594767570495605,0.000400543212890625,-0.15328059963887325,0.34104819460583763,0.0,-5.0,0.7766767509648251,-0.014498800861993802,0.07126520480822061,-0.006937953723310818,0.0,0.0,0.0,0.0
10.768631935119629,0.07450162,-0.015127167,-3.3189933,0.0027990946924785886,nan,nan,nan,nan,nan,0.7595031261444092,1.9595031261444091,0.000377655029296875,-0.21089204609532394,0.3318622145858827,0.0,-5.0,0.7652221419830927,-0.03647161268721509,0.07771725132120914,-0.0041236217603263445,0.0,0.0,3.564930259994563,0.0
10.868631839752197,0.08107173,0.010496828,-3.4565408,0.0010922819769470377,nan,nan,nan,nan,nan,0.8595004081726074,2.0595004081726076,0.00036263465881347656,-0.26062844020461207,0.3195801063621186,0.0,-5.0,0.7551474223831747,-0.05627935209324891,0.07729634875395675,-0.0008502428928999935,0.0,0.0,8.474819188687476,0.0
10.96852159500122,0.081788406,0.03667477,-3.5910177,0.0021490690647472752,nan,nan,nan,nan,nan,0.9593958854675293,2.1593958854675295,0.00034880638122558594,-0.30061913816946817,0.3043313398308463,0.0,-5.0,0.7459204066397209,-0.07218324326799051,0.0659792988550778,-0.0004041210236521547,0.0,0.0,11.8060271261886,0.0
11.06858491897583,0.07905605,0.06508025,-3.7380192,0.004065494689061664,nan,nan,nan,nan,nan,1.059495449066162,2.2594954490661623,0.00035262107849121094,-0.3294787894317006,0.28620730795650484,0.0,-5.0,0.7374775809289854,-0.08224689177956025,0.0475372884995245,-0.001531551344115173,0.0,0.0,15.86337309172566,0.0
11.168579578399658,0.06780619,0.091716126,-3.8766663,0.005768376806240826,nan,nan,nan,nan,nan,1.1594491004943848,2.359449100494385,0.0003387928009033203,-0.34602293503527715,0.26543789499351694,0.0,-5.0,0.7297590676482645,-0.08702351485315345,0.021665237165254113,-0.003577077948600233,0.0,0.0,18.351305321573594,0.0
11.26858115196228,0.0484049,0.12332832,-4.02532,0.008100405085783462,nan,nan,nan,nan,nan,1.2594430446624756,2.4594430446624758,0.00034046173095703125,-0.3496851093935793,0.2421826135252476,0.0,-5.0,0.7227085675536411,-0.08820421874392682,-0.00994929779105274,-0.006659915625517383,0.0,0.0,21.116384795495804,0.0
11.368834495544434,0.025352318,0.15383211,-4.1552176,0.009896482236323846,nan,nan,nan,nan,nan,1.3597042560577393,2.5597042560577394,0.0003457069396972656,-0.3402773935855227,0.21659539037542996,0.0,-5.0,0.7162732832687141,-0.08758444373454059,-0.04333666450327719,-0.010574956613852889,0.0,0.0,20.754504936725834,0.0
11.468747615814209,-0.004444084,0.18573041,-4.291774,0.010971557670997965,nan,nan,nan,nan,nan,1.4597039222717285,2.6597039222717287,0.00032830238342285156,-0.31819866242441286,0.18904977867640418,0.0,-5.0,0.7104038257609184,-0.08411738920057736,-0.07619322964819433,-0.013931876054212818,0.0,0.0,20.20918373374493,0.0
11.569122791290283,-0.03346206,0.20994128,-4.406798,0.012692274765719562,nan,nan,nan,nan,nan,1.5602586269378662,2.7602586269378664,0.00047850608825683594,-0.2840447376783838,0.15957196358017117,0.0,-5.0,0.7050541057958973,-0.07473232079759934,-0.10712778002909468,-0.018046538031089132,0.0,0.0,19.79259913880495,0.0
11.668534994125366,-0.06889944,0.22612421,-4.537922,0.016014556909882516,nan,nan,nan,nan,nan,1.65950345993042,2.85950345993042,0.00034689903259277344,-0.23983629858390496,0.1289997736958431,0.0,-5.0,0.7001812126465028,-0.06054361356361588,-0.13064997356639071,-0.02195734276871001,0.0,0.0,17.8615709588252,0.0
11.768763542175293,-0.10613472,0.23436089,-4.655067,0.02014131378676827,nan,nan,nan,nan,nan,1.7596347332000732,2.9596347332000734,0.0003407001495361328,-0.18631817924951122,0.09695312259011751,0.0,-5.0,0.6957452824656085,-0.0398582857759677,-0.14698938545815243,-0.025624422502489735,0.0,0.0,15.421433276577247,0.0
11.868754386901855,-0.150469,0.23603128,-4.7718687,0.024016326721348426,nan,nan,nan,nan,nan,1.8596200942993164,3.0596200942993166,0.00033354759216308594,-0.12593183444354228,0.0640474028097253,0.0,-5.0,0.6917093587501126,-0.019088545181614666,-0.1562999039029001,-0.028553931882291193,0.0,0.0,11.38686170854169,0.0
11.968677282333374,-0.19156277,0.23068722,-4.868965,0.02717202892176506,nan,nan,nan,nan,nan,1.95955491065979,3.15955491065979,0.00034546852111816406,-0.06088835055518917,0.030560899905577296,0.0,-5.0,0.6880392472488146,0.0013393276148995967,-0.15752175643656408,-0.02966388331186762,0.0,0.0,6.034720177545291,0.0
12.068746566772461,-0.22984682,0.21783224,-4.9640174,0.03363723631624434,nan,nan,nan,nan,nan,2.059622049331665,3.259622049331665,0.0003414154052734375,0.006510391167259993,-0.003255336392796768,0.0,-5.0,0.6847702053035657,0.01988306366851151,-0.14725424575820048,-0.032471567795784535,0.0,0.0,0.0,0.0
12.168644666671753,-0.2630522,0.19993383,-5.0464845,0.04007311093807729,nan,nan,nan,nan,nan,2.159515619277954,3.3595156192779543,0.00035262107849121094,0.07355141385650915,-0.03698274425903029,0.0,-5.0,0.6855703871610703,0.03546377649855617,-0.12717318323580407,-0.0357135240037098,0.0,0.0,0.0,0.0
12.268605470657349,-0.28891307,0.17349103,-5.1283293,0.046632658212957416,nan,nan,nan,nan,nan,2.259486198425293,3.459486198425293,0.0003464221954345703,0.1379056361109593,-0.0703911102456537,0.0,-5.0,0.687419328594074,0.046277136627516036,-0.1010308231325194,-0.03907515954996715,0.0,0.0,0.0,0.0
12.36865496635437,-0.3035048,0.1459781,-5.1944284,0.051249814159018775,nan,nan,nan,nan,nan,2.359541416168213,3.559541416168213,0.0003361701965332031,0.19717186364392802,-0.10317000316045745,0.0,-5.0,0.6894094452902919,0.0536360976623113,-0.06766183442791218,-0.04247705025046936,0.0,0.0,0.0,0.0
12.46855115890503,-0.30818012,0.11588999,-5.2552695,0.05338657481112665,nan,nan,nan,nan,nan,2.459439277648926,3.659439277648926,0.00033926963806152344,0.2490086149497651,-0.1349354417575528,0.0,-5.0,0.6916676088296131,0.055508583007916244,-0.030266904403705108,-0.04456972531508178,0.0,0.0,0.0,0.0
12.568501949310303,-0.30112028,0.09123979,-5.2988806,0.052878096665413175,nan,nan,nan,nan,nan,2.5593652725219727,3.759365272521973,0.00037980079650878906,0.2915967812748337,-0.16545198242952408,0.0,-5.0,0.6940348194578134,0.052196212330861136,0.008695602754420592,-0.0447474291664353,0.0,0.0,0.0,0.0
12.669217109680176,-0.2869581,0.062640615,-5.3386736,0.051461249148057164,nan,nan,nan,nan,nan,2.6603095531463623,3.8603095531463625,0.0008161067962646484,0.32359930448165963,-0.19471239875958504,0.0,-5.0,0.6965195102003118,0.046680798975361454,0.04480904770688285,-0.04393723898905167,0.0,0.0,0.0,0.0
12.768884897232056,-0.26317912,0.029302819,-5.374577,0.04909886450672937,nan,nan,nan,nan,nan,2.759732723236084,3.959732723236084,0.0003418922424316406,0.3431148769579448,-0.22172241484411173,0.0,-5.0,0.6991987193166571,0.04162747885646584,0.07941687544869133,-0.042642816633683585,0.0,0.0,0.0,0.0
12.868678092956543,-0.23479515,-0.002326853,-5.4014645,0.046215266067565194,nan,nan,nan,nan,nan,2.8595550060272217,4.059555006027222,0.00034117698669433594,0.3499943271838227,-0.24678183427914402,0.0,-5.0,0.7017719169528746,0.037410201872140905,0.10830176230234291,-0.0408857816087822,0.0,0.0,0.0,0.0
12.968646049499512,-0.19861117,-0.037585907,-5.424189,0.04219101934915012,nan,nan,nan,nan,nan,2.9595324993133545,4.159532499313355,0.00033545494079589844,0.34385967253327987,-0.2695787877815092,0.0,-5.0,0.7044732615807023,0.0336857188971378,0.13136231315949282,-0.03857872979352404,0.0,0.0,0.0,0.0
13.068662405014038,-0.15939821,-0.07536305,-5.439273,0.03507695815779596,nan,nan,nan,nan,nan,3.0595366954803467,4.259536695480347,0.00038623809814453125,0.32491192466459645,-0.28986495213250446,0.0,-5.0,0.7072268423332093,0.035010333568288726,0.14830401419852243,-0.03399364539560845,0.0,0.0,0.0,0.0
13.168675184249878,-0.11453215,-0.11353694,-5.4448323,0.029091625202784927,nan,nan,nan,nan,nan,3.1595468521118164,4.359546852111817,0.0003399848937988281,0.29385483670762813,-0.3074454622899409,0.0,-5.0,0.7102541603966699,0.03524637650169729,0.15910070933193624,-0.029349416424127386,0.0,0.0,0.0,0.0
13.268617630004883,-0.064921446,-0.14640066,-5.451217,0.0269267180098514,nan,nan,nan,nan,nan,3.259504795074463,4.459504795074463,0.00034880638122558594,0.25187110756613973,-0.3221479489738566,0.0,-5.0,0.7130840028567885,0.03244687495937685,0.1653216577597313,-0.02670835787250033,0.0,0.0,0.0,0.0
13.369091033935547,-0.005290267,-0.18145527,-5.4584055,0.026701407127203012,nan,nan,nan,nan,nan,3.359983205795288,4.559983205795288,0.00038313865661621094,0.20022183608311278,-0.333897992194251,0.0,-5.0,0.7154173685549601,0.028004201140377917,0.16918066354833114,-0.026874103675873375,0.0,0.0,0.0,0.0
13.46854019165039,0.049964443,-0.21404976,-5.4620085,0.024580386358394865,nan,nan,nan,nan,nan,3.4594101905822754,4.659410190582276,0.0003504753112792969,0.14169185645662022,-0.3424272228407537,0.0,-5.0,0.717552623728304,0.026356810998117642,0.16773486987733202,-0.025662624694463843,0.0,0.0,0.0,0.0
13.568519353866577,0.104362145,-0.24909744,-5.460781,0.019767544779419475,nan,nan,nan,nan,nan,3.559384346008301,4.759384346008301,0.0003523826599121094,0.07758162872607435,-0.34781650464097086,0.0,-5.0,0.7197068961295137,0.02582312536254848,0.15681070365787902,-0.022321839170038528,0.0,0.0,0.0,0.0
13.66851282119751,0.15173492,-0.27633256,-5.457883,0.01618979414140961,nan,nan,nan,nan,nan,3.659376621246338,4.859376621246338,0.0004177093505859375,0.010569963213225468,-0.349960087149952,0.0,-5.0,0.721588244721888,0.023179034740489178,0.1406446384243528,-0.01863666437184509,0.0,0.0,0.0,0.0
13.768734693527222,0.19871135,-0.2980232,-5.456607,0.015079574982867112,nan,nan,nan,nan,nan,3.759580373764038,4.959580373764038,0.0003447532653808594,-0.05697666801206939,-0.348830855107797,0.0,-5.0,0.7231261430870015,0.017293319663493147,0.11928756332149727,-0.01604868319507147,0.0,0.0,0.0,0.0
13.868776082992554,0.23345433,-0.3133658,-5.455819,0.015801333827568386,nan,nan,nan,nan,nan,3.859636068344116,5.059636068344116,0.0003504753112792969,-0.12229786671526253,-0.34444030441507967,0.0,-5.0,0.7241935406989711,0.009853277463316885,0.09490843016739393,-0.015536204911164305,0.0,0.0,0.0,0.0
13.968719720840454,0.2557222,-0.32685277,-5.4545293,0.01636776930998178,nan,nan,nan,nan,nan,3.9596049785614014,5.1596049785614015,0.0003466606140136719,-0.18300716330662375,-0.336838204310489,0.0,-5.0,0.7249024352320932,0.004338534468715113,0.06674350828233394,-0.01513200436335873,0.0,0.0,0.0,0.0
14.068629264831543,0.2570938,-0.33406392,-5.452922,0.01765413413059546,nan,nan,nan,nan,nan,4.059505462646484,5.2595054626464846,0.0008211135864257812,-0.23686780082381967,-0.32610149881302863,0.0,-5.0,0.7253544079144741,-0.0016381877909162205,0.02679718692047187,-0.015052511330373745,0.0,0.0,0.0,0.0
14.168948650360107,0.24842021,-0.34257075,-5.4485383,0.01771597806155212,nan,nan,nan,nan,nan,4.15981388092041,5.35981388092041,0.0003986358642578125,-0.28208379724916033,-0.3122638102519759,0.0,-5.0,0.7258349057622661,-0.004406852269816243,-0.012698200335633939,-0.014740015405512143,0.0,0.0,0.0,0.0
14.268676519393921,0.23150554,-0.35273117,-5.441291,0.016522315735168956,nan,nan,nan,nan,nan,4.259548902511597,5.459548902511597,0.0003495216369628906,-0.3165593850182457,-0.295596522493003,0.0,-5.0,0.7265097433660733,-0.003857749946862915,-0.05237942859512178,-0.013299197673328664,0.0,0.0,0.0,0.0
14.36882996559143,0.20443077,-0.36300525,-5.43298,0.014375240623633411,nan,nan,nan,nan,nan,4.3597092628479,5.559709262847901,0.00034689903259277344,-0.3393727794440821,-0.27609550687946216,0.0,-5.0,0.7272982636598387,0.00023021492644877128,-0.08681115530319851,-0.010879141867042521,0.0,0.0,0.0,0.0
14.468717575073242,0.17238341,-0.36801216,-5.4265122,0.012687412182559126,nan,nan,nan,nan,nan,4.459645986557007,5.659645986557007,0.00043964385986328125,-0.34949265699695514,-0.2540604413917007,0.0,-5.0,0.7278068877537055,0.0027457822506407573,-0.11591206580492464,-0.008500876308688649,0.0,0.0,0.0,0.0
14.568672180175781,0.13252184,-0.37258798,-5.415556,0.01213396456149983,nan,nan,nan,nan,nan,4.559560537338257,5.759560537338257,0.0003516674041748047,-0.34660903324767944,-0.22966194153869807,0.0,-5.0,0.7284984523364756,0.005618195537590677,-0.13816849463869002,-0.007046396542897606,0.0,0.0,0.0,0.0
14.668678283691406,0.092313014,-0.36960012,-5.4006586,0.01222571541904092,nan,nan,nan,nan,nan,4.659548997879028,5.8595489978790285,0.00034809112548828125,-0.3308165108001592,-0.20310244596571714,0.0,-5.0,0.7294518002498955,0.005753156304227618,-0.1535193368105792,-0.006503021440524045,0.0,0.0,0.0,0.0
14.76866602897644,0.043416794,-0.36118406,-5.386491,0.012676812675693268,nan,nan,nan,nan,nan,4.759540557861328,5.959540557861328,0.00034689903259277344,-0.30269963148005835,-0.17464616611849673,0.0,-5.0,0.7303789397474417,0.0036605245101688838,-0.16249165389864118,-0.006603592373364242,0.0,0.0,0.0,0.0
14.868778944015503,-0.008369998,-0.35043168,-5.373266,0.013791885962176608,nan,nan,nan,nan,nan,4.859651327133179,6.059651327133179,0.00035858154296875,-0.26325298887900245,-0.14452280546464663,0.0,-5.0,0.7310692713217913,4.605134881248073e-05,-0.1672026804268959,-0.0076058303075591865,0.0,0.0,0.0,0.0
14.968677759170532,-0.07379462,-0.33738038,-5.3547373,0.014830758364255478,nan,nan,nan,nan,nan,4.959609508514404,6.1596095085144045,0.00034308433532714844,-0.2140576288999363,-0.11309594177032022,0.0,-5.0,0.7321321236080048,-0.002961445796409093,-0.1711303517933471,-0.008741713069312604,0.0,0.0,0.0,0.0
15.068541526794434,-0.1268319,-0.32826144,-5.342083,0.015687799013172635,nan,nan,nan,nan,nan,5.059407472610474,6.259407472610474,0.00037360191345214844,-0.15699008539249543,-0.08066676124288649,0.0,-5.0,0.7329857075646523,-0.003928732156288907,-0.16890195782380543,-0.009690277470123652,0.0,0.0,0.0,0.0
15.168583631515503,-0.18565635,-0.31898817,-5.3346157,0.01815134334149412,nan,nan,nan,nan,nan,5.159448862075806,6.359448862075806,0.00034809112548828125,-0.09393800951307944,-0.04740585806119327,0.0,-5.0,0.7333216456515829,-0.0018007328018086353,-0.16132316894211637,-0.011142022463133524,0.0,0.0,0.0,0.0
15.268762826919556,-0.2337656,-0.30987105,-5.3287425,0.021332798879122938,nan,nan,nan,nan,nan,5.259685039520264,6.459685039520264,0.00045609474182128906,-0.027251536825841964,-0.013636121536655678,0.0,-5.0,0.7333036453955054,0.0015776169832882679,-0.14643478713221295,-0.01383422396661181,0.0,0.0,0.0,0.0
15.368855237960815,-0.27381808,-0.29957572,-5.3229046,0.024060845670892148,nan,nan,nan,nan,nan,5.359748601913452,6.559748601913452,0.00034546852111816406,0.04033908860415244,0.020203231014239615,0.0,-5.0,0.7332761292781232,0.004326939285026996,-0.12594814568450455,-0.016568982931642478,0.0,0.0,0.0,0.0
15.468666791915894,-0.30545795,-0.288546,-5.322037,0.026411630947690657,nan,nan,nan,nan,nan,5.459547996520996,6.659547996520996,0.0003514289855957031,0.10625448509657412,0.05376539965903905,0.0,-5.0,0.7327699745152764,0.006299222830611568,-0.09787799995669756,-0.019225764079070028,0.0,0.0,0.0,0.0
15.568966388702393,-0.32448754,-0.2737793,-5.322464,0.02568389069443567,nan,nan,nan,nan,nan,5.559839963912964,6.759839963912964,0.0003504753112792969,0.16851888390072167,0.08698901624092195,0.0,-5.0,0.7321277147969986,0.00504221074125318,-0.06449012935730494,-0.02031222519668793,0.0,0.0,0.0,0.0
15.668859243392944,-0.33576018,-0.25392345,-5.3241,0.02267225986567341,nan,nan,nan,nan,nan,5.6597089767456055,6.859708976745606,0.0003361701965332031,0.22424804903827764,0.11926117120189103,0.0,-5.0,0.7314338261025815,0.001750972943911072,-0.028853835576356103,-0.019347931029649823,0.0,0.0,0.0,0.0
15.768744945526123,-0.3382595,-0.23363505,-5.326129,0.01935335283646384,nan,nan,nan,nan,nan,5.759618759155273,6.959618759155274,0.0003452301025390625,0.27166098998756016,0.15043518407128126,0.0,-5.0,0.7307228418155631,-0.002547176514525838,0.006309180335625658,-0.01720178748905396,0.0,0.0,0.0,0.0
15.868722677230835,-0.3335995,-0.20972915,-5.327671,0.016414408229461736,nan,nan,nan,nan,nan,5.859586000442505,7.059586000442505,0.0003402233123779297,0.3089883734468963,0.1802238201438412,0.0,-5.0,0.7299796692714783,-0.0064773230537329505,0.0387624892743686,-0.015167052587021092,0.0,0.0,0.0,0.0
15.968582391738892,-0.32510373,-0.18402503,-5.325463,0.014369369780667962,nan,nan,nan,nan,nan,5.959450721740723,7.159450721740723,0.00034236907958984375,0.33479022518281504,0.20830298398497582,0.0,-5.0,0.7296083104972896,-0.010690684432002858,0.06570720635815074,-0.013448528982118598,0.0,0.0,0.0,0.0
16.068538188934326,-0.30354387,-0.15445264,-5.3279824,0.011482583987594056,nan,nan,nan,nan,nan,6.059406042098999,7.259406042098999,0.00038051605224609375,0.3481577866927393,0.23446529179681888,0.0,-5.0,0.7291354833441521,-0.014556589979034504,0.09054517145777836,-0.011286500149581404,0.0,0.0,0.0,0.0
16.168518543243408,-0.2726388,-0.12854178,-5.329527,0.007604284071393658,nan,nan,nan,nan,nan,6.15938663482666,7.35938663482666,0.00033473968505859375,0.3485630826060453,0.258446180499307,0.0,-5.0,0.7287299196541099,-0.01636294465431804,0.11476089076164923,-0.00829475143968262,0.0,0.0,0.0,0.0
16.268796920776367,-0.23032816,-0.100037426,-5.326232,0.0029367581353617585,nan,nan,nan,nan,nan,6.259650230407715,7.459650230407715,0.00034356117248535156,0.3359323359667787,0.2800723949298031,0.0,-5.0,0.7285902744473401,-0.016077632383392382,0.13701321196601643,-0.004187433160109513,0.0,0.0,0.0,0.0
16.368870973587036,-0.18073049,-0.068756424,-5.318115,-0.000928687307072149,nan,nan,nan,nan,nan,6.359741687774658,7.559741687774658,0.00034809112548828125,0.3107725642877857,0.2990395979329294,0.0,-5.0,0.7290190753077944,-0.016743883877323684,0.15464700242867258,-0.0006276516682488536,0.0,0.0,0.0,0.0
16.46905517578125,-0.12862948,-0.036507025,-5.3114753,-0.004678599181217669,nan,nan,nan,nan,nan,6.459923267364502,7.659923267364502,0.00035643577575683594,0.27397441739726486,0.31522289494600186,0.0,-5.0,0.729463146830474,-0.02006900630808066,0.16768870189471152,0.0033306100101827213,0.0,0.0,0.0,0.0
16.56888484954834,-0.079266615,-0.007834525,-5.308223,-0.00762223023521954,nan,nan,nan,nan,nan,6.559774160385132,7.759774160385132,0.0003490447998046875,0.227101369561516,0.3284136848810465,0.0,-5.0,0.7297748701245927,-0.023151955330200924,0.1743100715932388,0.006888666719856007,0.0,0.0,0.0,0.0
16.66875433921814,-0.019525234,0.023720326,-5.305369,-0.010664986537691908,nan,nan,nan,nan,nan,6.6596245765686035,7.859624576568604,0.0003540515899658203,0.17179200002439532,0.33854725404762265,0.0,-5.0,0.7299608890423062,-0.02477478494055917,0.17487270351713533,0.009856356803700929,0.0,0.0,0.0,0.0
16.76880145072937,0.03493892,0.051484462,-5.3034453,-0.013001074665368956,nan,nan,nan,nan,nan,6.7597081661224365,7.959708166122437,0.00034308433532714844,0.10995100136412055,0.3455419006557349,0.0,-5.0,0.7301018261327852,-0.025591363502186888,0.16824387288539594,0.012545385509198799,0.0,0.0,0.0,0.0
16.86885714530945,0.0902918,0.08039312,-5.301897,-0.014835428356202735,nan,nan,nan,nan,nan,6.859778881072998,8.059778881072997,0.00034356117248535156,0.04401506821652606,0.349304649602995,0.0,-5.0,0.7301962720184602,-0.026481010224242384,0.15594583664495307,0.014599416208531632,0.0,0.0,0.0,0.0
16.968835592269897,0.13120016,0.10287468,-5.3004193,-0.015566196917266718,nan,nan,nan,nan,nan,6.9597015380859375,8.159701538085937,0.0003466606140136719,-0.023463211104488686,0.34980310812332954,0.0,-5.0,0.730188099079732,-0.02571830058262358,0.13353957099539832,0.015407827304618574,0.0,0.0,0.0,0.0
17.068770170211792,0.1645184,0.12315949,-5.293512,-0.01577089214941841,nan,nan,nan,nan,nan,7.059638023376465,8.259638023376464,0.0003542900085449219,-0.09007764643834136,0.3470399883238103,0.0,-5.0,0.7302893876734097,-0.02295968499158443,0.1059715581614773,0.01528775725389154,0.0,0.0,0.0,0.0
17.16887331008911,0.19205824,0.14350626,-5.2836165,-0.015084418411224652,nan,nan,nan,nan,nan,7.159780263900757,8.359780263900756,0.0003726482391357422,-0.15346519959709257,0.3410251047805388,0.0,-5.0,0.7305421682536538,-0.02053958860700694,0.07344981744592301,0.014496945836005713,0.0,0.0,0.0,0.0
17.268742561340332,0.20847969,0.16325983,-5.276185,-0.012940556900868093,nan,nan,nan,nan,nan,7.259634017944336,8.459634017944335,0.0003445148468017578,-0.2109627239040142,0.33184814111001315,0.0,-5.0,0.7307687721371646,-0.019791454514380878,0.03967388614218872,0.012496940198725824,0.0,0.0,0.0,0.0
17.3693630695343,0.21288931,0.18552515,-5.2713046,-0.009385895313311226,nan,nan,nan,nan,nan,7.3605194091796875,8.560519409179687,0.00036144256591796875,-0.26108814760536986,0.31943937209273315,0.0,-5.0,0.7305443499250197,-0.021639677704178868,0.006700240624897362,0.009156295432934045,0.0,0.0,0.0,0.0
17.46880602836609,0.20825998,0.20451227,-5.2619457,-0.0065040930519690305,nan,nan,nan,nan,nan,7.459705591201782,8.659705591201782,0.0003571510314941406,-0.30072640621405056,0.3042795745969288,0.0,-5.0,0.7305722077742914,-0.022740151751831122,-0.026595760615513817,0.005587490445207265,0.0,0.0,0.0,0.0
17.568624258041382,0.19535773,0.22065876,-5.2581363,-0.0044205958789914936,nan,nan,nan,nan,nan,7.559492349624634,8.759492349624633,0.0003514289855957031,-0.32947808185581073,0.28620791153509567,0.0,-5.0,0.730454124824166,-0.023834423587879714,-0.05776238193381276,0.002414476017558844,0.0,0.0,0.0,0.0
17.668590545654297,0.17250331,0.23766898,-5.250796,-0.0025826594464305012,nan,nan,nan,nan,nan,7.6596245765686035,8.859624576568603,0.00037288665771484375,-0.34604076386228233,0.26539919532154005,0.0,-5.0,0.7303859145087005,-0.024532876185090688,-0.08745739162802976,-0.00040852168732239384,0.0,0.0,0.0,0.0
17.768951177597046,0.13877752,0.25514352,-5.2424226,-0.001088973336227584,nan,nan,nan,nan,nan,7.759809970855713,8.959809970855712,0.00034546852111816406,-0.3496744919446288,0.24209297571117416,0.0,-5.0,0.7306571927794558,-0.025113939430821335,-0.11425071614185979,-0.0028854503197553246,0.0,0.0,0.0,0.0
17.868991136550903,0.09828937,0.2712639,-5.2412004,0.00045745378830300103,nan,nan,nan,nan,nan,7.859873056411743,9.059873056411742,0.0003521442413330078,-0.34025064090679097,0.21655052723070956,0.0,-5.0,0.730500350249521,-0.025140640453159863,-0.13656925039289228,-0.005207726265956597,0.0,0.0,0.0,0.0
17.969419479370117,0.059661828,0.28387043,-5.2352366,0.0012110610922571163,nan,nan,nan,nan,nan,7.960514783859253,9.160514783859252,0.0006451606750488281,-0.31796975442460157,0.1888188474582585,0.0,-5.0,0.7305570345360767,-0.0238617426706083,-0.1521113672239264,-0.006928383414699793,0.0,0.0,0.0,0.0
18.06905221939087,0.0148738045,0.2938824,-5.2314997,0.002349743724395798,nan,nan,nan,nan,nan,8.060011386871338,9.260011386871337,0.00035858154296875,-0.28414245146128697,0.15964640711408157,0.0,-5.0,0.7306474123032713,-0.021862405960129085,-0.16205020892537347,-0.008308921717646401,0.0,0.0,0.0,0.0
18.169327974319458,-0.036747433,0.2986065,-5.2285757,0.004135135067416296,nan,nan,nan,nan,nan,8.160206317901611,9.36020631790161,0.0004189014434814453,-0.2394897002381318,0.12877869008120144,0.0,-5.0,0.730691590210893,-0.017142661435673803,-0.16680786181787452,-0.009585994601221288,0.0,0.0,0.0,0.0
18.268697023391724,-0.0901805,0.29690853,-5.2260146,0.006964220927308367,nan,nan,nan,nan,nan,8.259592771530151,9.45959277153015,0.0003476142883300781,-0.1863422145565912,0.09696676365311833,0.0,-5.0,0.7307594859603534,-0.010402297871290022,-0.16651241248126059,-0.011302618345529706,0.0,0.0,0.0,0.0
18.369027614593506,-0.14139824,0.29227236,-5.223439,0.008964622985961295,nan,nan,nan,nan,nan,8.359931230545044,9.559931230545043,0.0003609657287597656,-0.12573538087933775,0.06394391210996933,0.0,-5.0,0.7308806401335464,-0.0032116382709054887,-0.16078127598421263,-0.012569622512651795,0.0,0.0,0.0,0.0
18.468754291534424,-0.19337597,0.28501692,-5.215822,0.010119529150026446,nan,nan,nan,nan,nan,8.459640264511108,9.659640264511108,0.0003342628479003906,-0.06083147565238823,0.030532132723431988,0.0,-5.0,0.7313294168906002,0.0019485318831131192,-0.15160817286315695,-0.01301313381693211,0.0,0.0,0.0,0.0
18.56859254837036,-0.24073452,0.27103966,-5.206096,0.01111732138387725,nan,nan,nan,nan,nan,8.559487104415894,9.759487104415893,0.0004572868347167969,0.006419096169763404,-0.0032096830524720172,0.0,-5.0,0.7318089957529078,0.007406172712278772,-0.13568781784880102,-0.012800354528886858,0.0,0.0,0.0,0.0
18.668726921081543,-0.2766128,0.2518192,-5.2027884,0.012230988333159349,nan,nan,nan,nan,nan,8.659746646881104,9.859746646881103,0.00034737586975097656,0.07370424074540928,-0.037060468263383474,0.0,-5.0,0.7319260448457297,0.013233730907860142,-0.1130161003373311,-0.012545454399556339,0.0,0.0,0.0,0.0
18.769075632095337,-0.30701807,0.22603686,-5.205316,0.013225102543675545,nan,nan,nan,nan,nan,8.759946584701538,9.959946584701537,0.00035762786865234375,0.1381919012325205,-0.0705436809933934,0.0,-5.0,0.7314484207091608,0.01828446544289857,-0.08799572331571388,-0.012547996272207287,0.0,0.0,0.0,0.0
18.869126319885254,-0.32647622,0.19928402,-5.2098427,0.013109295934407907,nan,nan,nan,nan,nan,8.859999179840088,10.059999179840087,0.00035858154296875,0.19742770471311943,-0.10331798476305247,0.0,-5.0,0.7306754909967362,0.023675719188077496,-0.05933847448612931,-0.011865853433409493,0.0,0.0,0.0,0.0
18.969001293182373,-0.3332011,0.17600325,-5.21473,0.012479288883272821,nan,nan,nan,nan,nan,8.959956169128418,10.159956169128417,0.00035643577575683594,0.24925427512845671,-0.13509678356471588,0.0,-5.0,0.7298758595852941,0.024249812164442247,-0.025859643852849046,-0.011028341805533949,0.0,0.0,0.0,0.0
19.06887173652649,-0.3234469,0.15485929,-5.221837,0.012324927808045002,nan,nan,nan,nan,nan,9.05976152420044,10.259761524200439,0.0003600120544433594,0.2917449874850078,-0.16557010742215458,0.0,-5.0,0.7289660508038993,0.02250101914467015,0.011996395944448015,-0.010241038726244132,0.0,0.0,0.0,0.0
19.168962240219116,-0.3001876,0.12617679,-5.228655,0.012533889068905494,nan,nan,nan,nan,nan,9.159845352172852,10.35984535217285,0.0004436969757080078,0.3234794970871755,-0.19458187493424994,0.0,-5.0,0.7280933238225006,0.020821271931843167,0.0508465166432416,-0.010171857000624316,0.0,0.0,0.0,0.0
19.26884698867798,-0.27017242,0.09629903,-5.2320495,0.012715050331156124,nan,nan,nan,nan,nan,9.259729146957397,10.459729146957397,0.0003485679626464844,0.3431143993255416,-0.2217214786487642,0.0,-5.0,0.7276216946684183,0.022480492356582258,0.0888734184976162,-0.010479631027421086,0.0,0.0,0.0,0.0
19.369088888168335,-0.23202108,0.063632324,-5.2349916,0.013288605323411744,nan,nan,nan,nan,nan,9.360012292861938,10.560012292861938,0.00037360191345214844,0.3499959521097323,-0.24689151886754973,0.0,-5.0,0.7273947355416699,0.023508166440257775,0.11967051119240832,-0.011223714653073612,0.0,0.0,0.0,0.0
19.469033241271973,-0.18671481,0.035187796,-5.230091,0.014962006715448952,nan,nan,nan,nan,nan,9.459914207458496,10.659914207458495,0.00036334991455078125,0.34381141080839245,-0.26966113230758154,0.0,-5.0,0.7276507496973945,0.02311290204920629,0.1450111295255687,-0.0126239621408533,0.0,0.0,0.0,0.0
19.56893515586853,-0.134348,0.0060515595,-5.2236595,0.01711248002522755,nan,nan,nan,nan,nan,9.559834957122803,10.759834957122802,0.00035881996154785156,0.32483683785565376,-0.289921495201776,0.0,-5.0,0.7281982701192429,0.021212880195983386,0.16375391456206068,-0.0145661453610855,0.0,0.0,0.0,0.0
19.66887664794922,-0.0831161,-0.02139522,-5.220491,0.018547047338706206,nan,nan,nan,nan,nan,9.659747123718262,10.859747123718261,0.0004527568817138672,0.2937811997295738,-0.3074778374123476,0.0,-5.0,0.7287727100810175,0.01967985140173388,0.17434002375451008,-0.016484982208882837,0.0,0.0,0.0,0.0
19.76876211166382,-0.02667221,-0.052710034,-5.2209425,0.018422826615235914,nan,nan,nan,nan,nan,9.759657382965088,10.959657382965087,0.00035381317138671875,0.25179940525549604,-0.3221681266985329,0.0,-5.0,0.7290071786205046,0.020911534835077336,0.17810834673424233,-0.017294845059324472,0.0,0.0,0.0,0.0
19.86949586868286,0.020286115,-0.08306895,-5.2226276,0.01708749218365859,nan,nan,nan,nan,nan,9.860398530960083,11.060398530960082,0.0003561973571777344,0.19999126785689578,-0.33394009518537854,0.0,-5.0,0.7291378658272578,0.024115800387899032,0.17202699085672898,-0.017002750281562038,0.0,0.0,0.0,0.0
19.96865153312683,0.06827836,-0.1137121,-5.216748,0.015965408648269,nan,nan,nan,nan,nan,9.959550380706787,11.159550380706786,0.000354766845703125,0.14160511242340837,-0.3424370326240194,0.0,-5.0,0.7295622191874281,0.026298791412442554,0.15945704751392276,-0.016333663174547052,0.0,0.0,0.0,0.0
20.068671464920044,0.1079799,-0.13938576,-5.212924,0.015020695942345598,nan,nan,nan,nan,nan,10.059547901153564,11.259547901153564,0.0003819465637207031,0.07747370820500223,-0.3478226716056638,0.0,-5.0,0.7300741215396457,0.027689226741294037,0.14242940922431233,-0.015615624111554113,0.0,0.0,0.0,0.0
20.168679237365723,0.14762105,-0.16574755,-5.211449,0.01403817965313714,nan,nan,nan,nan,nan,10.159608602523804,11.359608602523803,0.0003848075866699219,0.0104130634532164,-0.3499612636078624,0.0,-5.0,0.7303559240938629,0.02795552678463447,0.12427380209967866,-0.01473483801374096,0.0,0.0,0.0,0.0
20.269149780273438,0.1829436,-0.18999857,-5.213904,0.013252962247364296,nan,nan,nan,nan,nan,10.260050773620605,11.460050773620605,0.0003712177276611328,-0.0572906949482171,-0.34881782172349535,0.0,-5.0,0.7301763554550605,0.025388307622509605,0.10155684416154212,-0.013703433491348657,0.0,0.0,0.0,0.0
20.3689386844635,0.20398894,-0.21146289,-5.217383,0.011746674742433287,nan,nan,nan,nan,nan,10.359841108322144,11.559841108322143,0.0003581047058105469,-0.12242785208752407,-0.3444279822638711,0.0,-5.0,0.72980865069698,0.021982289245432263,0.07356839818084004,-0.012101845422039893,0.0,0.0,0.0,0.0
20.46890354156494,0.22044343,-0.22987297,-5.219437,0.009992474345069504,nan,nan,nan,nan,nan,10.45983362197876,11.659833621978759,0.0003657341003417969,-0.1831390229073879,-0.33681718202167665,0.0,-5.0,0.7294493655382054,0.01873359110133484,0.043594720459079785,-0.009995551909999652,0.0,0.0,0.0,0.0
20.56899094581604,0.22921227,-0.24727407,-5.2209992,0.00811580350133299,nan,nan,nan,nan,nan,10.559865474700928,11.759865474700927,0.0003936290740966797,-0.2370470832884401,-0.32605724317064305,0.0,-5.0,0.7291501468814158,0.015280948709385653,0.012435656602833526,-0.0076552176049608685,0.0,0.0,0.0,0.0
20.668901205062866,0.22395197,-0.26186553,-5.219934,0.006686865482181809,nan,nan,nan,nan,nan,10.65978717803955,11.85978717803955,0.0003476142883300781,-0.28207310069451774,-0.312267890702284,0.0,-5.0,0.7289275346803008,0.012756415194714238,-0.01742254918638065,-0.005634745368488141,0.0,0.0,0.0,0.0
20.76887011528015,0.20445131,-0.275849,-5.215392,0.005148765668165903,nan,nan,nan,nan,nan,10.759746074676514,11.959746074676513,0.0003573894500732422,-0.31661627333852194,-0.2955607975693322,0.0,-5.0,0.729027047014573,0.011274605011437884,-0.051205706228544805,-0.003393869414459478,0.0,0.0,0.0,0.0
20.868927717208862,0.17281853,-0.2829171,-5.2110415,0.003024520873738383,nan,nan,nan,nan,nan,10.859863758087158,12.059863758087157,0.0003802776336669922,-0.339398329465992,-0.27606337923035446,0.0,-5.0,0.7291744245825208,0.00701618077825518,-0.0838816311111601,-0.0010231730727217085,0.0,0.0,0.0,0.0
20.968687057495117,0.13182727,-0.2888751,-5.2049165,0.0010260226259972954,nan,nan,nan,nan,nan,10.959585189819336,12.159585189819335,0.0003821849822998047,-0.34949044037082166,-0.25407458865300236,0.0,-5.0,0.7294698911996039,0.0031818990196937997,-0.11362003588965554,0.0013597084516415317,0.0,0.0,0.0,0.0
21.06882905960083,0.08145338,-0.29429024,-5.2013636,-0.0005785945094009433,nan,nan,nan,nan,nan,11.059816122055054,12.259816122055053,0.0005915164947509766,-0.3465849756529879,-0.2295966830623469,0.0,-5.0,0.7298242525485886,0.001971371810449459,-0.1390244591880744,0.0034476265842294067,0.0,0.0,0.0,0.0
21.168872117996216,0.031194126,-0.29766595,-5.2005343,-0.0014429463665585878,nan,nan,nan,nan,nan,11.159828186035156,12.359828186035156,0.00046896934509277344,-0.3307547786415493,-0.2030255124953998,0.0,-5.0,0.7299784699327448,0.002855756140330152,-0.15655775762547375,0.00475134959756863,0.0,0.0,0.0,0.0
21.268938779830933,-0.028247477,-0.29837263,-5.2001886,-0.003069806994545907,nan,nan,nan,nan,nan,11.259802341461182,12.459802341461181,0.0003573894500732422,-0.3026106668949756,-0.17456940673717894,0.0,-5.0,0.7301114544034107,0.003055447696791542,-0.16837474152089424,0.006267545235102984,0.0,0.0,0.0,0.0
21.369067907333374,-0.09301964,-0.3001106,-5.207131,-0.004979172279660942,nan,nan,nan,nan,nan,11.359937191009521,12.55993719100952,0.0003616809844970703,-0.2631254801806393,-0.14443471518994397,0.0,-5.0,0.7299957970746578,0.004652078372168135,-0.17548086958242662,0.007962494414345005,0.0,0.0,0.0,0.0
21.468918085098267,-0.15469298,-0.29984286,-5.208365,-0.0063613948615928815,nan,nan,nan,nan,nan,11.459815502166748,12.659815502166747,0.0005285739898681641,-0.21394733376995254,-0.11302998538475907,0.0,-5.0,0.7300275686106297,0.005164623562263807,-0.17699182282304993,0.009496150263602742,0.0,0.0,0.0,0.0
21.568922758102417,-0.20696686,-0.2953499,-5.2095823,-0.007243725305129433,nan,nan,nan,nan,nan,11.559818267822266,12.759818267822265,0.0003566741943359375,-0.15674160168585283,-0.08053151414655364,0.0,-5.0,0.7302601826911632,0.004271426182720014,-0.17144032232191006,0.010280096448093091,0.0,0.0,0.0,0.0
21.668938159942627,-0.2613787,-0.28506297,-5.2134566,-0.007935159517768367,nan,nan,nan,nan,nan,11.65983247756958,12.85983247756958,0.00039386749267578125,-0.0936879339828011,-0.04727726396237012,0.0,-5.0,0.7303191016019919,0.0021472167967588702,-0.1584991307978367,0.010393768028028364,0.0,0.0,0.0,0.0
21.76893949508667,-0.304198,-0.27314824,-5.2206187,-0.008429718664495382,nan,nan,nan,nan,nan,11.759809494018555,12.959809494018554,0.0003502368927001953,-0.02716757946422665,-0.013594047293560424,0.0,-5.0,0.7299255449075979,-0.0009643952475828012,-0.13736562696291618,0.010124901591667824,0.0,0.0,0.0,0.0
21.86964774131775,-0.33814892,-0.26078534,-5.225435,-0.009171511740699608,nan,nan,nan,nan,nan,11.860814809799194,13.060814809799194,0.0011272430419921875,0.041055644986098865,0.020563343919564134,0.0,-5.0,0.7295716659881708,-0.0032328036297378402,-0.11132689053685087,0.009915705827054888,0.0,0.0,0.0,0.0
21.968976259231567,-0.36918426,-0.2454827,-5.231014,-0.009414860824190248,nan,nan,nan,nan,nan,11.959885120391846,13.159885120391845,0.00036787986755371094,0.10647181164137738,0.05387810057587455,0.0,-5.0,0.7292457919944412,-0.0040845336203737094,-0.08043146676377431,0.00954218469691319,0.0,0.0,0.0,0.0
22.069020748138428,-0.39134437,-0.23180142,-5.234332,-0.008802200316156297,nan,nan,nan,nan,nan,12.059942483901978,13.259942483901977,0.00034809112548828125,0.16857968051872207,0.08702261256358577,0.0,-5.0,0.7289566607923263,-0.0028756543250410254,-0.04944365209020626,0.008573939819269724,0.0,0.0,0.0,0.0
22.168647289276123,-0.40557748,-0.21914086,-5.236288,-0.007943406476136358,nan,nan,nan,nan,nan,12.159531593322754,13.359531593322753,0.0003604888916015625,0.2241558813282278,0.1192047476155213,0.0,-5.0,0.7288336474070459,-0.0016330444414159413,-0.02023214540705642,0.007304690295160281,0.0,0.0,0.0,0.0
22.269073009490967,-0.40625855,-0.20791955,-5.2416134,-0.006948297051683355,nan,nan,nan,nan,nan,12.25995397567749,13.45995397567749,0.0004527568817138672,0.2718039499646863,0.15053757802905401,0.0,-5.0,0.728414802397544,0.0016852510180615369,0.009820615552644223,0.0059542255213304975,0.0,0.0,0.0,0.0
22.368882656097412,-0.38750368,-0.19509953,-5.2502446,-0.006384702688637187,nan,nan,nan,nan,nan,12.359816789627075,13.559816789627074,0.00033473968505859375,0.3090616933999408,0.18029075014869553,0.0,-5.0,0.7277504992838242,0.0030215551472056396,0.044531847789681424,0.004601339075192147,0.0,0.0,0.0,0.0
22.46862506866455,-0.360634,-0.17402306,-5.2589498,-0.0063790702144045485,nan,nan,nan,nan,nan,12.45952820777893,13.65952820777893,0.0003566741943359375,0.3348055097592113,0.20832405052674838,0.0,-5.0,0.7270812929473497,0.001680653725124502,0.07879834599339403,0.0037777052214800263,0.0,0.0,0.0,0.0
22.568560361862183,-0.3325246,-0.15257846,-5.265295,-0.006744036812834837,nan,nan,nan,nan,nan,12.559430837631226,13.759430837631225,0.0004215240478515625,0.3481595054542778,0.23447152011583397,0.0,-5.0,0.7265949707472864,-0.0026416149353951954,0.10808475113292226,0.0038258636445098982,0.0,0.0,0.0,0.0
22.66883635520935,-0.29531306,-0.12660433,-5.2711883,-0.007130009731822701,nan,nan,nan,nan,nan,12.659770965576172,13.859770965576171,0.0003895759582519531,0.34853944563726114,0.2585338467848983,0.0,-5.0,0.7263324154524143,-0.008478579765220621,0.13147105687114768,0.004370115235703258,0.0,0.0,0.0,0.0
22.769293069839478,-0.23999928,-0.09319857,-5.2759404,-0.0065066018420724256,nan,nan,nan,nan,nan,12.760189771652222,13.960189771652221,0.0004737377166748047,0.33582968888262793,0.2801818307651946,0.0,-5.0,0.7263447338951556,-0.017128996045429973,0.15336867166798304,0.004748132514642153,0.0,0.0,0.0,0.0
22.86869168281555,-0.18094258,-0.061901413,-5.28176,-0.005675309090526801,nan,nan,nan,nan,nan,12.859585046768188,14.059585046768188,0.0003650188446044922,0.31082130546049214,0.2990120570375865,0.0,-5.0,0.7264701408904357,-0.024549126974819622,0.17061462081242565,0.0049920170352020935,0.0,0.0,0.0,0.0
22.968875646591187,-0.11694228,-0.029703803,-5.2867,-0.004691853984945009,nan,nan,nan,nan,nan,12.959829807281494,14.159829807281493,0.0003657341003417969,0.2740137666583152,0.3152091525127535,0.0,-5.0,0.7267102415555607,-0.029721810376162363,0.18106186069794192,0.005226855794008761,0.0,0.0,0.0,0.0
23.068933963775635,-0.059351865,-0.002224678,-5.2901354,-0.004086710750753557,nan,nan,nan,nan,nan,13.059856176376343,14.259856176376342,0.0004298686981201172,0.22705913927990426,0.3284232778907292,0.0,-5.0,0.7269953028548678,-0.030921450007387326,0.18187136830275497,0.005276822559267464,0.0,0.0,0.0,0.0
23.168688774108887,0.0019385591,0.025399422,-5.2920675,-0.004222763311258348,nan,nan,nan,nan,nan,13.15974736213684,14.35974736213684,0.0004253387451171875,0.17171960892496443,0.33855779153956195,0.0,-5.0,0.7273304982113691,-0.029037052071325734,0.1751847962083856,0.005686878929362082,0.0,0.0,0.0,0.0
23.268634557724,0.058888856,0.049813457,-5.2885966,-0.004671163416237029,nan,nan,nan,nan,nan,13.259526252746582,14.459526252746581,0.0003695487976074219,0.11006785482902814,0.345532103397748,0.0,-5.0,0.727925683360339,-0.026231477552652215,0.16322480406613202,0.006176619380730396,0.0,0.0,0.0,0.0
23.369425296783447,0.111702085,0.07626807,-5.2853727,-0.005130807338666701,nan,nan,nan,nan,nan,13.36073899269104,14.56073899269104,0.0009059906005859375,0.04337049017109793,0.34932496470862057,0.0,-5.0,0.7284990840038568,-0.02384272746980555,0.14571465164989914,0.006604942536015777,0.0,0.0,0.0,0.0
23.468897104263306,0.1568161,0.094940335,-5.276103,-0.006188246684465768,nan,nan,nan,nan,nan,13.459860801696777,14.659860801696777,0.0003840923309326172,-0.0235707334026778,0.3498012968666969,0.0,-5.0,0.7291546751167516,-0.020568364807545234,0.12290769895054814,0.00696744161057673,0.0,0.0,0.0,0.0
23.568840980529785,0.20013718,0.11199672,-5.2652745,-0.007863482338463281,nan,nan,nan,nan,nan,13.559764862060547,14.759764862060546,0.0005304813385009766,-0.09016057812892916,0.34703441650273603,0.0,-5.0,0.7300048937826987,-0.015453934746436688,0.09800755768073434,0.007860762622872325,0.0,0.0,0.0,0.0
23.668590545654297,0.23209192,0.12795787,-5.259555,-0.008919816578125912,nan,nan,nan,nan,nan,13.659512519836426,14.859512519836425,0.0003707408905029297,-0.1533023541455049,0.3410454754136743,0.0,-5.0,0.7302544270039522,-0.012852124044521341,0.07090903744669423,0.008513092718620196,0.0,0.0,0.0,0.0
23.768956899642944,0.25613332,0.14102209,-5.2499,-0.009338105323027049,nan,nan,nan,nan,nan,13.759811401367188,14.959811401367187,0.0003604888916015625,-0.21105848429295646,0.33182906038059123,0.0,-5.0,0.7304945915068771,-0.010660029780104137,0.041066252982183415,0.008517565622765951,0.0,0.0,0.0,0.0
23.869033813476562,0.26801068,0.15004404,-5.235767,-0.009402487635791375,nan,nan,nan,nan,nan,13.859989166259766,15.059989166259765,0.00052642822265625,-0.2608490626044807,0.3195126426496827,0.0,-5.0,0.7309117388816758,-0.009170430948581923,0.01195099651409258,0.00810612073243525,0.0,0.0,0.0,0.0
23.969025135040283,0.2686672,0.15798187,-5.220004,-0.009057028695091321,nan,nan,nan,nan,nan,13.959996461868286,15.159996461868285,0.0003879070281982422,-0.3008270524692034,0.3042309326841815,0.0,-5.0,0.7314126365094747,-0.007446613573417279,-0.02054365445173249,0.007432467457002207,0.0,0.0,0.0,0.0
24.06874132156372,0.2591426,0.16338502,-5.208858,-0.008274335370511941,nan,nan,nan,nan,nan,14.059668779373169,15.259668779373168,0.0004730224609375,-0.3295183404224568,0.28617354989558236,0.0,-5.0,0.7317694527540065,-0.005715477848881662,-0.0533310624810198,0.006302406661701645,0.0,0.0,0.0,0.0
24.16884422302246,0.23652452,0.16910037,-5.2007084,-0.006889252753961292,nan,nan,nan,nan,nan,14.16012191772461,15.360121917724609,0.0007619857788085938,-0.3460910786223429,0.2652894697095658,0.0,-5.0,0.7317227594911851,-0.00551263874741847,-0.08544969103808245,0.004674023691952869,0.0,0.0,0.0,0.0
24.268758296966553,0.20457329,0.17573394,-5.1941147,-0.005317476880567341,nan,nan,nan,nan,nan,14.259671449661255,15.459671449661254,0.0004143714904785156,-0.34967852089677387,0.24212681916686044,0.0,-5.0,0.7316660305569257,-0.007629285796566153,-0.11562381920791284,0.00264965622354092,0.0,0.0,0.0,0.0
24.368748664855957,0.1624591,0.18581152,-5.188998,-0.004021474635396046,nan,nan,nan,nan,nan,14.359663009643555,15.559663009643554,0.0003364086151123047,-0.3402839251009135,0.21660635182085514,0.0,-5.0,0.7316236006776261,-0.01266240948077444,-0.13986464528855463,0.0005683108778186125,0.0,0.0,0.0,0.0
24.468724250793457,0.118095234,0.19616517,-5.186012,-0.0033788321394729037,nan,nan,nan,nan,nan,14.459624290466309,15.659624290466308,0.00044608116149902344,-0.3182211004988026,0.1890724513413645,0.0,-5.0,0.73155700978506,-0.019157390934932943,-0.1585021289056123,-0.0012975946671662407,0.0,0.0,0.0,0.0
24.569260120391846,0.062290564,0.20743582,-5.1818438,-0.003107754642021761,nan,nan,nan,nan,nan,14.560509204864502,15.760509204864501,0.00037169456481933594,-0.2839456384963683,0.15949650572289242,0.0,-5.0,0.7315136570545893,-0.025524749386816342,-0.17039593661704824,-0.0026745270264297016,0.0,0.0,0.0,0.0
24.66938853263855,-0.00054727064,0.21709485,-5.1735797,-0.0025670358168919886,nan,nan,nan,nan,nan,14.660595178604126,15.860595178604125,0.00034618377685546875,-0.2392977524280769,0.12865634859815742,0.0,-5.0,0.732010772002328,-0.02955408167487995,-0.18095533024409272,-0.004193669617161524,0.0,0.0,0.0,0.0
24.769009351730347,-0.06859068,0.22307153,-5.1704774,-0.0007892373328962851,nan,nan,nan,nan,nan,14.760020017623901,15.9600200176239,0.00038313865661621094,-0.18609743413388039,0.0968278653763859,0.0,-5.0,0.7322929817285044,-0.029787102647696243,-0.1850261877038577,-0.005916535960267291,0.0,0.0,0.0,0.0
24.86896324157715,-0.13118386,0.23025464,-5.1746907,-4.992168773102282e-05,nan,nan,nan,nan,nan,14.859962463378906,16.059962463378906,0.0005106925964355469,-0.12571565773955706,0.06393352306877562,0.0,-5.0,0.7321552956876274,-0.029036771753828877,-0.18077018814840048,-0.007196632329354554,0.0,0.0,0.0,0.0
24.968677759170532,-0.19624275,0.2389792,-5.18178,-0.0003209002627102917,nan,nan,nan,nan,nan,14.959882020950317,16.159882020950317,0.0008664131164550781,-0.0606703740656534,0.03045065136502832,0.0,-5.0,0.7317710795580078,-0.029294778530825565,-0.1705559262248589,-0.007269176978670169,0.0,0.0,0.0,0.0
25.0688259601593,-0.24756515,0.24583767,-5.189406,-0.0008807239308394662,nan,nan,nan,nan,nan,15.059756994247437,16.259756994247436,0.00034618377685546875,0.006601685721643195,-0.0033009896777292896,0.0,-5.0,0.7312458017532334,-0.029226641855211732,-0.15293552605045505,-0.006405466170180827,0.0,0.0,0.0,0.0
25.169077396392822,-0.2996929,0.25033018,-5.202392,-0.0014408870894397335,nan,nan,nan,nan,nan,15.15999436378479,16.35999436378479,0.0005071163177490234,0.07386809142478408,-0.03714380495138988,0.0,-5.0,0.730430495232776,-0.027597015040852484,-0.13338443435892586,-0.00523480512248405,0.0,0.0,0.0,0.0
25.268802881240845,-0.34516415,0.24757859,-5.2131915,-0.0013776507569325872,nan,nan,nan,nan,nan,15.25983715057373,16.45983715057373,0.001096487045288086,0.1381238657304347,-0.07050741608860188,0.0,-5.0,0.7296149467687286,-0.0209830510161862,-0.10530590810960763,-0.0036361453904614448,0.0,0.0,0.0,0.0
25.36917781829834,-0.3749654,0.24206321,-5.2172465,-0.0008129203985450181,nan,nan,nan,nan,nan,15.360137939453125,16.560137939453124,0.0004391670227050781,0.1975052260069334,-0.10336283769218438,0.0,-5.0,0.7290845314193363,-0.012799097803507468,-0.07284238033573709,-0.0022914608705946493,0.0,0.0,0.0,0.0
25.46873688697815,-0.39431974,0.23159415,-5.2182546,8.521231379679181e-05,nan,nan,nan,nan,nan,15.4596586227417,16.6596586227417,0.00035119056701660156,0.2491128922743531,-0.1350039119548671,0.0,-5.0,0.7288080305111128,-0.0042860155892043015,-0.035099154556474395,-0.0011831975386259724,0.0,0.0,0.0,0.0
25.568735599517822,-0.40116072,0.21654032,-5.2189035,0.0009476901798797371,nan,nan,nan,nan,nan,15.559653759002686,16.759653759002685,0.0004436969757080078,0.2917046980493159,-0.1655379843770224,0.0,-5.0,0.7284600479942656,0.0052782045186959906,0.005355789926301653,-0.0004068336166520774,0.0,0.0,0.0,0.0
25.669127702713013,-0.39851886,0.19255531,-5.220139,0.001924066660174941,nan,nan,nan,nan,nan,15.660238981246948,16.860238981246948,0.0003590583801269531,0.3235811071086238,-0.19469255791039103,0.0,-5.0,0.7280891031275493,0.016206318302619933,0.04278470004767717,-0.00021903946932207082,0.0,0.0,0.0,0.0
25.768677234649658,-0.3738899,0.16504638,-5.2219234,0.0025889185949844323,nan,nan,nan,nan,nan,15.759647130966187,16.959647130966186,0.00038361549377441406,0.34310344112121105,-0.22170000784164537,0.0,-5.0,0.7277011947418016,0.027989936076753354,0.08135929872505848,-0.0004926916825600434,0.0,0.0,0.0,0.0
25.868832111358643,-0.3401027,0.12880023,-5.2268157,0.0027071760068470667,nan,nan,nan,nan,nan,15.859816312789917,17.059816312789916,0.0004527568817138672,0.3499952892085074,-0.24684451709262015,0.0,-5.0,0.7273028786927673,0.03961929611610722,0.11696033642069723,-0.0011749233675644028,0.0,0.0,0.0,0.0
25.969002723693848,-0.30026332,0.090951875,-5.2306986,0.002409171575309895,nan,nan,nan,nan,nan,15.959983825683594,17.159983825683593,0.0005512237548828125,0.34380258835607197,-0.2696761468388227,0.0,-5.0,0.726988747947902,0.05000462887280421,0.14531435300593196,-0.002132271326226132,0.0,0.0,0.0,0.0
26.068807363510132,-0.24603978,0.048053324,-5.2305527,0.002283220211711982,nan,nan,nan,nan,nan,16.05978488922119,17.25978488922119,0.00047135353088378906,0.32484944990023235,-0.2899120052425165,0.0,-5.0,0.7270986815378702,0.05759563017426553,0.16930123490890137,-0.0035656624568452034,0.0,0.0,0.0,0.0
26.168981790542603,-0.19137028,0.012476852,-5.224366,0.0031095324536168263,nan,nan,nan,nan,nan,16.159972667694092,17.35997266769409,0.00034928321838378906,0.2936982177389309,-0.30751428417028465,0.0,-5.0,0.727741821813048,0.05792615293025126,0.18591205509363454,-0.0053935281533980025,0.0,0.0,0.0,0.0
26.269059658050537,-0.12319975,-0.032405846,-5.2180524,0.0026641209625223945,nan,nan,nan,nan,nan,16.2600200176239,17.4600200176239,0.00039386749267578125,0.2516289123255219,-0.32221605219929494,0.0,-5.0,0.728476061460259,0.057683227680029904,0.19570010432141485,-0.006733969471048731,0.0,0.0,0.0,0.0
26.36922812461853,-0.058158886,-0.07386387,-5.2174797,0.0014468078768909215,nan,nan,nan,nan,nan,16.360233783721924,17.560233783721923,0.00035834312438964844,0.20008274290620118,-0.3339234006114167,0.0,-5.0,0.729028372376948,0.05729007046540105,0.19874330217311914,-0.007124582088157022,0.0,0.0,0.0,0.0
26.46928596496582,0.010966386,-0.11952729,-5.2198825,-0.00026542708029686133,nan,nan,nan,nan,nan,16.460286617279053,17.660286617279052,0.00041866302490234375,0.14114938811785793,-0.34248844743271406,0.0,-5.0,0.7291527262134452,0.05526690088321595,0.19444065105633235,-0.006761169337445603,0.0,0.0,0.0,0.0
26.56878399848938,0.065958776,-0.1585914,-5.221596,-0.001982499806330135,nan,nan,nan,nan,nan,16.55967378616333,17.75967378616333,0.0008935928344726562,0.0773906387379564,-0.34782741226976,0.0,-5.0,0.7292761304280853,0.05405832962638638,0.1819203344435205,-0.005664046857888749,0.0,0.0,0.0,0.0
26.668851852416992,0.12541896,-0.20348686,-5.219831,-0.0035190433460013893,nan,nan,nan,nan,nan,16.659757137298584,17.859757137298583,0.00043654441833496094,0.01031260135393845,-0.3499620076383681,0.0,-5.0,0.7295220155862792,0.050579896021100364,0.1607956354767251,-0.004075418052241386,0.0,0.0,0.0,0.0
26.768810510635376,0.17631388,-0.24433722,-5.217865,-0.004333862053865935,nan,nan,nan,nan,nan,16.759782314300537,17.959782314300536,0.0004458427429199219,-0.0571114841468456,-0.34882526876982334,0.0,-5.0,0.7297862354347007,0.045738899553920326,0.13629279755471152,-0.002543015944126902,0.0,0.0,0.0,0.0
26.868711233139038,0.22296293,-0.2865038,-5.217377,-0.004712389068830088,nan,nan,nan,nan,nan,16.859615802764893,18.059615802764892,0.00038623809814453125,-0.12228501827993378,-0.3444415215673617,0.0,-5.0,0.7299180101587527,0.04075145387276882,0.1081181382378331,-0.0010990824125627317,0.0,0.0,0.0,0.0
26.968708038330078,0.25370118,-0.32099876,-5.219574,-0.00486143458328636,nan,nan,nan,nan,nan,16.9596049785614,18.1596049785614,0.0003540515899658203,-0.18300716330662295,-0.3368382043104891,0.0,-5.0,0.729787409787955,0.0352566309001344,0.07507198334295344,0.0004957723780348557,0.0,0.0,0.0,0.0
27.068613529205322,0.2688713,-0.35008574,-5.226628,-0.005137303696944111,nan,nan,nan,nan,nan,17.05950927734375,18.25950927734375,0.0006988048553466797,-0.23686970110719427,-0.32610103008607766,0.0,-5.0,0.7291420810685355,0.02664477299686299,0.03670368893813415,0.0025562494787558392,0.0,0.0,0.0,0.0
27.1688814163208,0.2745576,-0.3707729,-5.2357645,-0.005617437236273738,nan,nan,nan,nan,nan,17.15987801551819,18.359878015518188,0.0004143714904785156,-0.2821094850101025,-0.3122540090347966,0.0,-5.0,0.7282812796682888,0.0165429761578588,-0.003946529374931729,0.0047877185690526555,0.0,0.0,0.0,0.0
27.268733024597168,0.26805446,-0.3932317,-5.24524,-0.006126596581675286,nan,nan,nan,nan,nan,17.259698152542114,18.459698152542114,0.0005435943603515625,-0.3166024510256281,-0.29556948139820854,0.0,-5.0,0.7275288406284292,0.009427773245704011,-0.04190511155183904,0.006755750923315822,0.0,0.0,0.0,0.0
27.368945121765137,0.25202325,-0.4100354,-5.255569,-0.006590204869015962,nan,nan,nan,nan,nan,17.35989785194397,18.55989785194397,0.0006957054138183594,-0.33940396374150134,-0.2760562885031688,0.0,-5.0,0.7268619093785036,0.004262937668585762,-0.07763299423920077,0.008501952567376663,0.0,0.0,0.0,0.0
27.468695878982544,0.22527145,-0.42189914,-5.2648153,-0.006986369109880578,nan,nan,nan,nan,nan,17.459614038467407,18.659614038467407,0.0004932880401611328,-0.34949149278361685,-0.25406787574821815,0.0,-5.0,0.726210793780208,-0.000450815985873313,-0.10897200193555785,0.00986901950429748,0.0,0.0,0.0,0.0
27.568556785583496,0.19636214,-0.42652196,-5.26677,-0.007111030256118455,nan,nan,nan,nan,nan,17.559468269348145,18.759468269348144,0.00041365623474121094,-0.34661769742945103,-0.22968549689206863,0.0,-5.0,0.7262204178565655,-0.005784101505139027,-0.13485846896230366,0.010564537606292744,0.0,0.0,0.0,0.0
27.668543815612793,0.16437055,-0.42878065,-5.264373,-0.00704083372107501,nan,nan,nan,nan,nan,17.65947151184082,18.85947151184082,0.0005152225494384766,-0.33083362689282675,-0.20312379550218285,0.0,-5.0,0.7266445711903164,-0.010068356658678734,-0.15355088568639766,0.010681449524298421,0.0,0.0,0.0,0.0
27.768993139266968,0.12039167,-0.42845932,-5.2584524,-0.006334465183075939,nan,nan,nan,nan,nan,17.75986909866333,18.95986909866333,0.0007236003875732422,-0.3025879677114044,-0.1745498306068768,0.0,-5.0,0.7273466576270589,-0.011979719225519797,-0.16658194188916814,0.010242096459225494,0.0,0.0,0.0,0.0
27.868799209594727,0.06808995,-0.42595375,-5.248646,-0.0052025974356997295,nan,nan,nan,nan,nan,17.859697341918945,19.059697341918945,0.0009472370147705078,-0.2632324695546877,-0.1445086265407694,0.0,-5.0,0.7282398973090137,-0.011792945981253982,-0.1758578564025229,0.009445040858606098,0.0,0.0,0.0,0.0
27.968657732009888,0.014201627,-0.42128977,-5.23666,-0.004083011556279685,nan,nan,nan,nan,nan,17.959551572799683,19.159551572799682,0.0005500316619873047,-0.21408864328915128,-0.11311449119592387,0.0,-5.0,0.7293730907549277,-0.010826467985607822,-0.18062912652358365,0.008319553406185688,0.0,0.0,0.0,0.0
28.0689058303833,-0.044726744,-0.41388467,-5.221462,-0.0031110105642957533,nan,nan,nan,nan,nan,18.059815406799316,19.259815406799316,0.0005576610565185547,-0.15674333261669118,-0.08053245613196269,0.0,-5.0,0.7306803963735689,-0.009744546190606586,-0.18035025461177104,0.007206305505414952,0.0,0.0,0.0,0.0
28.16874623298645,-0.10344538,-0.4002913,-5.2135425,-0.002125757431141675,nan,nan,nan,nan,nan,18.159624814987183,19.359624814987182,0.0005724430084228516,-0.09382331378041206,-0.047346876616479565,0.0,-5.0,0.7314342985859967,-0.009972428063781548,-0.1722583824429465,0.0058907798927015885,0.0,0.0,0.0,0.0
28.268696069717407,-0.15569665,-0.3859925,-5.205069,-0.000947155837529438,nan,nan,nan,nan,nan,18.259575843811035,19.459575843811034,0.0004248619079589844,-0.027325199265395114,-0.013673037089341897,0.0,-5.0,0.7318793892254406,-0.010240226803505188,-0.15712130883103695,0.004368119592165609,0.0,0.0,0.0,0.0
28.368523359298706,-0.20759548,-0.36695912,-5.1957536,0.00047801590031546805,nan,nan,nan,nan,nan,18.359405040740967,19.559405040740966,0.0004911422729492188,0.040108157994703804,0.020087188254073032,0.0,-5.0,0.7322544888514176,-0.010507468324228273,-0.1365517647858663,0.0025390190927358563,0.0,0.0,0.0,0.0
28.46849536895752,-0.24887106,-0.34503758,-5.1877394,0.0014661328932735387,nan,nan,nan,nan,nan,18.459362268447876,19.659362268447875,0.0005536079406738281,0.10613473640321534,0.05370330810002625,0.0,-5.0,0.7325189619724423,-0.012826209181988107,-0.11135225834558174,0.0007341453724316074,0.0,0.0,0.0,0.0
28.568464517593384,-0.28325224,-0.31657875,-5.179778,0.0014396654868794063,nan,nan,nan,nan,nan,18.559406042099,19.759406042099,0.000606536865234375,0.16826148540180103,0.08684680839567875,0.0,-5.0,0.7325724201194088,-0.01667506011400785,-0.08037830617220601,-0.00027461163640988157,0.0,0.0,0.0,0.0
28.668609380722046,-0.30451053,-0.2932464,-5.1724463,0.0010539094747934932,nan,nan,nan,nan,nan,18.65946102142334,19.85946102142334,0.0005233287811279297,0.2241192051234877,0.11918229854738141,0.0,-5.0,0.7324951819892014,-0.01749836495943798,-0.04633925438221035,-0.0005551520884168823,0.0,0.0,0.0,0.0
28.768661737442017,-0.3139785,-0.26819968,-5.1661887,0.0005322793989368368,nan,nan,nan,nan,nan,18.759534120559692,19.95953412055969,0.0004324913024902344,0.27162487607524693,0.15040932819133068,0.0,-5.0,0.7322878949554605,-0.01603023544275835,-0.01064613318794679,-0.0005117687365523505,0.0,0.0,0.0,0.0
28.86879563331604,-0.310674,-0.24254596,-5.161036,3.581587885237523e-05,nan,nan,nan,nan,nan,18.85967254638672,20.059672546386718,0.00037932395935058594,0.30901587563861255,0.1802489199469727,0.0,-5.0,0.7319562599827233,-0.013809188381934972,0.024337028076578934,-0.00036631791313564935,0.0,0.0,0.0,0.0
28.968601942062378,-0.2949882,-0.21159497,-5.1564555,-0.0005892707965709666,nan,nan,nan,nan,nan,18.959479570388794,20.159479570388793,0.0003883838653564453,0.33479591662607205,0.20831082735708525,0.0,-5.0,0.7316022882449899,-0.013701078805295091,0.061944389608150414,3.5747445336640627e-05,0.0,0.0,0.0,0.0
29.0687255859375,-0.27291897,-0.18474749,-5.1557713,-0.0014865127267813154,nan,nan,nan,nan,nan,19.059590339660645,20.259590339660644,0.0004546642303466797,0.3481705425921063,0.2345115817553278,0.0,-5.0,0.7311251327718188,-0.012907439557303706,0.09482890491381353,0.0007716699659941341,0.0,0.0,0.0,0.0
29.16857099533081,-0.23919298,-0.14721134,-5.1578903,-0.0023461492838802098,nan,nan,nan,nan,nan,19.15944218635559,20.35944218635559,0.0009546279907226562,0.3485596779931828,0.258458854072504,0.0,-5.0,0.7305977002008892,-0.014598599805527034,0.12362087019245109,0.0018146646332360692,0.0,0.0,0.0,0.0
29.268869400024414,-0.20129181,-0.108681604,-5.158331,-0.0028542366733745306,nan,nan,nan,nan,nan,19.259743213653564,20.459743213653564,0.0005054473876953125,0.33591467207841313,0.280091260273602,0.0,-5.0,0.7302012205338675,-0.019427312894092684,0.14685291669673528,0.0030858768750596476,0.0,0.0,0.0,0.0
29.36859631538391,-0.15579866,-0.06564667,-5.158407,-0.003309684554476516,nan,nan,nan,nan,nan,19.35947346687317,20.55947346687317,0.0004315376281738281,0.31085600781610934,0.29899243468461967,0.0,-5.0,0.7300647608197246,-0.02488474676256231,0.16315193070399078,0.004372337461828155,0.0,0.0,0.0,0.0
29.468647241592407,-0.1120661,-0.027756007,-5.1597967,-0.004167767909338002,nan,nan,nan,nan,nan,19.459518909454346,20.659518909454345,0.0004425048828125,0.27414459879733544,0.31516341937512254,0.0,-5.0,0.729885763912033,-0.028120961523676893,0.1708657603948218,0.005993722644543314,0.0,0.0,0.0,0.0
29.56868624687195,-0.057182815,0.008794776,-5.16273,-0.005272906860791516,nan,nan,nan,nan,nan,19.559558153152466,20.759558153152465,0.00046372413635253906,0.22721256501403592,0.32838840969341676,0.0,-5.0,0.7297435120289029,-0.02759930893229645,0.17447706161799978,0.0073785848834841405,0.0,0.0,0.0,0.0
29.66871953010559,-0.004271637,0.04350542,-5.1594343,-0.005965285531204372,nan,nan,nan,nan,nan,19.659586668014526,20.859586668014526,0.0005118846893310547,0.171814347942299,0.3385439997613441,0.0,-5.0,0.7299395793135575,-0.02665604393412833,0.17256918962965664,0.008514933906579978,0.0,0.0,0.0,0.0
