time,x,y,z,yaw,platform,trajectory,traj_double,traj_short,traj_spin,traj_time,ref_time,comptime,x_ref,y_ref,yaw_ref,z_ref,throttle_input,p_input,q_input,r_input,cbf_term_pitch_cbf,cbf_term_roll_cbf,cbf_term_thrust_cbf,cbf_term_yaw_cbf
10.07865309715271,-0.054752264,0.09904105,-2.8972285,-3.0494322062857987e-05,SIM,HELIX,DblSpd,Not Short,Spin,0.06947851181030273,1.2694785118103027,0.0003688335418701172,-0.5992811706794102,-0.029361172815735914,0.39881843665933503,-2.507791404724121,0.7338409569737646,0.008471049519320003,0.03920796008,0.03920796008,-3.3721167979311515,0.0,27.027681746904477,-8.9631971084714
10.178752183914185,-0.053269602,0.100766756,-2.8956788,0.0014865069958623902,nan,nan,nan,nan,nan,0.16960477828979492,1.3696047782897949,0.0004448890686035156,-0.573095475115324,-0.17765578066120186,0.4302740309796697,-2.547841911315918,0.7271471015747577,-0.03853129528355966,0.10500334978481735,0.10500334978481736,-1.9171313193727533,0.0,12.018145711834146,-7.872227289334834
10.278972387313843,-0.045179673,0.10648787,-2.8947418,0.004801424239493435,nan,nan,nan,nan,nan,0.26990365982055664,1.4699036598205566,0.00048041343688964844,-0.510672970201811,-0.314981138332536,0.4617838539177011,-2.5879614639282225,0.7212417031347454,-0.0841698106512599,0.16816653285039795,0.17145748735422484,0.0,0.0,0.0,-6.675328910614466
10.379226922988892,-0.033716436,0.10684339,-2.895837,0.011623390214576255,nan,nan,nan,nan,nan,0.37017226219177246,1.5701722621917724,0.0005469322204589844,-0.4160048332232615,-0.432365561457994,0.4932841643772139,-2.628068904876709,0.7232972192000777,-0.11936081618814448,0.13076531657455348,0.2315574181821661,0.0,0.0,0.0,-5.549069865027329
10.478808879852295,-0.029013555,0.104878575,-2.8971815,0.022162387713319028,nan,nan,nan,nan,nan,0.4698173999786377,1.6698173999786377,0.00038123130798339844,-0.2958759826662998,-0.5219745232109049,0.5245886076609297,-2.6679269599914552,0.7258393829209772,-0.1363584750613191,0.047080815648972894,0.2859107183322253,0.0,0.0,0.0,-4.328974516722357
10.57895541191101,-0.032835405,0.102156624,-2.8993087,0.038714247405262754,nan,nan,nan,nan,nan,0.5698449611663818,1.7698449611663818,0.0004513263702392578,-0.15673059140786413,-0.5791679563968825,0.5560131927993218,-2.7079379844665525,0.7280923971265008,-0.13345059530919498,-0.03793206838462358,0.33506686870551217,0.14212235746559365,0.0,0.0,-3.066518735453111
10.67878794670105,-0.04274655,0.09995249,-2.9031725,0.059825074909552814,nan,nan,nan,nan,nan,0.6697483062744141,1.869748306274414,0.00044083595275878906,-0.00791913762535481,-0.5999477371065505,0.5873987543053658,-2.7478993225097654,0.7300425011340334,-0.11119546179381366,-0.11079942270801815,0.3795228099795501,0.23384047615106152,0.0,0.0,-1.7120811107834748
10.77900242805481,-0.05933513,0.08872629,-2.9132278,0.08720461857972765,nan,nan,nan,nan,nan,0.7700040340423584,1.9700040340423584,0.0004343986511230469,0.14190530882987226,-0.5829776010499019,0.618895020088973,-2.7880016136169434,0.7316751994385583,-0.07206447674346386,-0.1766993518114115,0.41972796639543414,0.0531275620569146,0.0,0.0,-0.462059244338864
10.87865924835205,-0.07298796,0.076990195,-2.9253793,0.11500387391992858,nan,nan,nan,nan,nan,0.8696045875549316,2.069604587554932,0.000377655029296875,0.2818961379717707,-0.5296551400643633,0.6501854568098308,-2.8278418350219727,0.7329535211227545,-0.021424312584697035,-0.22025936562701398,0.44091635356870407,0.0,0.0,0.0,0.0
10.978521347045898,-0.08958471,0.060790174,-2.9382615,0.1486193787597992,nan,nan,nan,nan,nan,0.9693758487701416,2.169375848770142,0.0003960132598876953,0.4045050408359877,-0.4431429475217629,0.68152952293714,-2.867750339508057,0.7340333650953069,0.03288192956365284,-0.23459383624298644,0.4438155456127504,0.0,0.0,0.0,0.0
11.078553676605225,-0.1033793,0.042240657,-2.9477124,0.18126619786458786,nan,nan,nan,nan,nan,1.0694072246551514,2.2694072246551515,0.0005950927734375,0.5020278532796423,-0.3285848969922903,0.7129553064980225,-2.907762889862061,0.7351165805197531,0.0871879593096267,-0.2296678624161258,0.4459764423205022,0.0,0.0,0.0,0.0
11.179404973983765,-0.11223968,0.013144417,-2.954551,0.22019628316498424,nan,nan,nan,nan,nan,1.1702187061309814,2.3702187061309816,0.00037217140197753906,0.5683647446936921,-0.19225378276973945,0.7446261674582196,-2.948087482452393,0.7363201355591605,0.14326763011119997,-0.20431860847484476,0.44637328809994126,0.0,0.0,0.0,0.0
11.278976202011108,-0.1141209,-0.018746296,-2.9610324,0.26308239603893374,nan,nan,nan,nan,nan,1.2699007987976074,2.4699007987976076,0.0003788471221923828,0.5982840532822271,-0.04534524879399305,0.7759422204598125,-2.987960319519043,0.7374929609892471,0.1916612469564477,-0.1648476947353896,0.4464890898227206,0.0,0.0,0.0,0.0
11.378735780715942,-0.107383154,-0.048675172,-2.971054,0.3035446358534313,nan,nan,nan,nan,nan,1.369607925415039,2.5696079254150392,0.0003986358642578125,0.5908417935772822,0.10443167604888977,0.8072661381089996,-3.027843170166016,0.738268424039572,0.22899237332064595,-0.11014428850388024,0.4425661253974358,0.0,0.0,0.0,0.0
11.478761434555054,-0.08959523,-0.08199181,-2.9831924,0.35119926021588804,nan,nan,nan,nan,nan,1.4696006774902344,2.6696006774902346,0.0003974437713623047,0.5463128294871187,0.24807719028112687,0.8386797876421656,-3.067840270996094,0.7386749432624663,0.2527782049132034,-0.04665095455536341,0.43177565503441445,0.0,0.0,0.0,0.0
11.579071760177612,-0.06357968,-0.11184529,-2.9943616,0.39726225657189507,nan,nan,nan,nan,nan,1.5699937343597412,2.7699937343597414,0.0005550384521484375,0.467083311538082,0.3766074615333836,0.870219196635432,-3.1079974937438966,0.739262126674212,0.2637384940834542,0.01976366671237353,0.413895819307464,0.0,0.0,0.0,0.0
11.678725242614746,-0.024150958,-0.13407484,-3.0148869,0.451360436863269,nan,nan,nan,nan,nan,1.6696326732635498,2.86963267326355,0.0004074573516845703,0.3591868374083597,0.4806087970819724,0.9015216924826007,-3.14785306930542,0.7392858178681007,0.2574360461446906,0.08778043754963548,0.3888726911700111,-0.003510626797767813,0.0,0.0,0.0
11.778331756591797,0.02375357,-0.14624408,-3.0367134,0.5045992951099345,nan,nan,nan,nan,nan,1.769157886505127,2.969157886505127,0.00047206878662109375,0.2290416805640113,0.5545628084936939,0.9327884603592704,-3.187663154602051,0.7391610952505318,0.23712217200223337,0.15245542666600917,0.3581018826674693,0.0,0.0,0.0,0.0
11.879041194915771,0.079790264,-0.14541563,-3.0625415,0.5617748759280254,nan,nan,nan,nan,nan,1.8699145317077637,3.069914531707764,0.00038361549377441406,0.0828018262892898,0.5942590828613041,0.9644420939961661,-3.2279658126831055,0.73898868807692,0.2031993824988921,0.210179663141176,0.3253245368731765,0.0,0.0,0.0,0.0
11.978599548339844,0.13455305,-0.1269392,-3.0876153,0.6118221724895805,nan,nan,nan,nan,nan,1.9694476127624512,3.1694476127624513,0.0005068778991699219,-0.0668861072575895,0.5962602189111111,0.9957113336192225,-3.2677790451049806,0.7388183808456382,0.15669187225721098,0.25761445453511933,0.29760270757338614,0.0,0.0,0.0,0.0
12.079440355300903,0.19724482,-0.084404476,-3.1140163,0.669789114871677,nan,nan,nan,nan,nan,2.070295572280884,3.270295572280884,0.0004992485046386719,-0.21426351027359583,0.5604383535815841,1.0273936544944853,-3.308118228912354,0.7388197224217092,0.09695696432964396,0.29755099244304073,0.27083339606196033,0.0,0.0,0.0,0.0
12.17902660369873,0.25427505,-0.033893056,-3.132869,0.7223884337890372,nan,nan,nan,nan,nan,2.169945001602173,3.369945001602173,0.0003840923309326172,-0.34647591513288817,0.48985144710700573,1.058699446003503,-3.3479780006408695,0.7395990426773913,0.0378718525626702,0.32436382111263584,0.2516968828607772,0.0,0.0,0.0,0.0
12.27863597869873,0.3045319,0.027408239,-3.153935,0.7693826639480351,nan,nan,nan,nan,nan,2.26954984664917,3.46954984664917,0.0004279613494873047,-0.45702598246763826,0.3887508859790418,1.0899912309496627,-3.387819938659668,0.7403234962855562,-0.024651355798116985,0.33265463760345215,0.2420002108795112,0.0,0.0,0.0,0.0
12.378698587417603,0.33764815,0.0848203,-3.1714025,0.8023618686991029,nan,nan,nan,nan,nan,2.369544744491577,3.5695447444915773,0.0005240440368652344,-0.5393427138017715,0.26288673810015684,1.1214055545954795,-3.427817897796631,0.7409380060510057,-0.08576880969595889,0.32394261535847474,0.24479019954298176,0.0,0.0,0.0,0.0
12.47861123085022,0.36234394,0.157789,-3.195659,0.8370230424778536,nan,nan,nan,nan,nan,2.4694530963897705,3.6694530963897707,0.0004189014434814453,-0.5877477730493397,0.12063397231104485,1.1527926890310423,-3.4677812385559084,0.7414794956477874,-0.14536717960256554,0.30062585462837116,0.2543474831865984,0.0,0.0,0.0,0.0
12.578669309616089,0.36852026,0.22694016,-3.2251794,0.8653646629599661,nan,nan,nan,nan,nan,2.5695035457611084,3.7695035457611086,0.000446319580078125,-0.5992793221710456,-0.029398877839333922,1.1842244647043776,-3.5078014183044437,0.7411547745321378,-0.20384036184320714,0.25977800735718926,0.26748533796691804,0.0,0.0,0.0,0.0
12.678505897521973,0.35151932,0.30276132,-3.2597697,0.8959278347722874,nan,nan,nan,nan,nan,2.6693599224090576,3.869359922409058,0.000423431396484375,-0.5732046941732075,-0.17730306984877514,1.2155952706335067,-3.547743968963623,0.7407782449921682,-0.2586010426760508,0.2091521611676506,0.28088657396902234,0.0,0.0,0.0,0.0
12.778819799423218,0.32482648,0.36484662,-3.2892206,0.9232518839360349,nan,nan,nan,nan,nan,2.769719362258911,3.9697193622589113,0.0003800392150878906,-0.5108188116209907,-0.3147445657896554,1.2471241185285755,-3.5878877449035644,0.7402908588117667,-0.30273482053931466,0.142531844095321,0.2893120307002317,0.0,0.0,0.0,0.0
12.878555297851562,0.27911133,0.4220192,-3.3220825,0.9534349625550834,nan,nan,nan,nan,nan,2.869384765625,4.069384765625,0.00044536590576171875,-0.416859753521661,-0.43154136058303855,1.2784349284317722,-3.62775390625,0.7399385108229485,-0.3323668685567126,0.06808991903413658,0.2914870718566085,0.0,0.0,0.0,0.0
12.978803396224976,0.2212915,0.46056023,-3.3540933,0.9829903733741454,nan,nan,nan,nan,nan,2.96968412399292,4.16968412399292,0.0005178451538085938,-0.2960508061740091,-0.5218753875818626,1.309944901172615,-3.667873649597168,0.7395521271655892,-0.34726167302619204,-0.011778235274610686,0.2859339835875738,0.0,0.0,0.0,0.0
13.078832149505615,0.14377461,0.47971398,-3.3894596,1.0201751142860496,nan,nan,nan,nan,nan,3.0696804523468018,4.269680452346802,0.0003714561462402344,-0.15697003833196996,-0.5791031057299381,1.3413596742268659,-3.707872180938721,0.7390547601072801,-0.34248474143525404,-0.08661666153870885,0.26880398215596923,0.527643169980683,0.0,0.0,0.0
13.17851710319519,0.06209951,0.476443,-3.4234345,1.0567557450678362,nan,nan,nan,nan,nan,3.1695504188537598,4.36955041885376,0.0004382133483886719,-0.00821751784108217,-0.59994372436132,1.3727347495361175,-3.747820167541504,0.7386662655977327,-0.3156298217307108,-0.15482889608566922,0.24618871354439584,0.9588960412602937,0.0,0.0,0.0
13.278398990631104,-0.003449424,0.4602545,-3.4508188,1.084496397191843,nan,nan,nan,nan,nan,3.269249200820923,4.469249200820923,0.0005035400390625,0.14079908569405225,-0.5832457607798953,1.4040560456361066,-3.787699680328369,0.7384671336362032,-0.274886135945879,-0.2165188183062365,0.2239992890892696,1.433958396087038,0.0,0.0,0.0
13.37960147857666,-0.09065018,0.4221026,-3.489129,1.1204798319456148,nan,nan,nan,nan,nan,3.370690107345581,4.570690107345581,0.0007314682006835938,0.28334009689994016,-0.5288840983511723,1.4359246463072421,-3.8282760429382328,0.7384311439013848,-0.22403069906893,-0.2723100781712049,0.20326171853471856,1.980399614153113,0.0,0.0,0.0
13.47947096824646,-0.1704913,0.36888131,-3.5269923,1.1536672327681137,nan,nan,nan,nan,nan,3.470327138900757,4.670327138900757,0.0004818439483642578,0.40556337330316344,-0.44217456986461684,1.4672265429431655,-3.868130855560303,0.7384372035107413,-0.16259479337236152,-0.3227666935352404,0.18608579316707283,2.174200851691035,0.0,0.0,0.0
13.579730749130249,-0.24796987,0.28889856,-3.5698636,1.19146909204631,nan,nan,nan,nan,nan,3.570848226547241,4.770848226547241,0.0010046958923339844,0.5032145721564563,-0.3267645855495891,1.4988061739912706,-3.9083392906188967,0.7386834584213896,-0.09501777206643014,-0.36839875203608796,0.1732488696638413,2.248140488060383,0.0,0.0,0.0
13.678521633148193,-0.30285826,0.19913206,-3.6072807,1.2269707136661092,nan,nan,nan,nan,nan,3.6693406105041504,4.869340610504151,0.00046825408935546875,0.5679390770458568,-0.19350763489924702,1.5297484689786278,-3.94773624420166,0.7392250038899059,-0.021146126217305515,-0.4096675677900077,0.17177955043142837,1.648199463909588,0.0,0.0,0.0
13.778717756271362,-0.33506235,0.10729183,-3.6434472,1.2587519305136616,nan,nan,nan,nan,nan,3.7695555686950684,4.9695555686950685,0.0006129741668701172,0.598244483921446,-0.04586433753541757,1.5612319266218673,-3.9878222274780275,0.7396602313031262,0.05270243914236332,-0.44699034501469365,0.18203174323388868,0.30287791092449795,-0.03415676279619284,0.0,0.0
13.878917932510376,-0.34574848,0.010471624,-3.6817052,1.29069742607581,nan,nan,nan,nan,nan,3.8698534965515137,5.069853496551514,0.0004305839538574219,0.5907772271158084,0.10479631635394722,1.5927414499542762,-4.027941398620606,0.7394084824748612,0.12374879643556455,-0.4402533340406446,0.2010207681868166,0.0,-0.14314463130527688,0.0,0.0
13.979349851608276,-0.33421448,-0.09371733,-3.7256074,1.3247230884742651,nan,nan,nan,nan,nan,3.9702701568603516,5.170270156860352,0.0004994869232177734,0.5458946453500285,0.24899605655143736,1.6242882741867029,-4.068108062744141,0.7386274280159458,0.18841053329319443,-0.38857435597287915,0.22423649001369433,0.0,-0.44455985736289916,0.0,0.0
14.078865766525269,-0.3067357,-0.1901883,-3.7717125,1.3570105531020888,nan,nan,nan,nan,nan,4.069948196411133,5.269948196411133,0.0004169940948486328,0.46712641095727325,0.3765540016865796,1.6556030538643995,-4.1079792785644536,0.7373870190617108,0.24688944904617102,-0.3142041676294453,0.24580302280538885,0.0,-0.6145706965583416,0.0,0.0
14.178827285766602,-0.26348686,-0.26190776,-3.807982,1.3877971032974217,nan,nan,nan,nan,nan,4.169902086257935,5.369902086257935,0.0007627010345458984,0.35886133069268294,0.48085189542464823,1.687004494468443,-4.147960834503174,0.7365915639568217,0.2997767322191131,-0.23021161000115542,0.2620732832201899,0.0,-0.642611426601497,0.0,0.0
14.278637886047363,-0.19975065,-0.3163692,-3.854322,1.4215501712074083,nan,nan,nan,nan,nan,4.269768476486206,5.469768476486206,0.00043773651123046875,0.22819039021468107,0.5549136381579314,1.71837844625661,-4.187907390594483,0.7356756928448821,0.3476070431166367,-0.13502199449160163,0.2693282462614093,0.0,-0.4786197166359369,0.0,0.0
14.378972053527832,-0.12982179,-0.34604943,-3.896483,1.4522465873093526,nan,nan,nan,nan,nan,4.370329141616821,5.5703291416168215,0.0005309581756591797,0.08218254663242304,0.5943450420664831,1.7499705109380546,-4.228131656646728,0.7348672457062575,0.3906745233231703,-0.035562192243585096,0.2667647864089769,0.0,-0.03236884562832859,0.0,0.0
14.479196071624756,-0.052851334,-0.3565824,-3.9355898,1.4821618279388775,nan,nan,nan,nan,nan,4.470139741897583,5.670139741897583,0.00042510032653808594,-0.06792320629882904,0.5961429677905181,1.7813269357972974,-4.268055896759034,0.7346818108845986,0.40327407955648636,0.051414730593377894,0.2547946851335125,-0.3958943671206393,0.0,0.0,0.0
14.578665971755981,0.029570717,-0.3484797,-3.974674,1.511756765786169,nan,nan,nan,nan,nan,4.5696046352386475,5.769604635238648,0.0008742809295654297,-0.21328997855603007,0.5608095800247783,1.8125747536183354,-4.307841854095459,0.7346959314361594,0.3900769783471747,0.12299290073301418,0.2359563409387829,-1.3198841068833205,0.0,0.0,0.0
14.679542303085327,0.12089045,-0.31286842,-4.01947,1.5412040145336348,nan,nan,nan,nan,nan,4.670606851577759,5.870606851577759,0.0004203319549560547,-0.3472902594190385,0.48927443803315224,1.8443055357030593,-4.348242740631104,0.7346253098232769,0.359050319311674,0.18772691476923167,0.21131339957792278,-2.2628390012325417,0.0,0.0,0.0
14.778644561767578,0.20999601,-0.2513451,-4.0691757,1.5724809080909106,nan,nan,nan,nan,nan,4.769830226898193,5.9698302268981935,0.000911712646484375,-0.4572998110031473,0.38842873587890697,1.8754774784001653,-4.387932090759278,0.7346948974535353,0.31348020110422636,0.24627119670695513,0.18437289307949406,-3.3092076455168407,0.0,0.0,0.0
14.879566431045532,0.28099424,-0.17532177,-4.1109586,1.6002192823965233,nan,nan,nan,nan,nan,4.8708295822143555,6.070829582214356,0.0011241436004638672,-0.5401888009090262,0.2611437523136794,1.9072073616680212,-4.428331832885743,0.7351378979152241,0.2523982012591421,0.2992175958856941,0.1605781128048854,-4.139551295820552,0.0,0.0,0.0
14.979353427886963,0.34465268,-0.07656616,-4.1495886,1.6289582268708989,nan,nan,nan,nan,nan,4.970489978790283,6.170489978790283,0.00038123130798339844,-0.5880601454514527,0.11910191153636544,1.9385165986416992,-4.468195991516113,0.736645146902298,0.18352433742393867,0.3471013702392064,0.14513297392163188,-4.706261197572975,0.0,0.0,0.0
15.078925609588623,0.38403955,0.024098173,-4.1864405,1.6551619570112077,nan,nan,nan,nan,nan,5.070103168487549,6.270103168487549,0.0004000663757324219,-0.5992343370893154,-0.03030196780951278,1.969811005137057,-4.508041267395019,0.7382087131806712,0.10353201487917893,0.39040659744828926,0.1403566502241064,-4.789058401234363,0.0,0.0,0.0
15.178536415100098,0.40835738,0.13273697,-4.2277246,1.6819353103535675,nan,nan,nan,nan,nan,5.169496774673462,6.369496774673462,0.00038313865661621094,-0.5731436773652953,-0.17750021153842685,2.001036427437803,-4.547798709869385,0.7396331148455808,0.020611361016215853,0.4295710686903673,0.15002468828547966,-4.22186084240139,0.0,0.0,0.0
15.278528213500977,0.41041702,0.23163897,-4.2657986,1.7052968883032311,nan,nan,nan,nan,nan,5.269450664520264,6.469450664520264,0.0004115104675292969,-0.5110312456172212,-0.31439953244703034,2.0324378680418467,-4.587780265808106,0.7405829713402077,-0.059361101948571415,0.46499071445890044,0.17242956981338267,-2.7512383995004046,0.23800478890179833,0.0,0.0
15.379163026809692,0.3922966,0.3334988,-4.305989,1.7295642299893075,nan,nan,nan,nan,nan,5.370448350906372,6.570448350906372,0.0004918575286865234,-0.4157047204197017,-0.4326541175359107,2.064167226999863,-4.628179340362549,0.74103594704844,-0.13017945654801463,0.49702360719512323,0.20505836936976574,-0.5851937772465527,0.6027994959164208,0.0,0.0
15.478524446487427,0.35916662,0.41889066,-4.3419743,1.7513672052482963,nan,nan,nan,nan,nan,5.469495534896851,6.669495534896851,0.0003707408905029297,-0.29629812936863265,-0.5217350079615599,2.0952838175581876,-4.667798213958741,0.7404519983656707,-0.19422630702936844,0.4592197558516748,0.24511484675728887,0.0,1.0726939110544835,0.0,0.0
15.578752756118774,0.31115714,0.48823175,-4.3784466,1.7723402028559478,nan,nan,nan,nan,nan,5.569634675979614,6.769634675979614,0.00035500526428222656,-0.15703666227086088,-0.5790850427206936,2.1267434565544274,-4.707853870391846,0.7393011109657964,-0.2521491305654738,0.37011051686787955,0.2807337132737148,0.0,1.5167611984198826,0.0,0.0
15.678571462631226,0.23658413,0.5538522,-4.4271045,1.7976561263610031,nan,nan,nan,nan,nan,5.669515132904053,6.869515132904053,0.0003592967987060547,-0.008270722776569997,-0.5999429932458192,2.1581218275255285,-4.7478060531616215,0.7376298705937445,-0.3045334939054255,0.2629219437913467,0.308147030900684,0.0,2.011261302372257,0.0,0.0
15.778499364852905,0.15635048,0.59350425,-4.4728985,1.8221693223030917,nan,nan,nan,nan,nan,5.769419431686401,6.9694194316864015,0.00042366981506347656,0.14104860681709067,-0.5831854683674463,2.189507688637195,-4.78776777267456,0.7362988267243906,-0.3519089731208263,0.15551935802339337,0.32443355785191813,0.0,2.269957634103144,0.0,0.0
15.87851619720459,0.061785482,0.6123049,-4.5216117,1.8505718399130824,nan,nan,nan,nan,nan,5.869420289993286,7.069420289993286,0.00037384033203125,0.2816507766215062,-0.5297856547968266,2.2209238848181534,-4.827768115997315,0.7354685597748218,-0.3947545073181869,0.043091457152521564,0.32720949870280425,0.0,2.30765598590627,0.0,0.0
15.97842025756836,-0.028464634,0.6104226,-4.5670276,1.877826198866711,nan,nan,nan,nan,nan,5.969265460968018,7.169265460968018,0.00042366981506347656,0.4043820819922487,-0.443255154243709,2.2522911703812167,-4.867706184387207,0.7353644691344435,-0.4335032404404565,-0.046853587379445276,0.3177839580451012,0.5991350529587515,1.8796482941881132,0.0,0.0
16.07875108718872,-0.12251572,0.58163124,-4.6124177,1.9090899976171487,nan,nan,nan,nan,nan,6.069701671600342,7.269701671600342,0.0004241466522216797,0.502270877122759,-0.3282132934454885,2.2838441365289075,-4.907880668640137,0.7359669664332636,-0.4685469001055371,-0.11886788456878547,0.29873308990744246,1.4522593123814234,0.7982170966232371,0.0,0.0
16.178732872009277,-0.19618359,0.5274765,-4.657586,1.9396694796154819,nan,nan,nan,nan,nan,6.169694900512695,7.3696949005126955,0.0005490779876708984,0.5681111564734881,-0.19300184944801935,2.3152579358648846,-4.947877960205078,0.7364833081769981,-0.4798690676187393,-0.1839963240911817,0.26891599948065276,2.3214151852218428,0.0,0.0,0.0
16.278449058532715,-0.26380157,0.44795358,-4.707378,1.9739436131333523,nan,nan,nan,nan,nan,6.269333362579346,7.469333362579346,0.0008466243743896484,0.5982187770098457,-0.04619842890017337,2.346560281909242,-4.987733345031739,0.7360041200698104,-0.4172061627977166,-0.2428973173685318,0.23392613266471113,3.432996638698753,0.0,0.0,0.0
16.378652095794678,-0.31220677,0.3618555,-4.7523074,2.0059848766866106,nan,nan,nan,nan,nan,6.3696043491363525,7.569604349136353,0.00040149688720703125,0.5908427322029354,-0.10442636545897001,2.378061341382811,-4.972158260345459,0.7304689311688737,-0.28168965684681707,-0.2961663198887814,0.23703943950143433,1.072955501886637,0.0,1.1320354575515257,0.0
16.478912830352783,-0.3441851,0.2628233,-4.7964807,2.040233542223213,nan,nan,nan,nan,nan,6.469862222671509,7.669862222671509,0.0008180141448974609,0.5461496417166005,-0.24843624705913753,2.4095582812790695,-4.932055110931397,0.7233567572114648,-0.11400108745261618,-0.32521548986668997,0.2565985950389757,0.0,0.0,1.7454432806427747,0.0
16.578606605529785,-0.351673,0.15339105,-4.8344274,2.0727613616832263,nan,nan,nan,nan,nan,6.569448709487915,7.769448709487915,0.0009315013885498047,0.4675987489082827,-0.37596729913572113,2.440844298816993,-4.892220516204834,0.7169125047221536,0.021812767976919657,-0.31378550085896306,0.274515413603998,0.0,-0.6912138913777481,0.0,0.0
16.678394317626953,-0.3309322,0.04018549,-4.871208,2.1091022220559745,nan,nan,nan,nan,nan,6.6692492961883545,7.869249296188355,0.0004439353942871094,0.35964975240621516,-0.48026248614080624,2.4721975778171985,-4.852300281524658,0.71304510643095,0.0962214163576086,-0.3027614572317405,0.2892172528249692,0.0,-1.8268226780156294,0.0,0.0
16.77866244316101,-0.29162,-0.05939698,-4.902965,2.1432127128646767,nan,nan,nan,nan,nan,6.769521236419678,7.969521236419678,0.000415802001953125,0.2285351595188969,-0.5547717376215846,2.5036989368963907,-4.8121915054321285,0.7111754800730788,0.16351526417873663,-0.3037148188698801,0.3017064173120622,0.0,-2.382654831513699,0.0,0.0
16.8786518573761,-0.23288524,-0.16187665,-4.9344006,2.1799316469113954,nan,nan,nan,nan,nan,6.869506359100342,8.069506359100341,0.0004525184631347656,0.08341140308668492,-0.5941738279620793,2.535110189584575,-4.772197456359864,0.7107400084311633,0.22437461390653513,-0.3174309351360882,0.31337430391597,0.0,-2.5432439390648236,0.0,0.0
16.97865891456604,-0.17284812,-0.24358033,-4.9556527,2.211253891862779,nan,nan,nan,nan,nan,6.9696128368377686,8.169612836837768,0.00043129920959472656,-0.06713370056270403,-0.59623239282075,2.56655956708824,-4.732154865264893,0.7120232624464418,0.27941471889704805,-0.3373742368625724,0.32195559465859924,0.0,-2.0092770186570443,0.0,0.0
17.078335523605347,-0.098949276,-0.33151874,-4.9760966,2.247832197522739,nan,nan,nan,nan,nan,7.069178104400635,8.269178104400634,0.0004305839538574219,-0.2126886744642284,-0.5610379022442685,2.5978389184010604,-4.692328758239746,0.7139989139741659,0.3291920032570706,-0.3550209272528116,0.3281489529281805,0.0,-0.5772455510331616,0.0,0.0
17.17836880683899,-0.026539294,-0.39848825,-4.9897466,2.281624018043397,nan,nan,nan,nan,nan,7.169238328933716,8.369238328933715,0.0007522106170654297,-0.3456053625241716,-0.490466036942963,2.6292737650320275,-4.652304668426514,0.7158294953280956,0.33011253253518896,-0.3541078079954365,0.32613299468716545,0.0,0.0,0.0,0.0
17.278489112854004,0.050076164,-0.45610145,-5.001282,2.31818079354363,nan,nan,nan,nan,nan,7.269361257553101,8.4693612575531,0.0007083415985107422,-0.4568416725114654,-0.388967461694326,2.660728310732683,-4.61225549697876,0.7163545468612535,0.26430911571908455,-0.32339362546185063,0.31561765589226637,0.0,0.0,0.0,0.0
17.37832283973694,0.11385355,-0.4970633,-5.009427,2.351322778567469,nan,nan,nan,nan,nan,7.369165658950806,8.569165658950805,0.0007712841033935547,-0.5390920047957023,-0.26340047525650084,2.692082788155379,-4.572333736419678,0.7159688614631454,0.17652393695113405,-0.26764764330022167,0.30122912040137023,0.0,0.0,0.0,0.0
17.47825860977173,0.17392214,-0.5331085,-5.0121493,2.385325112809202,nan,nan,nan,nan,nan,7.4690842628479,8.6690842628479,0.0004930496215820312,-0.5876356952869318,-0.12117875071415861,2.723473143351385,-4.53236629486084,0.7153336774518434,0.08392484237201421,-0.20067563710479935,0.29054385124604487,0.0,0.0,0.0,0.0
17.57823944091797,0.21141113,-0.5543711,-5.007171,2.4158740177421905,nan,nan,nan,nan,nan,7.569054126739502,8.769054126739501,0.0005629062652587891,-0.5993121463042331,0.028721965326443163,2.7548796023496074,-4.492378349304199,0.714808348349345,-0.0035188088930706947,-0.11625797786733966,0.2860705024987374,0.0,0.0,0.0,0.0
17.678356170654297,0.23217385,-0.5638013,-4.9987316,2.4484807751264412,nan,nan,nan,nan,nan,7.669165849685669,8.869165849685668,0.0003910064697265625,-0.5732911069673645,0.17702346362031718,2.786330627684197,-4.452333660125733,0.7143522375126551,-0.07557603827228701,-0.02301039804902232,0.29087636659809873,0.0,0.0,0.0,0.0
17.778278827667236,0.23166765,-0.55944216,-4.988082,2.478393927473965,nan,nan,nan,nan,nan,7.769097089767456,8.969097089767455,0.0005121231079101562,-0.5113104287525584,0.3139452905346327,2.8177249526547032,-4.412361164093018,0.714237926091452,-0.12339874896657597,0.06178210462819273,0.3024225389593339,-0.6732326378386994,0.0,0.0,0.0
17.878222227096558,0.20976827,-0.53869194,-4.9727006,2.5110038767205305,nan,nan,nan,nan,nan,7.8690571784973145,9.069057178497314,0.0005166530609130859,-0.41721490721255655,0.4311980069522792,2.8491283406952936,-4.372377128601075,0.7143919657548554,-0.1444949603829861,0.1323689679750124,0.31808448633778674,-1.453360115061075,0.0,0.0,0.0
17.97821354866028,0.17294492,-0.5026496,-4.9529724,2.5410248149819905,nan,nan,nan,nan,nan,7.969030141830444,9.169030141830444,0.0004062652587890625,-0.2969081792984005,0.5213880829724714,2.8805357734117902,-4.332387943267823,0.7152286783388618,-0.1335025355191839,0.19620646191697214,0.33124957388547577,-2.5610375364707,0.0,0.0,0.0
18.078368186950684,0.12714417,-0.4545924,-4.9297686,2.567950279535573,nan,nan,nan,nan,nan,8.069493293762207,9.269493293762206,0.0005066394805908203,-0.15724241995457988,0.5790292059704998,2.91209720341832,-4.292202682495118,0.7166267251442338,-0.10007987432440338,0.2539399471515637,0.33875484712288073,-3.461744197647961,0.0,0.0,0.0
18.178245544433594,0.06386029,-0.387423,-4.899188,2.598775490956275,nan,nan,nan,nan,nan,8.169065952301025,9.369065952301025,0.00045371055603027344,-0.008948001398342184,0.5999332740155152,2.943378876674716,-4.25237361907959,0.7187708425903848,-0.04732387762004394,0.30615307632551364,0.33593585471973797,-4.163858659920925,0.0,0.0,0.0
18.27879786491394,-0.00583094,-0.30770928,-4.8635817,2.628162313920564,nan,nan,nan,nan,nan,8.269850730895996,9.469850730895995,0.0004930496215820312,0.1416806812123198,0.583032232875004,2.9750413486774794,-4.212059707641602,0.7217736469375773,0.017314426214135616,0.35337369443055333,0.32085185578035547,-4.355518976478626,-0.17433418023841984,0.0,0.0
18.37832808494568,-0.07311457,-0.22126342,-4.8252583,2.65372879901495,nan,nan,nan,nan,nan,8.369142055511475,9.569142055511474,0.0003838539123535156,0.28128023952913433,0.5299824778711394,3.0062346382751977,-4.17234317779541,0.7252904414111899,0.08504070092772678,0.39607917501558754,0.3002571679294856,-4.057849388176261,-0.03514056053709802,0.0,0.0
18.47822666168213,-0.13112569,-0.11633468,-4.7886868,2.6766826471560563,nan,nan,nan,nan,nan,8.469035625457764,9.669035625457763,0.0003981590270996094,0.40412597279398005,0.4434886674012305,3.03761712882361,-4.132385749816895,0.729204971146682,0.15306910919213443,0.43470124616132894,0.27281010278908474,-3.069361636998711,-0.15847802569281988,0.0,0.0
18.578237295150757,-0.18414564,0.005675044,-4.746535,2.6987776418913425,nan,nan,nan,nan,nan,8.569047212600708,9.769047212600707,0.00044035911560058594,0.5017303412547118,0.32903900173753015,3.069036695567823,-4.092381114959717,0.7329709939398471,0.2149272985838882,0.46963035500525213,0.24835774390880289,-1.0212003227612907,-0.2559795124332427,0.0,0.0
18.6782546043396,-0.22417006,0.12533535,-4.7067437,2.7175426596196948,nan,nan,nan,nan,nan,8.669057369232178,9.869057369232177,0.000316619873046875,0.5678011822386114,0.1939118806273487,3.100455812903602,-4.052377052307129,0.7355618846359528,0.27087073626229013,0.45876058879899445,0.23985343172648643,0.0,-0.11502930915748544,0.0,0.0
18.778395414352417,-0.2542299,0.25495082,-4.664884,2.737829340761595,nan,nan,nan,nan,nan,8.769235134124756,9.969235134124755,0.0005686283111572266,0.5982073535413959,0.046346112771184236,3.1319275859275586,-4.012305946350098,0.7361525315430307,0.31715544271678064,0.3462930051779912,0.25895092212397897,0.0,0.0,0.0,0.0
18.87825083732605,-0.26471463,0.36378208,-4.6291714,2.7578891091572872,nan,nan,nan,nan,nan,8.869088888168335,10.069088888168334,0.0003986358642578125,0.5909775201618239,-0.10366084440800673,3.1632975679412256,-3.9723644447326665,0.7353367417912029,0.33322983965142255,0.2030775608111057,0.30185698794641397,0.0,0.0,0.0,0.0
18.978219270706177,-0.24995635,0.468484,-4.5895653,2.78084520670808,nan,nan,nan,nan,nan,8.96902084350586,10.169020843505859,0.0007894039154052734,0.5466737676267688,-0.24728079543052592,3.194692117615949,-3.9323916625976567,0.7340639551833539,0.3158731225576192,0.05306797350334166,0.3493700047997143,0.0,0.0,0.0,-0.26699987511273593
19.078232765197754,-0.21742526,0.55210155,-4.550861,2.804193012030873,nan,nan,nan,nan,nan,9.069035053253174,10.269035053253173,0.0005192756652832031,0.46798936359077153,-0.3754809656505967,3.226112508275624,-3.892385978698731,0.7329719279812204,0.2689211020050056,-0.04934517671881284,0.3924583098795581,1.1521922736537382,0.0,0.0,-0.36409237047243087
19.178253412246704,-0.16017956,0.61826235,-4.50541,2.8317471558090483,nan,nan,nan,nan,nan,9.169074296951294,10.369074296951293,0.0004143714904785156,0.3598609471664861,-0.4801042581611201,3.257540763582893,-3.852370281219483,0.7320813398903014,0.19315256079704252,-0.1211212333055925,0.4314266006362796,2.322557375948288,0.0,0.0,-0.07612185533746157
19.278780698776245,-0.09193397,0.65295774,-4.4618998,2.85923983917251,nan,nan,nan,nan,nan,9.2695894241333,10.4695894241333,0.0003654956817626953,0.22844008248078496,-0.5548108945543266,3.289118522095857,-3.8121642303466796,0.7314704494595298,0.09885363094364397,-0.18603421229749365,0.45192512786665384,3.2063995402392713,0.0,0.0,0.0
19.37888479232788,-0.006385128,0.6602991,-4.414709,2.8906781852730883,nan,nan,nan,nan,nan,9.369713068008423,10.569713068008422,0.0004055500030517578,0.08310270894500127,-0.5942170813482244,3.3205732925007294,-3.7721147727966313,0.7313430419559118,-0.009931256148304764,-0.24474034693319216,0.4468374339416493,3.9669668748515536,0.0,0.0,0.0
19.47837495803833,0.07311894,0.63469297,-4.3674355,2.9210071433023734,nan,nan,nan,nan,nan,9.469210863113403,10.669210863113403,0.0003879070281982422,-0.06653131061070121,-0.596299911712573,3.351831446715748,-3.732315654754639,0.7320826450770784,-0.08547599003580422,-0.29783312279077145,0.42627908568117995,4.240577597921873,1.1308319582574424,0.0,0.0
19.578323125839233,0.15475118,0.5836409,-4.317092,2.951595757920498,nan,nan,nan,nan,nan,9.569127082824707,10.769127082824706,0.00036644935607910156,-0.21261673014869,-0.5610651709568855,3.3832210528976976,-3.6923491668701174,0.7338793795318481,-0.1537972932249689,-0.34584927758882633,0.39267599013417437,4.0321227685862775,2.4633681034265638,0.0,0.0
19.6784405708313,0.23385997,0.5093629,-4.268626,2.981401276028972,nan,nan,nan,nan,nan,9.669260501861572,10.869260501861572,0.00040435791015625,-0.3456326940146499,-0.49044677675378334,3.414678894260202,-3.6522957992553713,0.7366434509729255,-0.21558585517049134,-0.38927422729903516,0.35028492495746755,2.9931887455857193,4.068759915370486,0.0,0.0
19.778331756591797,0.3124533,0.4053572,-4.218273,3.011992674847553,nan,nan,nan,nan,nan,9.769150972366333,10.969150972366332,0.00033283233642578125,-0.4566360377360623,-0.3892088501572253,3.4460604110903406,-3.612339611053467,0.7397011613294279,-0.271466323034593,-0.42854697342510684,0.30763846096376013,1.1661577011809814,5.377882380473867,0.0,0.0
19.87833285331726,0.37373424,0.2915409,-4.1683035,3.0379785143894567,nan,nan,nan,nan,nan,9.86915898323059,11.06915898323059,0.0003364086151123047,-0.5390875854090758,-0.2634095200591892,3.4774788543134685,-3.572336406707764,0.7427679155591518,-0.322003616513992,-0.4170685877166008,0.2789376977058953,0.0,6.571434419619258,0.0,0.0
19.978384733200073,0.4310137,0.1563668,-4.12054,3.0659361325386856,nan,nan,nan,nan,nan,9.969226837158203,11.169226837158202,0.0003364086151123047,-0.587679079338759,-0.12096817642482936,3.5089160977894167,-3.532309265136719,0.7439312729812086,-0.3677086388562198,-0.2911059846593599,0.2979397866176587,0.0,7.152045555323742,0.0,0.0
20.078394651412964,0.46598956,0.028201222,-4.0813804,3.09299644642927,nan,nan,nan,nan,nan,10.069213390350342,11.269213390350341,0.00034499168395996094,-0.5993006016636357,0.028961851556903697,3.5403277998860356,-3.4923146438598636,0.744244395704847,-0.4090434418004075,-0.13621310073859147,0.34544984055014605,0.0,6.8294403868328395,0.0,-0.4727591271161733
20.178396463394165,0.47916725,-0.11055408,-4.042987,3.1240393903415713,nan,nan,nan,nan,nan,10.16921591758728,11.36921591758728,0.0003383159637451172,-0.5732688267940795,0.17709560193900822,3.5717445203768334,-3.452313632965088,0.7445205290878112,-0.4464258966571521,0.018900247485820875,0.38891298360115817,-0.8759055067010615,5.192174664247152,0.0,-1.4985874929858265
20.278356552124023,0.4663878,-0.23333715,-4.010179,3.1538395639388073,nan,nan,nan,nan,nan,10.269171476364136,11.469171476364135,0.0003314018249511719,-0.5112517265181713,0.3140408765307297,3.6031464852907167,-3.412331409454346,0.7445247702741783,-0.48023391874941773,0.09358738503236304,0.428220271100037,-2.243930880900723,2.529163910385873,0.0,-2.062680540496826
20.378390073776245,0.42100912,-0.3509178,-3.975585,3.1856101723982517,nan,nan,nan,nan,nan,10.369208335876465,11.569208335876464,0.0003516674041748047,-0.4170510650170024,0.43135647574620223,3.6345739915839297,-3.3723166656494143,0.7428460201201185,-0.4803787045645581,0.1611330934631728,0.4637690773312407,-3.4331453793010063,0.0,0.0,-2.306590176803944
20.478323936462402,0.35997695,-0.4479806,-3.9489465,3.2156457901106803,nan,nan,nan,nan,nan,10.469149112701416,11.669149112701415,0.00033402442932128906,-0.29675226764857915,0.5214768371130457,3.665971312610662,-3.3323403549194337,0.7394490016714735,-0.34228908246264517,0.22222022141176825,0.49591878047470256,-4.144976703623524,0.0,0.0,-1.346452214068638
20.578408002853394,0.27708235,-0.52710545,-3.9244845,3.2487761909548576,nan,nan,nan,nan,nan,10.569236993789673,11.769236993789672,0.00034809112548828125,-0.15761537017876104,0.5789277978154203,3.6974148478046858,-3.292305202484131,0.7361028615918626,-0.17472485566433357,0.2774663249422474,0.5200088381480924,-4.365178904101702,0.0,0.0,0.0
20.678309440612793,0.19557396,-0.5703247,-3.9008594,3.277186395986889,nan,nan,nan,nan,nan,10.66912317276001,11.869123172760009,0.00033402442932128906,-0.00886172448270157,0.5999345546300802,3.728795016409522,-3.252350730895996,0.7338182060495876,-0.0050619439011842194,0.32742991068929334,0.48554803010733566,-4.060093968641663,0.0,0.0,0.0
20.778225660324097,0.09769389,-0.59150285,-3.8692906,3.307872079081079,nan,nan,nan,nan,nan,10.769047498703003,11.969047498703002,0.0003390312194824219,0.14050340125923994,0.5833170614979344,3.760187169239264,-3.212381000518799,0.7329365821345173,0.07799044590382156,0.3726160820420871,0.43558453642338774,-2.9996913494412984,-3.2904088339269713,0.0,0.0
20.878944873809814,-0.015369965,-0.57630366,-3.8211765,3.3391395984637233,nan,nan,nan,nan,nan,10.869771003723145,12.069771003723144,0.00033736228942871094,0.28211764127949607,0.5295371908363884,3.791830391580773,-3.1720915985107423,0.7331575187496059,0.1470275012903165,0.41348164545183,0.37901767450107804,-0.7216624233553947,-6.449858260976041,0.0,0.0
20.97842049598694,-0.12579595,-0.52776307,-3.7826757,3.3655161699399754,nan,nan,nan,nan,nan,10.969294309616089,12.169294309616088,0.0003616809844970703,0.40441421894954727,0.4432258335334569,3.8230965602461975,-3.132282276153565,0.7332462270977047,0.20946337669325252,0.39800013413645013,0.33094946818379295,0.0,-9.121628709966567,0.0,0.0
21.078351974487305,-0.23799616,-0.44569322,-3.7355962,3.3928164988994434,nan,nan,nan,nan,nan,11.069164276123047,12.269164276123046,0.0003731250762939453,0.5018271269983001,0.3288913720495445,3.8544716355554494,-3.0923342895507817,0.7327478391737867,0.265929263245151,0.2673918315150409,0.3248102190157049,0.0,-11.963063817725361,0.0,0.0
21.178287982940674,-0.33037272,-0.34634134,-3.687829,3.4196176195325387,nan,nan,nan,nan,nan,11.169093132019043,12.369093132019042,0.0003478527069091797,0.5678186090719548,0.1938608449161163,3.885865211511899,-3.052362747192383,0.7336684478462907,0.3169959988921686,0.0927432087963156,0.3643117856179814,0.0,-13.739206439941656,0.0,-0.3100261078196429
21.278329133987427,-0.41471776,-0.21923137,-3.636124,3.4525975592742855,nan,nan,nan,nan,nan,11.269142627716064,12.469142627716064,0.0003597736358642578,0.5981965621824741,0.04648519111576674,3.9172966875796114,-3.0123429489135747,0.7368459695955949,0.3631798392405446,-0.04617232732138117,0.40597138862030907,1.6985062650894702,-14.533142435337178,0.0,-1.267719794619967
21.378462076187134,-0.46593675,-0.0848393,-3.589536,3.4854227074651094,nan,nan,nan,nan,nan,11.369265079498291,12.56926507949829,0.00034928321838378906,0.5909315594262552,-0.10392252919388612,3.9487510834774557,-2.9722939682006837,0.7416751339080652,0.40494767660668407,-0.11825176518385284,0.44364758682759725,3.7213413648666176,-14.218290851501834,0.0,-2.1049568236897542
21.47838258743286,-0.49484473,0.07284396,-3.5436132,3.5231407220500808,nan,nan,nan,nan,nan,11.469192028045654,12.669192028045654,0.0003418922424316406,0.5465673285099639,-0.24751597000088943,3.98014406022266,-2.9323231887817385,0.7468273158348593,0.4427217600325037,-0.1834391167633832,0.4777212651407476,5.7765433414157705,-12.359660279751655,0.0,-3.037214627185549
21.578267574310303,-0.49613014,0.22249986,-3.5042603,3.5592601871926357,nan,nan,nan,nan,nan,11.569074153900146,12.769074153900146,0.00039696693420410156,0.4679524625747279,-0.37552695345374065,4.0115229555036,-2.8923703384399415,0.7511264028348483,0.4768839639827021,-0.24239338904920732,0.508536889036777,7.277320640450771,-9.15435172452286,0.0,-3.734012627753558
21.67825722694397,-0.47348377,0.38245255,-3.4656403,3.599418157632351,nan,nan,nan,nan,nan,11.669074296951294,12.869074296951293,0.0003368854522705078,0.35986094716648537,-0.4801042581611206,4.042938926980342,-2.8523702812194824,0.7533203263307459,0.5077796488780565,-0.295710576149695,0.5364059869185589,8.077316549865598,-4.18867625434652,0.0,-3.725368108785603
21.77894163131714,-0.4330839,0.52271867,-3.4344106,3.636551769693629,nan,nan,nan,nan,nan,11.769751071929932,12.969751071929931,0.0003345012664794922,0.22821466326228995,-0.5549036560269536,4.074567468646341,-2.8120995712280275,0.7518347800823629,0.5046645791589687,-0.3439296844532667,0.5616102994895081,7.770908147381656,0.0,0.0,-2.5982333210884945
21.87842893600464,-0.36487123,0.66521895,-3.4097116,3.676314282038081,nan,nan,nan,nan,nan,11.869255542755127,13.069255542755126,0.0003476142883300781,0.08378593598203221,-0.5941211298477902,4.105827720100719,-2.7722977828979496,0.7469151512960386,0.318604305168763,-0.387538181675925,0.5766986964198713,6.961883594700471,0.0,0.0,0.0
21.978482723236084,-0.287942,0.77678853,-3.38516,3.7124509056244213,nan,nan,nan,nan,nan,11.969400405883789,13.169400405883788,0.0003464221954345703,-0.06681536419299981,-0.5962681503382156,4.137289156730695,-2.7322398376464845,0.7422017082823124,0.07443565231698027,-0.42697692488216854,0.491201538617751,5.2899371755036055,0.0,0.0,0.0
22.07835340499878,-0.19868687,0.8615121,-3.361304,3.7464155199823033,nan,nan,nan,nan,nan,12.069161176681519,13.269161176681518,0.0004134178161621094,-0.21266480547612918,-0.5610469503631582,4.1686299271961555,-2.692335529327393,0.7389488336142334,-0.0610319137360303,-0.4626446172987705,0.4079953963234455,2.5323970374287876,3.045888734189339,0.0,0.0
22.17845106124878,-0.10189216,0.9148249,-3.3340967,3.777207794864887,nan,nan,nan,nan,nan,12.169259786605835,13.369259786605834,0.0003514289855957031,-0.3456318123704197,-0.490447398073982,4.2000768329534335,-2.652296085357666,0.734700385980988,-0.13169050877930585,-0.4552923426194583,0.3357554143799362,0.0,6.555330596928549,0.0,0.0
22.278544425964355,0.0015554745,0.93433917,-3.2951357,3.80808965589381,nan,nan,nan,nan,nan,12.269366025924683,13.469366025924682,0.0004932880401611328,-0.4568463339521995,-0.3889619867730462,4.231526135555693,-2.6122535896301273,0.7302073301776969,-0.19559287558175023,-0.28865215644473585,0.31170672670927546,0.0,8.818268833695123,0.0,0.0
22.378546237945557,0.09448276,0.9135767,-3.2490597,3.8376259160825836,nan,nan,nan,nan,nan,12.369385242462158,13.569385242462157,0.0003528594970703125,-0.5392372864513694,-0.26310292453821904,4.262948099144887,-2.572245903015137,0.727891912330192,-0.25338503066851853,-0.07162853552955313,0.33890431319746184,0.0,10.473922328262178,0.0,0.0
22.47831964492798,0.18933341,0.85872686,-3.205355,3.8734176145014665,nan,nan,nan,nan,nan,12.469123363494873,13.669123363494872,0.0003447532653808594,-0.5876476007633776,-0.12112100279078719,4.29428175397681,-2.532350654602051,0.7284752700826326,-0.3056512198051209,0.059675713873818426,0.3829933259919107,-2.83519200741417,11.24296331769148,0.0,-0.26035232967415933
22.578596830368042,0.26358172,0.7803366,-3.1638112,3.9089854452026147,nan,nan,nan,nan,nan,12.569416046142578,13.769416046142577,0.0003561973571777344,-0.599285772802947,0.02926708929795509,4.325789629478294,-2.492233581542969,0.7311690038308423,-0.3529198243892839,0.13046398593379202,0.4228666388680441,-6.129197289599226,11.239186387938156,0.0,-0.716779184447083
22.67853617668152,0.32773313,0.6700831,-3.117164,3.949375478857987,nan,nan,nan,nan,nan,12.669362783432007,13.869362783432006,0.0003523826599121094,-0.5732034192544697,0.17730719149257473,4.357188823040167,-2.4522548866271974,0.7354160582842336,-0.3956687030858798,0.1944836303056787,0.4589273483044369,-8.940496169378056,9.867887874893507,0.0,-1.4376853467283448
22.77858328819275,0.37351108,0.54926115,-3.0763521,3.987962117369826,nan,nan,nan,nan,nan,12.769435405731201,13.9694354057312,0.0003609657287597656,-0.5110433023124976,0.3143799344130237,4.388627564544229,-2.4122258377075196,0.7401464601453603,-0.434330022705807,0.2523818491240513,0.4915400075308114,-11.468394779277485,7.05140016898555,0.0,-2.102825275055885
22.878482580184937,0.40658414,0.3941524,-3.0351667,4.029641670756513,nan,nan,nan,nan,nan,12.869327068328857,14.069327068328857,0.0003745555877685547,-0.4169223265721782,0.43148090757951496,4.420009455881396,-2.372269172668457,0.744118349743754,-0.4692946271662553,0.304743960398325,0.5210343119535151,-13.121465356998739,3.171233588629873,0.0,-2.4421918502297344
22.978256225585938,0.4144542,0.2399675,-3.0035434,4.067904218315536,nan,nan,nan,nan,nan,12.969063758850098,14.169063758850097,0.00034427642822265625,-0.2968641267927861,0.5214131665230143,4.451342661304884,-2.332374496459961,0.7459356185596425,-0.4585523081299373,0.35209931524439464,0.5477084321882613,-13.780611237793664,0.0,0.0,-1.70195652988278
23.078296184539795,0.40657523,0.096887894,-2.9764495,4.102939714692591,nan,nan,nan,nan,nan,13.069113731384277,14.269113731384277,0.00033664703369140625,-0.1577947099367394,0.5788789420215424,4.482774287175409,-2.292354507446289,0.7444370250527502,-0.27969280967026705,0.3949266493228613,0.5405781308999513,-13.356579004026667,0.0,0.0,0.0
23.178588390350342,0.37836745,-0.06707466,-2.9449756,4.143622993216434,nan,nan,nan,nan,nan,13.169391870498657,14.369391870498657,0.0005319118499755859,-0.008456580044756091,0.5999404022517125,4.514277593691148,-2.2522432518005373,0.7434172560523935,-0.06654110110062399,0.43365892258384015,0.44829477329541695,-11.924689461999538,0.0,0.0,0.0
23.278871536254883,0.326075,-0.21831709,-2.9142964,4.182048677709251,nan,nan,nan,nan,nan,13.269693851470947,14.469693851470947,0.0003426074981689453,0.14145079167416186,0.5830880495557706,4.545788390347452,-2.212122459411621,0.743139617927769,0.06353288320891133,0.46868769624541223,0.35530909446956555,-9.122699454315422,-2.9744349107604022,0.0,0.0
23.37839651107788,0.25480247,-0.34127328,-2.8845134,4.213577944162051,nan,nan,nan,nan,nan,13.369219064712524,14.569219064712524,0.00034308433532714844,0.2813828098419025,0.5299280274956928,4.577055158224122,-2.1723123741149903,0.7420151653891921,0.13395234074072368,0.5003670912544786,0.2883973398092809,-5.350355304324413,-5.1752384487126255,0.0,0.0
23.478416681289673,0.16907136,-0.44720903,-2.8528244,4.240814983585649,nan,nan,nan,nan,nan,13.469224452972412,14.669224452972411,0.00037479400634765625,0.4043363960472582,0.443296829259487,4.608472777531788,-2.1323102188110354,0.7393260529341869,0.19763843586433846,0.5286337411676137,0.22676777166184806,0.0,-7.401025378442752,0.0,0.0
23.57832956314087,0.06120091,-0.5379061,-2.8160298,4.265916818671879,nan,nan,nan,nan,nan,13.569136381149292,14.769136381149291,0.0003440380096435547,0.5018040679422491,0.32892655319479863,4.639861035488436,-2.0923454475402834,0.734832449965548,0.25523499872144134,0.3701435258032642,0.21833669948432838,0.0,-8.97379974719685,0.0,0.0
23.678377151489258,-0.047230475,-0.5958104,-2.7799928,4.288715779285164,nan,nan,nan,nan,nan,13.669187545776367,14.869187545776366,0.0003371238708496094,0.5678645938708108,0.19372610311452376,4.671293035865988,-2.0523249816894533,0.7316254474255562,0.3073242977515231,0.13888964485969787,0.2706307156467191,0.0,-9.246078292730397,0.0,-0.44749566478517533
23.778450965881348,-0.16678256,-0.62301654,-2.7347245,4.316030622825121,nan,nan,nan,nan,nan,13.769273042678833,14.969273042678832,0.0003528594970703125,0.5982117664331508,0.04628911860177817,4.7027358220459545,-2.012290782928467,0.7314145090933847,0.35443292609410243,-0.040689721915546165,0.321247908170654,2.1252458090771285,-8.508080079294434,0.0,-1.4045945557981812
23.878398895263672,-0.27913442,-0.6083727,-2.6975617,4.343053552749312,nan,nan,nan,nan,nan,13.869215488433838,15.069215488433837,0.00033020973205566406,0.5909445073184328,0.10384887707710039,4.734133667382527,-2.027686195373535,0.7377755878076583,0.39703712514538303,-0.1132933951304693,0.3670251897765705,1.751041563805044,-5.782674014623003,0.0,-1.2095167280032588
23.978457927703857,-0.38997924,-0.5625322,-2.664147,4.373719993505405,nan,nan,nan,nan,nan,13.969264030456543,15.169264030456542,0.0003514289855957031,0.546522528626454,0.24761487375306576,4.765564843844617,-2.0677056121826167,0.7435032667551597,0.4355675990874683,-0.1789548557658426,0.4084253427035915,1.204754390441555,-2.0569829014621246,0.0,-0.7478197068265413
24.07838535308838,-0.47903627,-0.49688014,-2.636309,4.403397382065329,nan,nan,nan,nan,nan,14.06920075416565,15.269200754165649,0.0003561973571777344,0.46783295328328367,0.37567582810481814,4.796960891547453,-2.1076803016662593,0.745691171359238,0.4167280457472066,-0.23833790378337047,0.44112433409106866,0.05624668456859039,0.0,0.0,0.0
24.178849935531616,-0.55741477,-0.40179005,-2.6060152,4.436370682276328,nan,nan,nan,nan,nan,14.169904232025146,15.369904232025146,0.0006890296936035156,0.3588587375006975,0.4808538307213591,4.828597822170887,-2.147961692810058,0.744253541519678,0.2504726751100317,-0.26469094083181177,0.42680978722098917,0.0,0.0,0.0,0.0
24.27889347076416,-0.6056781,-0.29503733,-2.5746458,4.466530714539976,nan,nan,nan,nan,nan,14.269718170166016,15.469718170166015,0.0003380775451660156,0.22826054810447327,0.5548847827964337,4.859955295649809,-2.187887268066406,0.7430317644774403,0.06205130338793269,-0.2777729195102598,0.40110460761657923,0.0,0.0,0.0,0.0
24.378437280654907,-0.63307863,-0.16350657,-2.5362039,4.499016568966404,nan,nan,nan,nan,nan,14.369245529174805,15.569245529174804,0.0003540515899658203,0.08380088812610305,0.5941190210296893,4.891222737639129,-2.2276982116699218,0.7436064559639481,-0.05336912963093959,-0.28794165219176554,0.37620864880615734,0.0,1.7176357004103924,0.0,0.0
24.47870111465454,-0.6348854,-0.037722632,-2.4982576,4.528646275859765,nan,nan,nan,nan,nan,14.469536542892456,15.669536542892455,0.0005083084106445312,-0.06701937319978367,0.5962452545856513,4.922730088830774,-2.267814617156982,0.7456173097433472,-0.12476042418999943,-0.29374587156373055,0.3545039164346283,0.0,2.9852950164950607,0.0,0.0
24.578553915023804,-0.6154199,0.08760816,-2.4593592,4.55757206335534,nan,nan,nan,nan,nan,14.569361448287964,15.769361448287963,0.00036215782165527344,-0.21294717446413783,0.5609398371374064,4.954091007774356,-2.307744579315185,0.7485657628040249,-0.18932543130088672,-0.2941398749710071,0.3351790284817958,0.0,3.86009999520257,0.0,0.0
24.678640842437744,-0.57749677,0.2082716,-2.4219708,4.585659719900474,nan,nan,nan,nan,nan,14.669461011886597,15.869461011886596,0.00034999847412109375,-0.34587980422635095,0.490272537501685,4.985538213137257,-2.3477844047546386,0.7522419720904289,-0.24771686640478915,-0.28570590669710016,0.31899019466245,0.0,4.348832246919017,0.0,0.0
24.778789043426514,-0.52293354,0.33332828,-2.3881593,4.616152444846353,nan,nan,nan,nan,nan,14.769829034805298,15.969829034805297,0.0003440380096435547,-0.4572986472467615,0.3884301059731107,5.01706975748293,-2.387931613922119,0.7559716015723531,-0.30052503364679845,-0.2711622434373639,0.3092690486896961,0.0,4.1663551944168775,0.0,0.0
24.87843608856201,-0.46135795,0.43698168,-2.35479,4.644927617849982,nan,nan,nan,nan,nan,14.869241952896118,16.069241952896117,0.0003447532653808594,-0.5391425012935268,0.26329710081761143,5.048301246797534,-2.427696781158447,0.7595587767967361,-0.34828379351453875,-0.2456457752138763,0.3051327684147094,0.0,3.2839260583334386,0.0,0.0
24.9785315990448,-0.38070416,0.533285,-2.3260436,4.6765622017188,nan,nan,nan,nan,nan,14.96937370300293,16.16937370300293,0.00036597251892089844,-0.5877236903663532,0.12075124753871036,5.079758563850199,-2.4677494812011718,0.7625156027626158,-0.391475959863573,-0.2143821178976421,0.3082493630927915,0.0,1.7527721402161558,0.0,0.0
25.078457355499268,-0.29948273,0.60695535,-2.3091152,4.706296288547838,nan,nan,nan,nan,nan,15.069284439086914,16.269284439086913,0.000370025634765625,-0.5992954205375743,-0.02906886517722848,5.111146447299818,-2.507713775634765,0.7637172143441604,-0.4211125300622428,-0.17407943831436512,0.3168045402384085,0.0,0.0,0.0,0.0
25.178410291671753,-0.21373287,0.67166984,-2.2997584,4.739724229901672,nan,nan,nan,nan,nan,15.169227123260498,16.369227123260497,0.0003495216369628906,-0.573263839035956,-0.17711174679777011,5.142544367537796,-2.5476908493041988,0.7624795004841879,-0.34733912227154046,-0.13844603019630217,0.32579932286806834,0.0,0.0,0.0,0.0
25.278797149658203,-0.14260481,0.71535695,-2.2970624,4.771414630719956,nan,nan,nan,nan,nan,15.269653558731079,16.46965355873108,0.000347137451171875,-0.5108708578163388,-0.3146600810938657,5.174094262727855,-2.5878614234924315,0.7593945714707508,-0.22515296200248366,-0.10253898550092216,0.33317495589608237,0.0,0.0,0.0,0.0
25.378360271453857,-0.07697577,0.74014646,-2.2975862,4.80622879958521,nan,nan,nan,nan,nan,15.369174718856812,16.56917471885681,0.0003421306610107422,-0.4170875083132197,-0.4313212380686463,5.205359757280628,-2.6276698875427242,0.7560763056689349,-0.09547845407126565,-0.06892199343010143,0.33961395423587637,0.0,0.0,0.0,0.0
25.47834324836731,-0.031707823,0.7404895,-2.3017738,4.838337008358536,nan,nan,nan,nan,nan,15.469155550003052,16.66915555000305,0.0003421306610107422,-0.29674383079054967,-0.5214816381117839,5.236769661743511,-2.6676622200012203,0.7526922907021244,0.023305075414268562,-0.02771481003608214,0.34455813578947664,0.0,-0.6081040560253721,0.0,0.0
25.57834243774414,-0.002185723,0.7172555,-2.311951,4.872690050972491,nan,nan,nan,nan,nan,15.569153547286987,16.769153547286987,0.0003662109375,-0.15773678172791097,-0.5788947293680616,5.268184959107602,-2.7076614189147947,0.7499242931083383,0.0975710324543493,0.019420445121383374,0.3483591648413024,0.0,-1.5253472185778445,0.0,0.0
25.67848300933838,0.007474063,0.6811287,-2.3268533,4.901314152047927,nan,nan,nan,nan,nan,15.669411420822144,16.869411420822143,0.0003490447998046875,-0.008427101769647628,-0.5999408170442847,5.299681899003859,-2.747764568328857,0.7475747928818569,0.16473583278477225,0.06661604915723739,0.3488685482694375,0.0,-2.516545302928555,0.0,0.0
25.778602838516235,0.0027162833,0.6262779,-2.34513,4.932192444525686,nan,nan,nan,nan,nan,15.769410848617554,16.969410848617553,0.0003502368927001953,0.1410360265378086,-0.583188510876566,5.331097645776384,-2.7877643394470213,0.745956649045021,0.22547847427515216,0.11488280764032809,0.3438032468520395,0.0,-3.285150218597579,0.0,0.0
25.87880849838257,-0.016145498,0.5504012,-2.363075,4.965182098022726,nan,nan,nan,nan,nan,15.869628429412842,17.06962842941284,0.00034689903259277344,0.2819278749972747,-0.5296382475799128,5.362581927335086,-2.8278513717651363,0.7456407979710735,0.2804130304277378,0.15846903553313405,0.3352930975998,0.0,-3.815152474882292,0.0,0.0
25.978888750076294,-0.042495538,0.46459672,-2.379343,4.995344839045014,nan,nan,nan,nan,nan,15.97004508972168,17.17004508972168,0.0006611347198486328,0.40524982851519104,-0.44246194919835563,5.3941287515675125,-2.8680180358886718,0.7464706396953169,0.3300948583107009,0.19767847815227232,0.3230238147822224,0.0,-3.9551525457482,0.0,0.0
26.078566312789917,-0.077630065,0.3566768,-2.4006774,5.027917006414395,nan,nan,nan,nan,nan,16.069379806518555,17.269379806518554,0.0003960132598876953,0.5020052095347122,-0.3286194905966622,5.425335673221062,-2.9077519226074218,0.7480226135413107,0.37502621290172544,0.2313384447990357,0.3083249804785526,0.0,-3.4906395164006394,0.0,0.0
26.179068326950073,-0.11878082,0.24758872,-2.427288,5.057717553920931,nan,nan,nan,nan,nan,16.17013907432556,17.37013907432556,0.0003516674041748047,0.5683262563011795,-0.19236752948116276,5.456990130773419,-2.9480556297302245,0.7496257480231076,0.4156613245997126,0.25472497844935293,0.29455640618030027,0.0,-2.5080507104623293,0.0,0.0
26.27884340286255,-0.15574475,0.12039658,-2.463311,5.0900067670465265,nan,nan,nan,nan,nan,16.26980423927307,17.46980423927307,0.00035381317138671875,0.5982730312545954,-0.04549043936299042,5.48830086577521,-2.9879216957092285,0.7505799780914466,0.45241099123535267,0.26799199579375454,0.28379725061431244,0.0,-0.548769423545057,0.0,0.0
26.378599643707275,-0.18781175,0.0071263346,-2.5026453,5.120103675709064,nan,nan,nan,nan,nan,16.369608163833618,17.569608163833617,0.00036025047302246094,0.5908417310005416,0.10443203008791672,5.519655193395095,-3.027843265533447,0.7499607506006294,0.4297891801741642,0.2719578602708869,0.27753161250375724,0.0,0.0,0.0,0.0
26.47854518890381,-0.21617116,-0.10920734,-2.5511904,5.153236037147909,nan,nan,nan,nan,nan,16.46948480606079,17.66948480606079,0.0003466606140136719,0.5463850505325483,0.24791808436365562,5.551032365943705,-3.067793922424316,0.7473634819570262,0.32549506397530487,0.2743082083209627,0.2747794143340393,0.0,0.0,0.0,0.0
26.578824758529663,-0.23248306,-0.20720257,-2.5986853,5.1841833402235125,nan,nan,nan,nan,nan,16.56978154182434,17.76978154182434,0.0006101131439208984,0.46728408911687963,0.37635831339058806,5.582541514769085,-3.107912616729736,0.7440916502079888,0.1982876684429657,0.27102338525751973,0.2775221112417114,0.0,0.0,0.0,0.0
26.678600788116455,-0.2348203,-0.29577377,-2.6462257,5.218181333791557,nan,nan,nan,nan,nan,16.66940665245056,17.86940665245056,0.00038242340087890625,0.3594597903554748,0.48040468265577724,5.613839666334726,-3.1477626609802245,0.7410433452889185,0.06303534131120969,0.25644785377665474,0.2866670210248286,0.0,0.0,0.0,0.0
26.77941370010376,-0.22904661,-0.36167753,-2.6951184,5.252367457205295,nan,nan,nan,nan,nan,16.770243644714355,17.970243644714355,0.00035643577575683594,0.2275275342410457,0.5551857537457079,5.645518541745329,-3.188097457885742,0.738268591449952,-0.04221743298880973,0.22892298827723642,0.3006160382991725,0.0,0.937292005461395,0.0,0.0
26.87877345085144,-0.20988414,-0.40021917,-2.7462342,5.284127039555303,nan,nan,nan,nan,nan,16.86961078643799,18.069610786437988,0.00035881996154785156,0.08325545660564883,0.5941956991979872,5.6767356499900465,-3.227844314575195,0.7357614954512005,-0.11467502964092131,0.18891683882452281,0.3166348837955278,0.0,1.858979590599156,0.0,0.0
26.978934288024902,-0.17398643,-0.4138906,-2.797264,5.31606110090649,nan,nan,nan,nan,nan,16.96988081932068,18.169880819320678,0.0003509521484375,-0.0675352558354748,0.5961870421430149,5.708236409857993,-3.2679523277282714,0.7330910767394954,-0.18020438125130903,0.13509776819223754,0.3307418432357672,0.0,3.294239013945922,0.0,0.0
27.078678131103516,-0.12425223,-0.40266573,-2.845601,5.3480253865604945,nan,nan,nan,nan,nan,17.069507122039795,18.269507122039794,0.00040459632873535156,-0.213152530398611,0.5608618357355661,5.739534935930662,-3.3078028488159177,0.7314214980616277,-0.23946795223469303,0.0749350466165951,0.3399100004248018,0.0,4.817480964264597,0.0,0.0
27.178496837615967,-0.07125937,-0.3648199,-2.8905954,5.3800957055823435,nan,nan,nan,nan,nan,17.169310808181763,18.369310808181762,0.0003612041473388672,-0.34569470019016585,0.49040307325753096,5.770889188649141,-3.347724323272705,0.7309957733360747,-0.2930648635330774,0.010891739251877443,0.34264061036673293,0.0,6.088286630161571,0.0,0.0
27.278777360916138,-0.017616844,-0.2986124,-2.9396296,5.414746996189876,nan,nan,nan,nan,nan,17.2696475982666,18.4696475982666,0.0004010200500488281,-0.4571214756743382,0.388638593653944,5.802410920910672,-3.3878590393066403,0.7316948862613454,-0.34153694938717305,-0.05601304081934554,0.33690320571001486,0.0,7.007082813807634,0.0,0.0
27.3786723613739,0.033628006,-0.21894057,-2.9797037,5.446467367924392,nan,nan,nan,nan,nan,17.36949110031128,18.56949110031128,0.0003638267517089844,-0.5393072658448483,0.2629594512599881,5.833777682163896,-3.4277964401245113,0.7336309708807127,-0.385374234971905,-0.11890185539093483,0.3228572755559065,0.0,7.418483692884904,0.0,0.0
27.47866940498352,0.08543174,-0.1150503,-3.0212002,5.48057470437481,nan,nan,nan,nan,nan,17.469494104385376,18.669494104385375,0.00034499168395996094,-0.5877602029877498,0.12057339583755239,5.865194552457505,-3.4677976417541503,0.7367329689680471,-0.42501989027177833,-0.16999788876788538,0.3058925738280567,0.0,7.135631624198721,0.0,0.0
