time,x,y,z,yaw,platform,trajectory,traj_double,traj_short,traj_spin,traj_time,ref_time,comptime,x_ref,y_ref,yaw_ref,z_ref,throttle_input,p_input,q_input,r_input,cbf_term_pitch_cbf,cbf_term_roll_cbf,cbf_term_thrust_cbf,cbf_term_yaw_cbf
10.000565767288208,-0.035197,0.004262733,-2.9583986,0.0022038493361563973,SIM,FIG8_HORIZONTAL,NormSpd,Not Short,NoSpin,1.1920928955078125e-06,1.2000011920928955,0.00806879997253418,0.25629348398036217,0.32087742943042213,0.0,-5.0,0.7726670717013054,0.007999999999999998,-0.011537737580698666,-0.0006696966432556804,0.0,-3.7695417321560534,0.0,0.0
10.110535144805908,-0.048532575,0.0072599864,-2.9684007,0.0028161495617579115,nan,nan,nan,nan,nan,0.1098933219909668,1.3098933219909668,0.0003676414489746094,0.20027171819064316,0.33388887326880445,0.0,-5.0,0.8007221331046331,0.06180424445766392,-0.024160761578575624,-0.0008057710182299684,0.0,-1.3229962739380268,-70.0090784645222,0.0
10.210688352584839,-0.060426544,0.011459725,-2.986637,0.0030588724803595328,nan,nan,nan,nan,nan,0.2100663185119629,1.4100663185119628,0.00034546852111816406,0.14128578124294242,0.3424730811355074,0.0,-5.0,0.8084888039867064,0.10610618490660916,-0.01019297122471128,-0.0018936685306673701,0.0,0.0,-40.522921074538885,0.0
10.3105149269104,-0.07058413,0.017090203,-3.023766,0.0031984625742432294,nan,nan,nan,nan,nan,0.309873104095459,1.509873104095459,0.000370025634765625,0.0772591027091633,0.34783490778783993,0.0,-5.0,0.8154499146930855,0.08565383576865866,0.008164551167650877,-0.00313613930850812,0.0,0.0,-3.2612775368724494,0.0
10.410632371902466,-0.07539492,0.022321377,-3.069741,0.0031999528284468795,nan,nan,nan,nan,nan,0.4099912643432617,1.6099912643432617,0.00037479400634765625,0.010154246851267002,0.349963165763553,0.0,-5.0,0.8086080736777609,0.05796892792088784,0.027326811492096297,-0.004013445215281729,0.0,0.0,0.0,0.0
10.511153936386108,-0.074153244,0.02717014,-3.1490364,0.0026530150770419907,nan,nan,nan,nan,nan,0.5105340480804443,1.7105340480804443,0.00034546852111816406,-0.05761326729363115,0.34880435651253394,0.0,-5.0,0.793699930835108,0.03001473196241559,0.04602058686651526,-0.004174881360413066,0.0,0.0,0.0,0.0
10.610826969146729,-0.07270082,0.03882269,-3.246356,0.0017536328434941857,nan,nan,nan,nan,nan,0.6102306842803955,1.8102306842803955,0.0003483295440673828,-0.12267477127842501,0.34440453290090284,0.0,-5.0,0.7804052445871725,0.005659949031912508,0.06102170444468832,-0.0035426238413151004,0.0,0.0,0.0,0.0
10.71086859703064,-0.06913347,0.05369813,-3.3520737,0.0011832420022954565,nan,nan,nan,nan,nan,0.710259199142456,1.910259199142456,0.00034308433532714844,-0.1833843597015087,0.3367780091320693,0.0,-5.0,0.7678654804567067,-0.01874604652355183,0.069740923905069,-0.0021140787261251046,0.0,0.0,1.739636317258837,0.0
10.810631275177002,-0.06662064,0.071004294,-3.4677875,0.0019398675032269632,nan,nan,nan,nan,nan,0.8099977970123291,2.0099977970123293,0.0003342628479003906,-0.23711294964391072,0.3260409670995776,0.0,-5.0,0.7575697821760751,-0.04052630800049643,0.07188063704949092,-0.0016145385598813444,0.0,0.0,6.056267163344081,0.0
10.910545110702515,-0.06897407,0.09081084,-3.6009881,0.0029936447682547135,nan,nan,nan,nan,nan,0.9099113941192627,2.109911394119263,0.0004019737243652344,-0.28212285238906276,0.3122489075547355,0.0,-5.0,0.748138143208024,-0.05625490978526824,0.06470067922834613,-0.0015655966646919387,0.0,0.0,9.92117431303656,0.0
11.010725498199463,-0.06828652,0.10885003,-3.7361271,0.0032403156963457976,nan,nan,nan,nan,nan,1.010117530822754,2.210117530822754,0.00034809112548828125,-0.31672332127204894,0.29549346558504785,0.0,-5.0,0.7395061392408783,-0.06594911459487,0.05292070963314211,-0.0015153096597226123,0.0,0.0,12.969567383766805,0.0
11.110722064971924,-0.066782214,0.13702367,-3.87365,0.002106335964980567,nan,nan,nan,nan,nan,1.1100811958312988,2.310081195831299,0.00034737586975097656,-0.3394342374608815,0.27601815210853037,0.0,-5.0,0.7316129935409302,-0.07445003998209791,0.038027683315189034,-0.0009738417225901005,0.0,0.0,14.591654212630932,0.0
11.210488319396973,-0.07158835,0.16900934,-4.0001163,0.00027854659673940156,nan,nan,nan,nan,nan,1.2098464965820312,2.4098464965820314,0.0003361701965332031,-0.3494999332960885,0.25401377695030974,0.0,-5.0,0.7244015239054507,-0.08322915209353683,0.01798925082888442,0.0002809649953967928,0.0,0.0,16.43323808347109,0.0
11.310650110244751,-0.084569216,0.20619641,-4.137143,5.1990605208773744e-05,nan,nan,nan,nan,nan,1.3100357055664062,2.5100357055664064,0.0003559589385986328,-0.34656423918751467,0.22954060558573616,0.0,-5.0,0.717818070672004,-0.09099577313478954,-0.00862514242979476,-0.0005120894269761804,0.0,0.0,16.70731318451963,0.0
11.41047215461731,-0.099464215,0.23554417,-4.2506566,0.0007536331627394279,nan,nan,nan,nan,nan,1.4098289012908936,2.6098289012908937,0.0003638267517089844,-0.3307546203653799,0.20302531537955731,0.0,-5.0,0.7118124072539147,-0.09169806623968604,-0.039407151018802565,-0.0032387503885238497,0.0,0.0,16.952353236850737,0.0
11.51097321510315,-0.11658109,0.27074566,-4.398093,0.0017145847643134718,nan,nan,nan,nan,nan,1.5103347301483154,2.7103347301483156,0.0003437995910644531,-0.3024295007470238,0.17441326688661155,0.0,-5.0,0.7063376351236849,-0.08829565524709948,-0.06708588522495637,-0.006406242238267315,0.0,0.0,16.28955081230066,0.0
11.610708475112915,-0.13595225,0.29820803,-4.511429,0.002797981265445341,nan,nan,nan,nan,nan,1.6101188659667969,2.810118865966797,0.0003464221954345703,-0.2630444028575722,0.14437872548001596,0.0,-5.0,0.7013500654679211,-0.08121672626186432,-0.09174075450520128,-0.00968493477009202,0.0,0.0,14.902894757431138,0.0
11.710617065429688,-0.16411594,0.32705036,-4.6445937,0.005021359995951276,nan,nan,nan,nan,nan,1.7099828720092773,2.9099828720092775,0.0003466606140136719,-0.2138576939910579,0.11297639252143205,0.0,-5.0,0.6968090899014807,-0.07149327724845339,-0.11324794490688063,-0.01303765180702914,0.0,0.0,12.38543037932182,0.0
11.810611248016357,-0.18722148,0.34466058,-4.7401977,0.007155764546303022,nan,nan,nan,nan,nan,1.8099727630615234,3.0099727630615236,0.0003883838653564453,-0.1566481243009544,0.08048064602001591,0.0,-5.0,0.6926770426732249,-0.05581227037988008,-0.1284544065758353,-0.016380666149411086,0.0,0.0,8.672887506032708,0.0
11.910804271697998,-0.21232665,0.36265022,-4.8384075,0.00836431051497041,nan,nan,nan,nan,nan,1.910170078277588,3.110170078277588,0.000347137451171875,-0.09346781244775275,0.04716408938303777,0.0,-5.0,0.688919056742097,-0.04094428549676254,-0.1354631101844567,-0.017994864431880482,0.0,0.0,3.814920085585518,0.0
12.010744333267212,-0.23968191,0.37261534,-4.933298,0.010222856496794,nan,nan,nan,nan,nan,2.0101113319396973,3.2101113319396974,0.0003554821014404297,-0.026963952213480132,0.013492004347746013,0.0,-5.0,0.6862994529077886,-0.024398210962165056,-0.13431413996669087,-0.018494281120610714,0.0,0.0,0.0,0.0
12.11061429977417,-0.25865164,0.3736258,-5.009459,0.012999708436464717,nan,nan,nan,nan,nan,2.1099860668182373,3.3099860668182375,0.0003643035888671875,0.04049869436937662,-0.02028343692234954,0.0,-5.0,0.6875116866953497,-0.005911725955382165,-0.12403296184363496,-0.01869493371686719,0.0,0.0,0.0,0.0
12.210812330245972,-0.27163506,0.3689794,-5.0812144,0.01709393402010797,nan,nan,nan,nan,nan,2.2101926803588867,3.410192680358887,0.0003533363342285156,0.10667004039691498,-0.053980913253248546,0.0,-5.0,0.6894705896042121,0.01238310221789529,-0.1036783420883372,-0.019444201927885072,0.0,0.0,0.0,0.0
12.310506582260132,-0.2781812,0.35995778,-5.1387134,0.02024053370870329,nan,nan,nan,nan,nan,2.309866428375244,3.5098664283752443,0.0004725456237792969,0.1685345785453887,-0.08699768886184313,0.0,-5.0,0.6915890346474538,0.026263642415869353,-0.07565046550009911,-0.020052514825319025,0.0,0.0,0.0,0.0
12.411121845245361,-0.28659126,0.34066695,-5.1920133,0.02384495439048813,nan,nan,nan,nan,nan,2.410701036453247,3.6107010364532472,0.0006871223449707031,0.22476303275672035,-0.11957666907008595,0.0,-5.0,0.6939033613040522,0.039351288421847125,-0.04730928318127443,-0.020983101952033522,0.0,0.0,0.0,0.0
12.510996580123901,-0.28617933,0.31469297,-5.2381144,0.026654211848102703,nan,nan,nan,nan,nan,2.5104029178619385,3.7104029178619387,0.0003337860107421875,0.27199523175897355,-0.15067468543155507,0.0,-5.0,0.6960017619023701,0.050228037522801146,-0.018895993608760587,-0.022327726243659037,0.0,0.0,0.0,0.0
12.610581159591675,-0.28112018,0.2877577,-5.281353,0.029541401697195546,nan,nan,nan,nan,nan,2.609959125518799,3.809959125518799,0.000347137451171875,0.3091068817470291,-0.18033202378792793,0.0,-5.0,0.6980312078021986,0.05619256563441096,0.01016474141271715,-0.023887921977171427,0.0,0.0,0.0,0.0
12.710749387741089,-0.27233002,0.2609801,-5.316307,0.03167062290856403,nan,nan,nan,nan,nan,2.710184335708618,3.9101843357086183,0.0003635883331298828,0.3349346336449931,-0.20850238865986684,0.0,-5.0,0.7000577263987027,0.055725074337398824,0.03759334572968697,-0.025518746412745107,0.0,0.0,0.0,0.0
12.811083555221558,-0.2572688,0.22976902,-5.345863,0.033214704371458015,nan,nan,nan,nan,nan,2.81052827835083,4.01052827835083,0.0003414154052734375,0.3482347758009668,-0.2347470481538273,0.0,-5.0,0.7020383132712018,0.05434082758201156,0.06319167773689847,-0.02727798894166496,0.0,0.0,0.0,0.0
12.91060185432434,-0.22460753,0.19100076,-5.3625674,0.033523439044743863,nan,nan,nan,nan,nan,2.909958839416504,4.109958839416504,0.0003514289855957031,0.3485278210667421,-0.25857668803962713,0.0,-5.0,0.7043792822222238,0.055056374055187374,0.0900808482345093,-0.02824021146089745,0.0,0.0,0.0,0.0
13.010933637619019,-0.17975558,0.1483867,-5.374416,0.0320321456065787,nan,nan,nan,nan,nan,3.0103342533111572,4.210334253311157,0.0003464221954345703,0.33580213938831555,-0.28021112322789615,0.0,-5.0,0.707183410500391,0.05701037625932637,0.11841849405739105,-0.028294879154666518,0.0,0.0,0.0,0.0
13.110658407211304,-0.12887877,0.10792383,-5.3832793,0.029742054737962497,nan,nan,nan,nan,nan,3.1100316047668457,4.310031604766846,0.000347137451171875,0.3106822771290068,-0.29909055355668857,0.0,-5.0,0.7096294527638531,0.056924195583862615,0.14163677059148724,-0.027639088006127167,0.0,0.0,0.0,0.0
13.210721731185913,-0.06899669,0.06401964,-5.388692,0.026538717730782133,nan,nan,nan,nan,nan,3.21008563041687,4.41008563041687,0.0003387928009033203,0.27390603682832004,-0.3152467628008513,0.0,-5.0,0.7120632781020686,0.05620837675440592,0.16077973797203568,-0.026154921638957822,0.0,0.0,0.0,0.0
13.310614109039307,-0.013706887,0.024834642,-5.387267,0.02489253278518102,nan,nan,nan,nan,nan,3.309976816177368,4.509976816177368,0.00040268898010253906,0.22699701110812312,-0.32843738478733475,0.0,-5.0,0.7147597708944081,0.0529866076897056,0.17131090072754268,-0.0252716736119553,0.0,0.0,0.0,0.0
13.410736322402954,0.04955683,-0.013777862,-5.374592,0.02723956669475281,nan,nan,nan,nan,nan,3.4101457595825195,4.61014575958252,0.0003540515899658203,0.1714846577941935,-0.3385919492764538,0.0,-5.0,0.7177294361187535,0.04601758959099967,0.17478383432384778,-0.026502890947959504,0.0,0.0,0.0,0.0
13.510818243026733,0.11130375,-0.04429564,-5.3652706,0.032770754581434636,nan,nan,nan,nan,nan,3.5101964473724365,4.710196447372437,0.0003452301025390625,0.1096372829233808,-0.3455681450528146,0.0,-5.0,0.7204041638725805,0.03648947399036779,0.1714857919934027,-0.02998084468058048,0.0,0.0,0.0,0.0
13.61093258857727,0.16727561,-0.07443248,-5.3568277,0.03859466190380668,nan,nan,nan,nan,nan,3.6103451251983643,4.810345125198364,0.0003478527069091797,0.04363493423197916,-0.34931666722148097,0.0,-5.0,0.7224553781986752,0.027611378413972033,0.16110423386884926,-0.0347293903833165,0.0,0.0,0.0,0.0
13.710628986358643,0.20593707,-0.10028528,-5.3490353,0.04039904274607813,nan,nan,nan,nan,nan,3.7100026607513428,4.910002660751343,0.0003902912139892578,-0.02366650362827064,-0.34979967656567323,0.0,-5.0,0.7239804327872447,0.02100459585624814,0.13692821680679826,-0.03659768577330781,0.0,0.0,0.0,0.0
13.810531854629517,0.23468705,-0.12675753,-5.339379,0.03943911094927093,nan,nan,nan,nan,nan,3.809889554977417,5.009889554977417,0.0003924369812011719,-0.09024210155519392,-0.3470289338565703,0.0,-5.0,0.7251807434447977,0.016226232195005557,0.10453609996265469,-0.035781189950541484,0.0,0.0,0.0,0.0
13.910382747650146,0.24821152,-0.15017736,-5.3326716,0.035359966843266845,nan,nan,nan,nan,nan,3.9097402095794678,5.109740209579468,0.0003609657287597656,-0.15344084064804633,-0.34102815366583306,0.0,-5.0,0.7259936850566753,0.01428154146742141,0.06652259516133864,-0.03213733842653632,0.0,0.0,0.0,0.0
14.011211156845093,0.25421575,-0.17330852,-5.320125,0.0293570585483207,nan,nan,nan,nan,nan,4.010800361633301,5.210800361633301,0.00072479248046875,-0.21159191893078966,-0.3317225013777568,0.0,-5.0,0.7267163479101197,0.012025866068462478,0.029974429965136454,-0.0272731256616212,0.0,0.0,0.0,0.0
14.111057043075562,0.24841496,-0.18875502,-5.3119035,0.024624620960832164,nan,nan,nan,nan,nan,4.110478401184082,5.310478401184082,0.0003466606140136719,-0.26106966700434403,-0.3194450416949784,0.0,-5.0,0.7274006690728048,0.007928759119180612,-0.008675878440665004,-0.021853739124126186,0.0,0.0,0.0,0.0
14.210821151733398,0.23404641,-0.20315655,-5.30297,0.019854093556517672,nan,nan,nan,nan,nan,4.21020245552063,5.41020245552063,0.0003809928894042969,-0.30089827227876403,-0.30419647009300443,0.0,-5.0,0.7278255318652334,0.00520836604428119,-0.0430929863296179,-0.017054104982264923,0.0,0.0,0.0,0.0
14.310833215713501,0.21484059,-0.2137412,-5.2874675,0.015179241696645009,nan,nan,nan,nan,nan,4.310211181640625,5.510211181640625,0.0003502368927001953,-0.329641868193259,-0.28606785894648723,0.0,-5.0,0.7286324989834941,0.001035057218161359,-0.07272213089978391,-0.012599887546821025,0.0,0.0,0.0,0.0
14.41080093383789,0.1832557,-0.21630757,-5.272568,0.010465486323684742,nan,nan,nan,nan,nan,4.410174608230591,5.610174608230591,0.00038242340087890625,-0.3460963904452922,-0.2652778413039091,0.0,-5.0,0.7294384502250617,-0.0043427726483290675,-0.10008506673017772,-0.008504465514549014,0.0,0.0,0.0,0.0
14.510786056518555,0.13747643,-0.21522133,-5.2577496,0.004803436927569249,nan,nan,nan,nan,nan,4.510181665420532,5.710181665420532,0.00035643577575683594,-0.34966355711210445,-0.24200214196103628,0.0,-5.0,0.7301598106120445,-0.009800344452013367,-0.12538947376805973,-0.0039083901320658065,0.0,0.0,0.0,0.0
14.610737323760986,0.08812899,-0.21293566,-5.2465196,0.00028120564924708803,nan,nan,nan,nan,nan,4.610128402709961,5.810128402709961,0.0003619194030761719,-0.3402101029467635,-0.21648265126239397,0.0,-5.0,0.7307486874804523,-0.013149191131076118,-0.1467961693717456,0.00012647219694726357,0.0,0.0,0.0,0.0
14.710655212402344,0.027903315,-0.21151617,-5.2338696,-0.003514174615627079,nan,nan,nan,nan,nan,4.71005392074585,5.91005392074585,0.00036406517028808594,-0.31809995297454596,-0.18895011428266223,0.0,-5.0,0.731171690910304,-0.013250660997563148,-0.162450208452477,0.003607876169231477,0.0,0.0,0.0,0.0
14.810612440109253,-0.035135474,-0.21326981,-5.215511,-0.004430309395037656,nan,nan,nan,nan,nan,4.8099894523620605,6.009989452362061,0.0003521442413330078,-0.2841511172445031,-0.15965301111457714,0.0,-5.0,0.7322132867712012,-0.00793147077902361,-0.17415490020821875,0.005413308581037501,0.0,0.0,0.0,0.0
14.910659074783325,-0.10176918,-0.21223284,-5.199308,-0.004297047787443076,nan,nan,nan,nan,nan,4.910019636154175,6.110019636154175,0.0003638267517089844,-0.23958180122894532,-0.12883741653096878,0.0,-5.0,0.7330539619057886,-0.0017381793133108426,-0.1785030936683643,0.0059852609979248565,0.0,0.0,0.0,0.0
15.011086702346802,-0.16253798,-0.20860371,-5.1760526,-0.0044231515520456255,nan,nan,nan,nan,nan,5.010475158691406,6.210475158691406,0.0003509521484375,-0.1858365322859044,-0.09667988023886702,0.0,-5.0,0.7339803888201668,0.0026801503236173778,-0.1731671585858653,0.00623792197281523,0.0,0.0,0.0,0.0
15.110762596130371,-0.21771458,-0.20308553,-5.154529,-0.005505704332855998,nan,nan,nan,nan,nan,5.1101415157318115,6.310141515731812,0.00036978721618652344,-0.12560257959834337,-0.06387396339527235,0.0,-5.0,0.7349584034349848,0.005657584363581973,-0.16073574593801346,0.006600416530629587,0.0,0.0,0.0,0.0
15.210815906524658,-0.2702942,-0.19641146,-5.1356993,-0.007919356769197318,nan,nan,nan,nan,nan,5.2102274894714355,6.410227489471436,0.0003597736358642578,-0.06044013785888829,-0.030334212101001883,0.0,-5.0,0.7356677353137075,0.007012951999907892,-0.145424351263641,0.008502195567694243,0.0,0.0,0.0,0.0
15.310774803161621,-0.3156894,-0.19248274,-5.1203628,-0.008026433962274277,nan,nan,nan,nan,nan,5.310157060623169,6.510157060623169,0.0003619194030761719,0.006872340764236221,0.0034363360091622264,0.0,-5.0,0.7359632960920953,0.010093418772523118,-0.1239689094780142,0.009061480350489655,0.0,0.0,0.0,0.0
15.410534143447876,-0.35263985,-0.18450828,-5.1102114,-0.00872645029010634,nan,nan,nan,nan,nan,5.4098920822143555,6.609892082214356,0.00035119056701660156,0.07380044001946183,0.03710939573942717,0.0,-5.0,0.7358084122518131,0.011782774786145435,-0.10024382337034257,0.009181347573494524,0.0,0.0,0.0,0.0
15.511267900466919,-0.38281137,-0.1733359,-5.099983,-0.009953678210819057,nan,nan,nan,nan,nan,5.510630369186401,6.7106303691864015,0.0003516674041748047,0.13861687175674117,0.07077025949976236,0.0,-5.0,0.7354287162994037,0.011285142146635157,-0.07167219615929646,0.009437993698343321,0.0,0.0,0.0,0.0
15.610917568206787,-0.40141997,-0.16081358,-5.090597,-0.011133625854710356,nan,nan,nan,nan,nan,5.610318183898926,6.810318183898926,0.0003452301025390625,0.19760590254654686,0.10342109748312421,0.0,-5.0,0.7349939120943322,0.009516463634223845,-0.04232425642117456,0.009902692960372444,0.0,0.0,0.0,0.0
15.710811614990234,-0.41114664,-0.14464885,-5.080525,-0.011927965170813635,nan,nan,nan,nan,nan,5.710222959518433,6.910222959518433,0.00034427642822265625,0.2493809737591716,0.1351800459622089,0.0,-5.0,0.7346293672744022,0.006436206083017652,-0.012192061098692373,0.010028752817378375,0.0,0.0,0.0,0.0
15.810845613479614,-0.40714318,-0.12692584,-5.074244,-0.012686350038188292,nan,nan,nan,nan,nan,5.8102171421051025,7.010217142105103,0.00034880638122558594,0.2919151862573201,0.16570589981708075,0.0,-5.0,0.7340096934401663,0.0023368787450118163,0.021980256166859106,0.010160085009849398,0.0,0.0,0.0,0.0
15.91088056564331,-0.39337495,-0.10630434,-5.06822,-0.012814816535607962,nan,nan,nan,nan,nan,5.910253286361694,7.1102532863616945,0.0003829002380371094,0.32358479625206354,0.19469657977736454,0.0,-5.0,0.7333770955523123,-0.002233133855273675,0.0544215513236602,0.010040997439337241,0.0,0.0,0.0,0.0
16.01088809967041,-0.3665968,-0.08158018,-5.0660343,-0.012441445326731186,nan,nan,nan,nan,nan,6.0102598667144775,7.210259866714478,0.0003440380096435547,0.3431851005726107,0.22186038105173483,0.0,-5.0,0.7326875024107868,-0.007473082103827161,0.08536252112306443,0.009738377496179137,0.0,0.0,0.0,0.0
16.110809564590454,-0.32831138,-0.056286953,-5.0657153,-0.012586246423307136,nan,nan,nan,nan,nan,6.110213994979858,7.310213994979859,0.0003464221954345703,0.34999658190037913,0.24693988370462935,0.0,-5.0,0.7319269760027802,-0.012286682948289745,0.11405232537486548,0.00968605934382002,0.0,0.0,0.0,0.0
16.21076011657715,-0.28501484,-0.03314028,-5.066147,-0.014122242872945633,nan,nan,nan,nan,nan,6.210195541381836,7.410195541381836,0.00034356117248535156,0.3437757201642256,0.2697217999633127,0.0,-5.0,0.7313799728107345,-0.013568632788879351,0.13889650759576108,0.011068889056006722,0.0,0.0,0.0,0.0
16.310688734054565,-0.23700207,-0.002788388,-5.073129,-0.016898959902770846,nan,nan,nan,nan,nan,6.310071229934692,7.510071229934693,0.0003592967987060547,0.3247772799486489,0.2899662696071539,0.0,-5.0,0.7306242539628902,-0.016064970389166423,0.15684095558450212,0.013561210646984545,0.0,0.0,0.0,0.0
16.41061282157898,-0.18331684,0.02533634,-5.0822453,-0.018502112677336608,nan,nan,nan,nan,nan,6.409973382949829,7.609973382949829,0.00035500526428222656,0.2936979544936796,0.30751439972871975,0.0,-5.0,0.7298569252731892,-0.01954836012792721,0.16945656486928737,0.01596032355228403,0.0,0.0,0.0,0.0
16.51133680343628,-0.12191199,0.057932205,-5.093296,-0.019727233521701193,nan,nan,nan,nan,nan,6.510699033737183,7.710699033737183,0.00035071372985839844,0.25130933990374876,0.3223056839342848,0.0,-5.0,0.7292176601809685,-0.022886186061655864,0.17737114328966028,0.0177095718773315,0.0,0.0,0.0,0.0
16.611558437347412,-0.07053533,0.08506298,-5.1026573,-0.020825648237062105,nan,nan,nan,nan,nan,6.610935211181641,7.810935211181641,0.0005621910095214844,0.19969313830355406,0.33399442065730806,0.0,-5.0,0.7286777221770895,-0.02640002786934361,0.17876356187537437,0.019492586606076723,0.0,0.0,0.0,0.0
16.71100640296936,-0.009128786,0.11686879,-5.1133657,-0.023652255313096657,nan,nan,nan,nan,nan,6.710450887680054,7.910450887680054,0.0003483295440673828,0.14104766705523963,0.34249989552648324,0.0,-5.0,0.7282818395524513,-0.026826756275253636,0.17326828051923682,0.021882758235325095,0.0,0.0,0.0,0.0
16.811014652252197,0.0389608,0.14353736,-5.1193933,-0.024837320157242083,nan,nan,nan,nan,nan,6.8105151653289795,8.010515165328979,0.00035452842712402344,0.07683530887032951,0.347858965247997,0.0,-5.0,0.7280983363169157,-0.028906994456530995,0.15997191244522682,0.023854976716192137,0.0,0.0,0.0,0.0
16.91086173057556,0.09044781,0.17685632,-5.124408,-0.023292158175492177,nan,nan,nan,nan,nan,6.91023588180542,8.11023588180542,0.00042366981506347656,0.009988794813052634,0.3499643566325928,0.0,-5.0,0.7280850667584471,-0.031857938389358076,0.14269249052929286,0.02379007189706008,0.0,0.0,0.0,0.0
17.010947942733765,0.13156329,0.20887792,-5.128529,-0.019362709814255533,nan,nan,nan,nan,nan,7.010376214981079,8.210376214981078,0.00034546852111816406,-0.05750792357863259,0.34880876250025983,0.0,-5.0,0.7280992585986902,-0.0357824309673924,0.1179371582550215,0.021059250117832284,0.0,0.0,0.0,0.0
17.11069941520691,0.16537482,0.24105482,-5.1329174,-0.014221360523651408,nan,nan,nan,nan,nan,7.110069036483765,8.310069036483764,0.00034499168395996094,-0.1225723248753297,0.34441426873655623,0.0,-5.0,0.7280389624831298,-0.03903457112554471,0.09177787362553612,0.016617693919146522,0.0,0.0,0.0,0.0
17.211018085479736,0.19277005,0.2758065,-5.1385612,-0.008700990651964197,nan,nan,nan,nan,nan,7.210437774658203,8.410437774658202,0.0003464221954345703,-0.18348726798031303,0.33676155490475124,0.0,-5.0,0.7277826512494433,-0.04102845334388695,0.061193879116218715,0.011238399693400142,0.0,0.0,0.0,0.0
17.310643434524536,0.20573594,0.30305168,-5.137625,-0.004832220502823795,nan,nan,nan,nan,nan,7.310009479522705,8.510009479522704,0.0003771781921386719,-0.2371187641262813,0.32603952985685486,0.0,-5.0,0.7277726197173218,-0.03946543836712658,0.02765575080417906,0.006218587815988242,0.0,0.0,0.0,0.0
17.410781860351562,0.20869367,0.32659665,-5.1336107,-0.0019244848998027607,nan,nan,nan,nan,nan,7.410161972045898,8.610161972045898,0.0003991127014160156,-0.28222316569445866,0.31221059963547393,0.0,-5.0,0.7279774728713098,-0.03416427805301273,-0.006787201966444703,0.0020032249901231107,0.0,0.0,0.0,0.0
17.511013746261597,0.19936687,0.34617916,-5.129039,1.588787674182933e-05,nan,nan,nan,nan,nan,7.510381460189819,8.710381460189819,0.00034880638122558594,-0.31679928239052163,0.2954456012864814,0.0,-5.0,0.7282426995408913,-0.027500586859588158,-0.040848655770910854,-0.001387341258336479,0.0,0.0,0.0,0.0
17.610769271850586,0.17699279,0.36516792,-5.1242414,0.0017832357018765649,nan,nan,nan,nan,nan,7.610308885574341,8.81030888557434,0.0003693103790283203,-0.3394717741956638,0.27597077949783116,0.0,-5.0,0.7285446344260164,-0.022379287333190702,-0.07452643874535715,-0.004473937439988657,0.0,0.0,0.0,0.0
17.710994720458984,0.14381939,0.3801152,-5.119282,0.0034687170620672815,nan,nan,nan,nan,nan,7.710443496704102,8.9104434967041,0.0003428459167480469,-0.3495212868303878,0.2538747813802175,0.0,-5.0,0.7288233662561205,-0.018418985214138844,-0.1045195044874799,-0.007199111000615481,0.0,0.0,0.0,0.0
17.81071901321411,0.1046079,0.39055678,-5.1089377,0.004776565703838498,nan,nan,nan,nan,nan,7.810097694396973,9.010097694396972,0.000385284423828125,-0.3465583739404041,0.2295247729386428,0.0,-5.0,0.7295528893741249,-0.014689072868357661,-0.13308476087350465,-0.009708785150901771,0.0,0.0,0.0,0.0
17.910829067230225,0.05518035,0.39815468,-5.1010237,0.005952245491819511,nan,nan,nan,nan,nan,7.910240411758423,9.110240411758422,0.0004513263702392578,-0.3306634539651138,0.2029118919776445,0.0,-5.0,0.7302130567767618,-0.011551726789419736,-0.15574945627889428,-0.011605050315196389,0.0,0.0,0.0,0.0
18.011476278305054,-0.0040288195,0.40427956,-5.0957527,0.00684759078406082,nan,nan,nan,nan,nan,8.010839223861694,9.210839223861694,0.0003693103790283203,-0.3022575313094566,0.17426526549491475,0.0,-5.0,0.7307063911586286,-0.007925403168993045,-0.17256035182851984,-0.013059947998053757,0.0,0.0,0.0,0.0
18.110960721969604,-0.061576,0.40875182,-5.09235,0.006665515373835088,nan,nan,nan,nan,nan,8.110405921936035,9.310405921936034,0.0003497600555419922,-0.26291623029228994,0.14429024972387855,0.0,-5.0,0.731049890661583,-0.007679834917492356,-0.18301847100563806,-0.01358394014237789,0.0,0.0,0.0,0.0
18.21081256866455,-0.12510353,0.41243592,-5.0864697,0.0049888376428927385,nan,nan,nan,nan,nan,8.210196733474731,9.41019673347473,0.0004992485046386719,-0.2137431216905024,0.11290790844841372,0.0,-5.0,0.7316398268109887,-0.008352741677636027,-0.18564438214996287,-0.01263670839527798,0.0,0.0,0.0,0.0
18.31082510948181,-0.18771416,0.4134104,-5.0816073,0.0034108508395441148,nan,nan,nan,nan,nan,8.310238122940063,9.510238122940063,0.00035834312438964844,-0.15648753562632006,0.08039327111412861,0.0,-5.0,0.7321641494809487,-0.008576613303190234,-0.18284029860209974,-0.011173499173027842,0.0,0.0,0.0,0.0
18.410820960998535,-0.2473961,0.4068677,-5.0768747,0.002650662620472345,nan,nan,nan,nan,nan,8.410192012786865,9.610192012786865,0.0004951953887939453,-0.09345350938757754,0.04715673605849995,0.0,-5.0,0.732504416957245,-0.005809730366792212,-0.1720661735185832,-0.009500832504377813,0.0,0.0,0.0,0.0
18.510719537734985,-0.29774714,0.3948219,-5.077296,0.0026195505163415927,nan,nan,nan,nan,nan,8.510123014450073,9.710123014450073,0.0003561973571777344,-0.02695607072097603,0.013488054795104246,0.0,-5.0,0.732470647765766,-0.00041575089245412237,-0.15329031972410814,-0.008032918316805441,0.0,0.0,0.0,0.0
18.6108341217041,-0.34600157,0.37778643,-5.082748,0.003145522524750647,nan,nan,nan,nan,nan,8.610248327255249,9.810248327255248,0.00034737586975097656,0.040674955876464185,-0.0203720165024244,0.0,-5.0,0.7319584968621966,0.005813722469676139,-0.1315192930263,-0.007010600075652054,0.0,0.0,0.0,0.0
18.710773706436157,-0.3768254,0.36327046,-5.0868793,0.0034073485896239757,nan,nan,nan,nan,nan,8.710249900817871,9.91024990081787,0.00034689903259277344,0.10670691600657295,-0.0540000406670838,0.0,-5.0,0.7313911939954533,0.010092558283360491,-0.10087237369236188,-0.0059508391689729176,0.0,0.0,0.0,0.0
18.810571432113647,-0.40015814,0.3418234,-5.080935,0.003917041658645877,nan,nan,nan,nan,nan,8.809935331344604,10.009935331344604,0.0004630088806152344,0.16857543910908024,-0.0870202686618272,0.0,-5.0,0.7312726444367124,0.013493678066324625,-0.06713294241192096,-0.0049892489559337835,0.0,0.0,0.0,0.0
18.910568714141846,-0.41281274,0.32345662,-5.075303,0.003930802730418681,nan,nan,nan,nan,nan,8.90994143486023,10.109941434860229,0.0004100799560546875,0.22436879340833846,-0.11933510809312069,0.0,-5.0,0.7313132491545298,0.015930362679049008,-0.03163555420390761,-0.00410042385408892,0.0,0.0,0.0,0.0
19.010987758636475,-0.41655678,0.29838488,-5.0683055,0.0034517575368534295,nan,nan,nan,nan,nan,9.01036286354065,10.210362863540649,0.0003581047058105469,0.27197817404803576,-0.1506624539533816,0.0,-5.0,0.7313000355336846,0.01645018477357188,0.0022467049505505653,-0.0029493399872753457,0.0,0.0,0.0,0.0
19.110907077789307,-0.409199,0.2762517,-5.0637536,0.0026713683374267293,nan,nan,nan,nan,nan,9.11033010482788,10.31033010482788,0.00038504600524902344,0.30922454906862445,-0.18043958191735524,0.0,-5.0,0.731192067941929,0.017574102801424497,0.036230941593073794,-0.001783701841439311,0.0,0.0,0.0,0.0
19.21080231666565,-0.39040577,0.25042227,-5.058999,0.0022712734964181035,nan,nan,nan,nan,nan,9.210179328918457,10.410179328918456,0.00040411949157714844,0.3349336503649157,-0.20850102811222776,0.0,-5.0,0.7310284301046643,0.018176968592578217,0.0687633575836318,-0.0008780515892645318,0.0,0.0,0.0,0.0
19.310868978500366,-0.36044398,0.22490323,-5.049926,0.003143998865572026,nan,nan,nan,nan,nan,9.310272455215454,10.510272455215453,0.0004134178161621094,0.34821736972188194,-0.23468284373390602,0.0,-5.0,0.7310425580158596,0.01739533236742579,0.09884195089037076,-0.0009033062169181973,0.0,0.0,0.0,0.0
19.410755157470703,-0.32239485,0.19988096,-5.0428557,0.004844165210769627,nan,nan,nan,nan,nan,9.410139322280884,10.610139322280883,0.0003681182861328125,0.34851661050628147,-0.258617835883557,0.0,-5.0,0.7311773238452268,0.016435879670260004,0.12624992040766034,-0.0020577601691283546,0.0,0.0,0.0,0.0
19.510865688323975,-0.27337617,0.16928451,-5.039097,0.006342536294680249,nan,nan,nan,nan,nan,9.510261297225952,10.710261297225951,0.0003821849822998047,0.33581605379392565,-0.28019633266746014,0.0,-5.0,0.7311707254991359,0.017723803377993647,0.14975683233295461,-0.0035962448303016974,0.0,0.0,0.0,0.0
19.610771894454956,-0.22445591,0.13764079,-5.039575,0.0066017431443890435,nan,nan,nan,nan,nan,9.610213041305542,10.810213041305541,0.0003516674041748047,0.31062572375003145,-0.29912243077583056,0.0,-5.0,0.7309447814497642,0.02239702013543014,0.16555556468517293,-0.004754335280272442,0.0,0.0,0.0,0.0
19.710731029510498,-0.17284757,0.105085894,-5.0439715,0.007066062787626457,nan,nan,nan,nan,nan,9.710103511810303,10.910103511810302,0.00038909912109375,0.27389850427874823,-0.3152493909445397,0.0,-5.0,0.730562455184802,0.02595761792261688,0.17231311342866587,-0.005719071933326234,0.0,0.0,0.0,0.0
19.810620069503784,-0.118519805,0.0729808,-5.0488496,0.006659945104032965,nan,nan,nan,nan,nan,9.810011625289917,11.010011625289916,0.00041294097900390625,0.22697908250211174,-0.32844145432641697,0.0,-5.0,0.7302157226073221,0.029238507963099507,0.17375316906683552,-0.006360537564569774,0.0,0.0,0.0,0.0
19.910868883132935,-0.06065374,0.03569229,-5.052496,0.005485095402135324,nan,nan,nan,nan,nan,9.910271883010864,11.110271883010864,0.0003840923309326172,0.17141025648639557,-0.33860275236217735,0.0,-5.0,0.7300274123554071,0.03328589166068542,0.17072618385792432,-0.006465011703930508,0.0,0.0,0.0,0.0
20.01108694076538,-0.012399686,0.0006240313,-5.0544906,0.004008550022030899,nan,nan,nan,nan,nan,10.010511636734009,11.210511636734008,0.00040531158447265625,0.10943472331390569,-0.34558504513018684,0.0,-5.0,0.7300559682585521,0.03671854859448297,0.16054132110613004,-0.006025614603330432,0.0,0.0,0.0,0.0
20.110838174819946,0.032514423,-0.036184974,-5.0572066,0.0023020314067340713,nan,nan,nan,nan,nan,10.110272645950317,11.310272645950317,0.000396728515625,0.043683594309870226,-0.34931513480682247,0.0,-5.0,0.7300708666349863,0.03826840073955831,0.14289463098442073,-0.005062926627118246,0.0,0.0,0.0,0.0
20.210740089416504,0.068165116,-0.07102943,-5.064697,0.0001432062307080873,nan,nan,nan,nan,nan,10.210124492645264,11.410124492645263,0.0003592967987060547,-0.023748751930828347,-0.3497982797627944,0.0,-5.0,0.7297435872801307,0.039326100908708715,0.12013807642224554,-0.0034747840793121843,0.0,0.0,0.0,0.0
20.31064248085022,0.09161288,-0.106076665,-5.0728197,-0.002283541645783147,nan,nan,nan,nan,nan,10.310013771057129,11.510013771057128,0.0004565715789794922,-0.090323308014164,-0.3470234671636688,0.0,-5.0,0.7292785284426038,0.03938626571342121,0.09349424272239487,-0.0012722075713113743,0.0,0.0,0.0,0.0
20.410720348358154,0.10778059,-0.13897309,-5.0861125,-0.004570260831833947,nan,nan,nan,nan,nan,10.410086870193481,11.61008687019348,0.0003504753112792969,-0.15365163105851046,-0.3410017493552718,0.0,-5.0,0.7286124299082445,0.038478839046174926,0.06294456860620133,0.001323647501291695,0.0,0.0,0.0,0.0
20.51138734817505,0.118433155,-0.1715564,-5.1026416,-0.0065410916328941075,nan,nan,nan,nan,nan,10.510764360427856,11.710764360427856,0.0003707408905029297,-0.21157251381812428,-0.3317263857719046,0.0,-5.0,0.7276084756108623,0.03535972950506423,0.031157760626556376,0.00403282695618923,0.0,0.0,0.0,0.0
20.610763788223267,0.1204442,-0.19877027,-5.1137004,-0.007506741757394611,nan,nan,nan,nan,nan,10.610200881958008,11.810200881958007,0.00035572052001953125,-0.2609445574892485,-0.3194833972052397,0.0,-5.0,0.7269897990775303,0.031083142931731565,0.001120029097229814,0.00609730530674201,0.0,0.0,0.0,0.0
20.710664987564087,0.10913743,-0.22543804,-5.1239085,-0.00815719108975965,nan,nan,nan,nan,nan,10.71004056930542,11.91004056930542,0.0003669261932373047,-0.3008423060958131,-0.3042235545562594,0.0,-5.0,0.7265429728051064,0.026236053223816388,-0.030766199816511353,0.0078084877653761845,0.0,0.0,0.0,0.0
20.810689449310303,0.09028737,-0.24421915,-5.130632,-0.008636868430076664,nan,nan,nan,nan,nan,10.810062646865845,12.010062646865844,0.0003829002380371094,-0.32960807662250846,-0.28609680982660496,0.0,-5.0,0.7263316175787622,0.020057354869821388,-0.062332009336790305,0.009343867132374756,0.0,0.0,0.0,0.0
20.91061282157898,0.063176334,-0.2569433,-5.1361537,-0.008931563731484736,nan,nan,nan,nan,nan,10.90997576713562,12.10997576713562,0.000385284423828125,-0.3460763261277936,-0.2653217204635485,0.0,-5.0,0.7263387796393138,0.011966218399595612,-0.09049681808194343,0.010406928178713956,0.0,0.0,0.0,0.0
21.010508060455322,0.029930728,-0.26220113,-5.1396937,-0.009394600628750863,nan,nan,nan,nan,nan,11.009870529174805,12.209870529174804,0.00041604042053222656,-0.34967272270006305,-0.2420781787576211,0.0,-5.0,0.7265230436882342,0.002251808163707521,-0.11372491942350531,0.01098124701976699,0.0,0.0,0.0,0.0
21.11074471473694,-0.018682007,-0.26344985,-5.141904,-0.01068313544508465,nan,nan,nan,nan,nan,11.110179424285889,12.310179424285888,0.0003662109375,-0.34020199298636583,-0.21646908716288163,0.0,-5.0,0.7268670284635236,-0.006767506866121149,-0.13653960724435005,0.01190840873463751,0.0,0.0,0.0,0.0
21.210697174072266,-0.06477557,-0.26026547,-5.1440043,-0.011320731454985817,nan,nan,nan,nan,nan,11.210082054138184,12.410082054138183,0.00035190582275390625,-0.31809201223912187,-0.18894210217278837,0.0,-5.0,0.7272887864012092,-0.013496060879889924,-0.15333029373130683,0.01236406192365788,0.0,0.0,0.0,0.0
21.310673713684082,-0.11605004,-0.25429007,-5.143885,-0.010946567996693017,nan,nan,nan,nan,nan,11.310049057006836,12.510049057006835,0.0004184246063232422,-0.2841275677282798,-0.15963506529358726,0.0,-5.0,0.7278014434082097,-0.01640851936892655,-0.1625402452504882,0.012077761139391479,0.0,0.0,0.0,0.0
21.411179542541504,-0.15964381,-0.24548334,-5.1421037,-0.010032776972413612,nan,nan,nan,nan,nan,11.410559892654419,12.610559892654418,0.0003457069396972656,-0.23931517571347594,-0.12866745084404338,0.0,-5.0,0.7284726047253368,-0.018241741241538087,-0.16441141510254004,0.010769063348458105,0.0,0.0,0.0,0.0
21.51095151901245,-0.21422242,-0.22876096,-5.1374903,-0.009011457911593485,nan,nan,nan,nan,nan,11.510406732559204,12.710406732559203,0.0003523826599121094,-0.18587576559296798,-0.09670212959324379,0.0,-5.0,0.7291511049944812,-0.018825719993934235,-0.1619706154982016,0.009501979889138343,0.0,0.0,0.0,0.0
21.610736846923828,-0.25489432,-0.210804,-5.130911,-0.009303560440452437,nan,nan,nan,nan,nan,11.610107898712158,12.810107898712157,0.00035381317138671875,-0.1256238111297239,-0.06388514585010024,0.0,-5.0,0.7300320389892682,-0.021957949592479414,-0.15171507929150213,0.008656621122756262,0.0,0.0,0.0,0.0
21.711183547973633,-0.30132276,-0.19000116,-5.1258,-0.010309134527240832,nan,nan,nan,nan,nan,11.710787296295166,12.910787296295165,0.0003783702850341797,-0.060066999494249755,-0.03014552349464678,0.0,-5.0,0.7306691628484556,-0.022310671821367888,-0.1397148335659749,0.008837572692707648,0.0,0.0,0.0,0.0
21.810800552368164,-0.3459286,-0.16285565,-5.1216574,-0.01168177301787525,nan,nan,nan,nan,nan,11.810245513916016,13.010245513916015,0.0003571510314941406,0.006932181109346436,0.003466260546553255,0.0,-5.0,0.7310803138509097,-0.022335823844565224,-0.1228244289054183,0.009455634992253603,0.0,0.0,0.0,0.0
21.91082215309143,-0.38102978,-0.1367698,-5.1161246,-0.012639843971522803,nan,nan,nan,nan,nan,11.910196781158447,13.110196781158447,0.0003705024719238281,0.07400196645853829,0.0372119004331074,0.0,-5.0,0.7313352270947618,-0.022456842142178253,-0.10159420969466586,0.010122915609129956,0.0,0.0,0.0,0.0
22.01104164123535,-0.4114292,-0.11015043,-5.1070395,-0.012984681019618586,nan,nan,nan,nan,nan,12.010514736175537,13.210514736175536,0.0003714561462402344,0.1385450230980691,0.07073194556897644,0.0,-5.0,0.7318130183918292,-0.019954833818053144,-0.07653723064028277,0.01051149671617446,0.0,0.0,0.0,0.0
22.11099338531494,-0.42666182,-0.08475169,-5.1025515,-0.013234869050039802,nan,nan,nan,nan,nan,12.110451221466064,13.310451221466064,0.0003609657287597656,0.1976801960304999,0.10346409674366194,0.0,-5.0,0.7318616720380475,-0.016908560094965823,-0.048299882811494624,0.010833527377520575,0.0,0.0,0.0,0.0
22.210784912109375,-0.42901576,-0.056200426,-5.100103,-0.013371027139450544,nan,nan,nan,nan,nan,12.210211753845215,13.410211753845214,0.0004305839538574219,0.249375653524743,0.13517654897353823,0.0,-5.0,0.7316227941021288,-0.01458499964501798,-0.015229425233298672,0.011118119278781483,0.0,0.0,0.0,0.0
22.31095290184021,-0.42220137,-0.03344853,-5.09953,-0.013240875707546122,nan,nan,nan,nan,nan,12.310381889343262,13.510381889343261,0.0003790855407714844,0.29197667281761824,0.16575499318547035,0.0,-5.0,0.7312205580909392,-0.011285909432695926,0.018736844620405695,0.011299780788445254,0.0,0.0,0.0,0.0
22.411383152008057,-0.40566882,-0.011878398,-5.100101,-0.012906302957277318,nan,nan,nan,nan,nan,12.41097092628479,13.61097092628479,0.00045752525329589844,0.32376955058121915,0.19489829564095457,0.0,-5.0,0.7307858627018559,-0.0052471478381087575,0.05039095784944724,0.011184364443817398,0.0,0.0,0.0,0.0
22.51113796234131,-0.38210544,0.006940747,-5.1020203,-0.012412346212924846,nan,nan,nan,nan,nan,12.51060676574707,13.71060676574707,0.0003750324249267578,0.34323111840231235,0.22195114149924217,0.0,-5.0,0.7303863239267823,0.0012049252844158395,0.0795011823896531,0.010798506760858872,0.0,0.0,0.0,0.0
22.610684633255005,-0.35010552,0.023657326,-5.1112204,-0.012826208448346943,nan,nan,nan,nan,nan,12.610199689865112,13.810199689865112,0.0003638267517089844,0.3499965389877739,0.24693645388359559,0.0,-5.0,0.7296214897106955,0.0071813439279238825,0.10606195322851589,0.010693951558296097,0.0,0.0,0.0,0.0
22.71081829071045,-0.30813503,0.03641373,-5.1129045,-0.013693703853738224,nan,nan,nan,nan,nan,12.710272550582886,13.910272550582885,0.0004303455352783203,0.34376593287727364,0.26973840297147733,0.0,-5.0,0.7292800154049591,0.012411138076487341,0.12976687739818554,0.010854856871547648,0.0,0.0,0.0,0.0
22.811538219451904,-0.25472865,0.050504055,-5.114122,-0.014410194504864646,nan,nan,nan,nan,nan,12.810917854309082,14.010917854309081,0.00045943260192871094,0.32456331276081685,0.29012658324285706,0.0,-5.0,0.7293156058610708,0.015608199689550505,0.15091341290058027,0.011154049877227542,0.0,0.0,0.0,0.0
22.91145920753479,-0.20015283,0.06487661,-5.113929,-0.014420328464587533,nan,nan,nan,nan,nan,12.910938262939453,14.110938262939452,0.0004019737243652344,0.29334232548929734,0.3076701541792427,0.0,-5.0,0.7294062021594905,0.014787868051352298,0.16639826238826025,0.01106156644184837,0.0,0.0,0.0,0.0
23.01086187362671,-0.13635083,0.08166784,-5.1086464,-0.014266182673852976,nan,nan,nan,nan,nan,13.010391473770142,14.210391473770141,0.0004189014434814453,0.2514541437405617,0.32226510249112467,0.0,-5.0,0.7300168040555886,0.011571868046300645,0.17623795173255272,0.011060804952112613,0.0,0.0,0.0,0.0
23.110806465148926,-0.06693506,0.10126197,-5.110044,-0.013527468198972357,nan,nan,nan,nan,nan,13.110276937484741,14.31027693748474,0.00037670135498046875,0.20005878396490662,0.3339277743937043,0.0,-5.0,0.730373718143716,0.0040398616882876045,0.18194656389125105,0.011121378783196332,0.0,0.0,0.0,0.0
23.21068000793457,0.0009810852,0.11985652,-5.112413,-0.012922530299459332,nan,nan,nan,nan,nan,13.21020221710205,14.41020221710205,0.0004394054412841797,0.14120164565368887,0.34248256218008605,0.0,-5.0,0.7305591810869821,-0.0035553053745112574,0.1800848640687443,0.011189739318177173,0.0,0.0,0.0,0.0
23.31087589263916,0.061075594,0.13841134,-5.1145616,-0.012117595847854665,nan,nan,nan,nan,nan,13.31039309501648,14.510393095016479,0.0007605552673339844,0.07691589076574874,0.3478544016983022,0.0,-5.0,0.7307034180703731,-0.009843039491571538,0.1696182590393548,0.011341285368236755,0.0,0.0,0.0,0.0
23.410783767700195,0.10906986,0.1552671,-5.1167254,-0.010822492253302392,nan,nan,nan,nan,nan,13.410256385803223,14.610256385803222,0.0003647804260253906,0.009974926411564423,0.3499644555632132,0.0,-5.0,0.7307214423343873,-0.015925914380613873,0.14944456447581855,0.010918449130228372,0.0,0.0,0.0,0.0
23.51082944869995,0.1465654,0.16977294,-5.119338,-0.009336690831244096,nan,nan,nan,nan,nan,13.51045560836792,14.71045560836792,0.0003478527069091797,-0.05756091436498838,0.34880654721012005,0.0,-5.0,0.7305642861688785,-0.01986090735066918,0.12247782817293959,0.009770528637191092,0.0,0.0,0.0,0.0
23.61088752746582,0.18818222,0.18852937,-5.127954,-0.007313948824389588,nan,nan,nan,nan,nan,13.610392570495605,14.810392570495605,0.0007991790771484375,-0.12277735677502806,0.3443947742780531,0.0,-5.0,0.7301479580804124,-0.02282938575418526,0.0947305382267168,0.008319810688162826,0.0,0.0,0.0,0.0
23.711785316467285,0.21510305,0.20746744,-5.130755,-0.0056411910248181565,nan,nan,nan,nan,nan,13.711246728897095,14.911246728897094,0.0004317760467529297,-0.18395317249220497,0.3366868909134894,0.0,-5.0,0.7298252405391421,-0.027023988058819566,0.06295544852198447,0.006518837242673389,0.0,0.0,0.0,0.0
23.811036348342896,0.23441844,0.23316833,-5.131605,-0.0033598032658340884,nan,nan,nan,nan,nan,13.81065320968628,15.010653209686279,0.00040602684020996094,-0.23743896692901237,0.3259602705872075,0.0,-5.0,0.7297470411342489,-0.032333708353471054,0.03335642151865407,0.004537660796493715,0.0,0.0,0.0,0.0
23.911049127578735,0.23631088,0.25187916,-5.13267,-0.0015682461087898484,nan,nan,nan,nan,nan,13.910575151443481,15.11057515144348,0.0006530284881591797,-0.282388428229755,0.3121473934825652,0.0,-5.0,0.729638046126854,-0.035746055407332736,-0.0036255036575004226,0.0016932874635015803,0.0,0.0,0.0,0.0
24.010931730270386,0.224141,0.26801386,-5.137697,0.0003578659261019544,nan,nan,nan,nan,nan,14.010412454605103,15.210412454605102,0.00047397613525390625,-0.3168081974356694,0.29543997910433256,0.0,-5.0,0.7292150596222688,-0.03556549760073733,-0.04040850958019291,-0.0013103680688165906,0.0,0.0,0.0,0.0
24.11083960533142,0.20757197,0.28476533,-5.1398416,0.0018358506529381358,nan,nan,nan,nan,nan,14.110288858413696,15.310288858413696,0.0004687309265136719,-0.33946847517353884,0.27597494683963386,0.0,-5.0,0.7289826680358326,-0.033905147320039256,-0.07444205708109956,-0.004101125308978754,0.0,0.0,0.0,0.0
24.211182594299316,0.17701657,0.30337986,-5.1398554,0.002452481825496674,nan,nan,nan,nan,nan,14.210679531097412,15.410679531097411,0.0004031658172607422,-0.3495296008910589,0.2538198037370615,0.0,-5.0,0.7290357862050988,-0.03361986785958837,-0.10582878015448272,-0.006417775564319694,0.0,0.0,0.0,0.0
24.310553550720215,0.13030197,0.3244112,-5.1347938,0.002515746751095895,nan,nan,nan,nan,nan,14.31023359298706,15.51023359298706,0.0003445148468017578,-0.3465454980971955,0.22949006002090527,0.0,-5.0,0.7294122348591838,-0.03539305503066121,-0.13538480168483108,-0.008430241553033948,0.0,0.0,0.0,0.0
24.41051411628723,0.07802853,0.34231544,-5.126351,0.002217193208147797,nan,nan,nan,nan,nan,14.409995317459106,15.609995317459106,0.0004127025604248047,-0.3307177775855132,0.20297945045566138,0.0,-5.0,0.7303824502607237,-0.037014572143362096,-0.16110634453596087,-0.0100799474894186,0.0,0.0,0.0,0.0
24.510578870773315,0.01890535,0.35766995,-5.122306,0.0014786761370889114,nan,nan,nan,nan,nan,14.509974479675293,15.709974479675292,0.0005698204040527344,-0.302552125171114,0.17451892680761277,0.0,-5.0,0.7310234530070696,-0.03567484567564777,-0.1784969910600113,-0.010869226082368325,0.0,0.0,0.0,0.0
24.611040353775024,-0.04259298,0.36767924,-5.1190524,0.0005670869226496872,nan,nan,nan,nan,nan,14.610450744628906,15.810450744628906,0.00033855438232421875,-0.26289620932591895,0.1442764335696081,0.0,-5.0,0.7315628460737956,-0.032066076412500026,-0.18848941733265012,-0.010866847407218648,0.0,0.0,0.0,0.0
24.71057939529419,-0.11093253,0.37362438,-5.115214,-9.003844108395817e-05,nan,nan,nan,nan,nan,14.709975957870483,15.909975957870483,0.0004177093505859375,-0.21386139750229805,0.1129786065301946,0.0,-5.0,0.7320772695819098,-0.026230660258662396,-0.19151540733926517,-0.010286928464303905,0.0,0.0,0.0,0.0
24.81084966659546,-0.1711327,0.3745935,-5.111951,-6.428313576259392e-05,nan,nan,nan,nan,nan,14.810277938842773,16.010277938842773,0.0003619194030761719,-0.15646343655642156,0.08038016049652386,0.0,-5.0,0.7324964681170596,-0.019085925554539175,-0.18686526342326287,-0.009483758986911462,0.0,0.0,0.0,0.0
24.91086196899414,-0.23049293,0.37043476,-5.1096177,0.0007316622446011389,nan,nan,nan,nan,nan,14.910645484924316,16.110645484924316,0.000392913818359375,-0.09315777155221582,0.04700470932161438,0.0,-5.0,0.7327069033052858,-0.009740911257507633,-0.17211653119067236,-0.00857206362130849,0.0,0.0,0.0,0.0
25.010636568069458,-0.2773749,0.36118627,-5.108583,0.002104194774976257,nan,nan,nan,nan,nan,15.010056018829346,16.210056018829345,0.00038814544677734375,-0.02700126848098793,0.013510704247092373,0.0,-5.0,0.7327641009465821,-0.001545233974521558,-0.15517739399978897,-0.008197094902017844,0.0,0.0,0.0,0.0
25.11052632331848,-0.33198568,0.34622726,-5.1110086,0.003718648038014284,nan,nan,nan,nan,nan,15.109897375106812,16.30989737510681,0.0006110668182373047,0.04043908357438877,-0.020253480623652325,0.0,-5.0,0.7325134444932726,0.009596465533544091,-0.12956496383965233,-0.007588360375757186,0.0,0.0,0.0,0.0
25.21057939529419,-0.37687656,0.32450035,-5.1192946,0.005260920823168945,nan,nan,nan,nan,nan,15.209970235824585,16.409970235824584,0.0004296302795410156,0.10652667406724298,-0.05390655386356711,0.0,-5.0,0.7320295184572441,0.01696799985030305,-0.10642701119772223,-0.007281772779872354,0.0,0.0,0.0,0.0
25.31059980392456,-0.40848574,0.29883718,-5.1274023,0.006612950736522308,nan,nan,nan,nan,nan,15.310042381286621,16.51004238128662,0.00042247772216796875,0.16863891550397256,-0.08705534862331755,0.0,-5.0,0.7311635920468914,0.02508183969647578,-0.07719937304089516,-0.007029895451330987,0.0,0.0,0.0,0.0
25.410605907440186,-0.43037993,0.26838815,-5.1327925,0.007842452393086077,nan,nan,nan,nan,nan,15.410181999206543,16.610181999206542,0.0003657341003417969,0.22449370063781268,-0.11941161695210138,0.0,-5.0,0.7304558893899834,0.033682402594285205,-0.04250498541159389,-0.007043150927873059,0.0,0.0,0.0,0.0
25.510775327682495,-0.43924004,0.23286463,-5.1383743,0.008918168438644593,nan,nan,nan,nan,nan,15.510276794433594,16.710276794433593,0.0006678104400634766,0.27194151475897965,-0.15063617007251492,0.0,-5.0,0.7298609491939674,0.03809426688019195,-0.007850448081139171,-0.007320502467570787,0.0,0.0,0.0,0.0
25.610517978668213,-0.4356138,0.19626144,-5.1336493,0.009575494888064107,nan,nan,nan,nan,nan,15.60991358757019,16.80991358757019,0.0004165172576904297,0.309092427049802,-0.18031881936011646,0.0,-5.0,0.7297007158532165,0.0421387718583551,0.02946823949518038,-0.007768449229316766,0.0,0.0,0.0,0.0
25.710562229156494,-0.42252728,0.15527023,-5.133509,0.009902346974084467,nan,nan,nan,nan,nan,15.709973573684692,16.90997357368469,0.0003948211669921875,0.3348932150936396,-0.20844511185913592,0.0,-5.0,0.7296609412176874,0.04445978879926295,0.06493495741181646,-0.008358838376290352,0.0,0.0,0.0,0.0
25.810506582260132,-0.39898917,0.11808639,-5.136489,0.01003149774088547,nan,nan,nan,nan,nan,15.809897899627686,17.009897899627685,0.0004401206970214844,0.34819173149735294,-0.23458881491696223,0.0,-5.0,0.7292384356234268,0.04418616759952463,0.09559724485275642,-0.008995013711737368,0.0,0.0,0.0,0.0
25.910619497299194,-0.35825086,0.07975798,-5.1386485,0.010425141349269331,nan,nan,nan,nan,nan,15.910030126571655,17.110030126571655,0.0009200572967529297,0.34852339818753175,-0.2585929415630944,0.0,-5.0,0.7290277719881698,0.04024079892804215,0.12487075084167087,-0.009837342669962855,0.0,0.0,0.0,0.0
26.0107684135437,-0.31626233,0.04642448,-5.1429076,0.010349761803648926,nan,nan,nan,nan,nan,16.010255098342896,17.210255098342895,0.00052642822265625,0.335817235755754,-0.2801950758889412,0.0,-5.0,0.7287724341286206,0.03614043835277082,0.15089783274863286,-0.010506316892752839,0.0,0.0,0.0,0.0
26.1118803024292,-0.25294846,0.0034635689,-5.1443434,0.010039516884263588,nan,nan,nan,nan,nan,16.11155414581299,17.311554145812988,0.0003895759582519531,0.31020651950896677,-0.2993577686919577,0.0,-5.0,0.7288046160251149,0.032951856501106144,0.1712516250058024,-0.010929263493011083,0.0,0.0,0.0,0.0
26.210795164108276,-0.19880597,-0.02579041,-5.146729,0.00967015430186664,nan,nan,nan,nan,nan,16.21018886566162,17.41018886566162,0.0004353523254394531,0.2738625443986611,-0.31526193465259805,0.0,-5.0,0.7290009249388917,0.029315709935371127,0.18508720745968343,-0.011033467725525306,0.0,0.0,0.0,0.0
26.310917139053345,-0.12810043,-0.05917026,-5.1505775,0.00922373165544993,nan,nan,nan,nan,nan,16.310396432876587,17.510396432876586,0.0005996227264404297,0.22678081697189273,-0.32848641746624274,0.0,-5.0,0.7291021651785586,0.023760102727661003,0.19154125847617506,-0.010744949406823785,0.0,0.0,0.0,0.0
26.41065764427185,-0.072470695,-0.08498152,-5.1524787,0.008711023052783075,nan,nan,nan,nan,nan,16.410068035125732,17.61006803512573,0.0006530284881591797,0.1715305030502994,-0.33858528929192433,0.0,-5.0,0.72936716646978,0.018873091878767935,0.18870508523338272,-0.010249924578870275,0.0,0.0,0.0,0.0
26.5109281539917,-0.01489373,-0.11230748,-5.156416,0.007531290570429747,nan,nan,nan,nan,nan,16.510421991348267,17.710421991348266,0.0006234645843505859,0.10949233895988708,-0.3455802417160351,0.0,-5.0,0.7295356296308001,0.0153924162716894,0.1797565980964431,-0.009280110085672175,0.0,0.0,0.0,0.0
26.61087465286255,0.03975288,-0.13976488,-5.1586466,0.005440960491673741,nan,nan,nan,nan,nan,16.610285758972168,17.810285758972167,0.0005114078521728516,0.04367479074088162,-0.3493154121799423,0.0,-5.0,0.7296864967657181,0.012961689539617804,0.16210126455251936,-0.007630594487671277,0.0,0.0,0.0,0.0
26.71063470840454,0.08313238,-0.16138847,-5.161309,0.0036066701468040023,nan,nan,nan,nan,nan,16.710031509399414,17.910031509399413,0.00046324729919433594,-0.023685979372536962,-0.34979934625425335,0.0,-5.0,0.7297900401534195,0.011242703131726109,0.13731039398961256,-0.005488685426225451,0.0,0.0,0.0,0.0
26.81072235107422,0.12194003,-0.18039685,-5.165394,0.0026835743920167886,nan,nan,nan,nan,nan,16.810127019882202,18.0101270198822,0.0005114078521728516,-0.09039734007377861,-0.3470184787745443,0.0,-5.0,0.7296645919890105,0.007707913056780991,0.10826655356296958,-0.003985208788512792,0.0,0.0,0.0,0.0
26.91053032875061,0.14922912,-0.1971277,-5.168562,0.0023096466668923576,nan,nan,nan,nan,nan,16.91001009941101,18.11001009941101,0.0008285045623779297,-0.15360495577214,-0.3410076001033931,0.0,-5.0,0.7295099573910846,0.0055024357516672414,0.07590009943360604,-0.0030616254116439235,0.0,0.0,0.0,0.0
27.010581254959106,0.17017376,-0.20722657,-5.175664,0.0022731586424441057,nan,nan,nan,nan,nan,17.009949445724487,18.209949445724487,0.0007169246673583984,-0.21113299032493038,-0.33181420451401883,0.0,-5.0,0.7291168587817881,0.0015612137098869438,0.04304073988523733,-0.0024179086996423444,0.0,0.0,0.0,0.0
27.110986948013306,0.18369205,-0.21414372,-5.184715,0.0024949386629859746,nan,nan,nan,nan,nan,17.11044478416443,18.310444784164428,0.0010864734649658203,-0.2610545159853617,-0.3194496890759022,0.0,-5.0,0.7285339667130896,-0.0026371221266769163,0.010117538446072981,-0.0021176099042393435,0.0,0.0,0.0,0.0
27.210784435272217,0.18226817,-0.22093263,-5.1934624,0.0027064587175426157,nan,nan,nan,nan,nan,17.210164785385132,18.41016478538513,0.0007562637329101562,-0.3008852518510139,-0.30420277318101163,0.0,-5.0,0.7279750254593126,-0.004736522124367847,-0.021664380118814792,-0.0020660103835573158,0.0,0.0,0.0,0.0
27.310636281967163,0.16686718,-0.2259095,-5.200009,0.002587643902895803,nan,nan,nan,nan,nan,17.310097694396973,18.510097694396972,0.0005342960357666016,-0.32961605236458197,-0.2860899792516822,0.0,-5.0,0.7275251471204408,-0.003821912716797695,-0.056620219208535945,-0.0017427153515953684,0.0,0.0,0.0,0.0
27.41054606437683,0.14536393,-0.22674519,-5.2062225,0.0023881754649152983,nan,nan,nan,nan,nan,17.40999150276184,18.60999150276184,0.00048089027404785156,-0.34607791581498004,-0.2653182483692039,0.0,-5.0,0.7272354918248193,-0.0032780902142213004,-0.08845742017711403,-0.0013414532960702283,0.0,0.0,0.0,0.0
27.510780572891235,0.112131834,-0.22523408,-5.204385,0.001984880756933799,nan,nan,nan,nan,nan,17.510249614715576,18.710249614715575,0.0006210803985595703,-0.3496615385998664,-0.24198553331125744,0.0,-5.0,0.7274916794567523,-0.002478441215572197,-0.1168691155977681,-0.0008091256155454495,0.0,0.0,0.0,0.0
27.610731601715088,0.06386563,-0.22023934,-5.2024274,0.0015621601083533913,nan,nan,nan,nan,nan,17.61013889312744,18.81013889312744,0.00040841102600097656,-0.34020843574859655,-0.21647986242512327,0.0,-5.0,0.7279395458976934,-0.0016161345539521558,-0.14183596739665813,-0.0002374698656468554,0.0,0.0,0.0,0.0
27.710657596588135,0.012452783,-0.2116938,-5.2004924,0.0011837601463242425,nan,nan,nan,nan,nan,17.710106134414673,18.910106134414672,0.0005497932434082031,-0.31808521476053847,-0.1889352442389416,0.0,-5.0,0.7284560054598979,-0.002075002051928447,-0.16394249759473947,0.00016588385791891549,0.0,0.0,0.0,0.0
27.810645818710327,-0.046825204,-0.19905943,-5.198128,0.0006394289230419858,nan,nan,nan,nan,nan,17.810081005096436,19.010081005096435,0.0004987716674804688,-0.28411494363448947,-0.15962544611538743,0.0,-5.0,0.7290642796424691,-0.004328986391428045,-0.17871899069566022,0.00045559297406688916,0.0,0.0,0.0,0.0
27.910558938980103,-0.10709566,-0.19168763,-5.1975346,0.0009819431219667512,nan,nan,nan,nan,nan,17.90991520881653,19.109915208816528,0.0005507469177246094,-0.23963330771329466,-0.12887026551222544,0.0,-5.0,0.7295843634158264,-0.0024977376437096774,-0.18743978038099424,0.0005640752356422063,0.0,0.0,0.0,0.0
28.01053261756897,-0.1666366,-0.1795769,-5.1955953,0.0011984561034225618,nan,nan,nan,nan,nan,18.00990653038025,19.20990653038025,0.00040459632873535156,-0.18616246632412153,-0.0968647618429354,0.0,-5.0,0.7300950856352023,-0.0007849015207536923,-0.18833609884922609,0.0004474393151036248,0.0,0.0,0.0,0.0
28.11051845550537,-0.23200828,-0.16503131,-5.1981835,0.0009824866358776932,nan,nan,nan,nan,nan,18.10987424850464,19.309874248504638,0.00041866302490234375,-0.12577136313637563,-0.0639628660120473,0.0,-5.0,0.7303752818296225,-0.000970415722370764,-0.18060918106698684,0.00037826067653973553,0.0,0.0,0.0,0.0
28.2104914188385,-0.29379153,-0.14631158,-5.2015486,6.050812106864504e-05,nan,nan,nan,nan,nan,18.2098491191864,19.4098491191864,0.0005626678466796875,-0.06069229991357091,-0.03046174064184171,0.0,-5.0,0.7303934091685915,-0.0012681609778845203,-0.16889725566440653,0.0006896076337750279,0.0,0.0,0.0,0.0
28.310688495635986,-0.34008557,-0.12641214,-5.2027063,-0.001426812253936636,nan,nan,nan,nan,nan,18.310044050216675,19.510044050216674,0.0008904933929443359,0.0067958867696873305,0.003398103544812343,0.0,-5.0,0.7304798017456184,-0.005901678923165672,-0.14850485181303658,0.0014612740000860827,0.0,0.0,0.0,0.0
28.410468101501465,-0.3889584,-0.1038179,-5.204341,-0.0031409737917061334,nan,nan,nan,nan,nan,18.409827947616577,19.609827947616576,0.0004189014434814453,0.07375801843532345,0.03708781961492524,0.0,-5.0,0.7304293989851446,-0.0069687262352271205,-0.12383624609458305,0.0025201686964648777,0.0,0.0,0.0,0.0
28.510642051696777,-0.4207603,-0.085403286,-5.20474,-0.0038303973488481445,nan,nan,nan,nan,nan,18.510000228881836,19.710000228881835,0.0004239082336425781,0.13822524970977423,0.070561457619208,0.0,-5.0,0.7302662814330492,-0.006613058546595782,-0.09110104988364345,0.0032549262404057986,0.0,0.0,0.0,0.0
28.610679149627686,-0.44348392,-0.06555694,-5.2003937,-0.004028923851898023,nan,nan,nan,nan,nan,18.610036611557007,19.810036611557006,0.0004029273986816406,0.19744861821434018,0.10333008444766945,0.0,-5.0,0.7302124082574686,-0.004278227440079371,-0.05937739882540709,0.003476576916092293,0.0,0.0,0.0,0.0
28.710710763931274,-0.44983613,-0.048815195,-5.1964993,-0.004007363008504381,nan,nan,nan,nan,nan,18.710067987442017,19.910067987442016,0.0005071163177490234,0.2493073856667539,0.13513168194601738,0.0,-5.0,0.7303001136883069,-0.002694605427366985,-0.022268170001624427,0.0034154111925827186,0.0,0.0,0.0,0.0
28.810654878616333,-0.43913886,-0.03020696,-5.195587,-0.004150912312595572,nan,nan,nan,nan,nan,18.81001377105713,20.010013771057128,0.0004181861877441406,0.29183924377310516,0.16564529106443165,0.0,-5.0,0.7299971199192217,-0.0004027482082179848,0.017435502686992288,0.0034087685694583173,0.0,0.0,0.0,0.0
28.910551071166992,-0.42526114,-0.013528974,-5.192341,-0.004265942264326532,nan,nan,nan,nan,nan,18.90990972518921,20.10990972518921,0.0004248619079589844,0.3234961269251319,0.19459997765106019,0.0,-5.0,0.7298251657721503,0.0025217894884336555,0.05561456333347953,0.003335805836294491,0.0,0.0,0.0,0.0
29.010502815246582,-0.40137103,0.0022796306,-5.1911764,-0.004350439344103103,nan,nan,nan,nan,nan,19.0098614692688,20.209861469268798,0.0003986358642578125,0.3431320608005787,0.221756116111782,0.0,-5.0,0.7296701371918797,0.004989220548465502,0.08885633801181868,0.0031816159828379187,0.0,0.0,0.0,0.0
29.110682725906372,-0.36214146,0.019198196,-5.1927404,-0.004412027398122022,nan,nan,nan,nan,nan,19.11006188392639,20.31006188392639,0.00037288665771484375,0.3499961118857797,0.24690341085606474,0.0,-5.0,0.7294153710634877,0.006540676179748487,0.11847836357697936,0.0029832057654980548,0.0,0.0,0.0,0.0
29.210634231567383,-0.31453788,0.03602562,-5.194632,-0.00448837705165047,nan,nan,nan,nan,nan,19.21000337600708,20.41000337600708,0.0004165172576904297,0.3438001096980334,0.26968036302864434,0.0,-5.0,0.729103863744787,0.00670220771674917,0.1447557424649535,0.002889081613255427,0.0,0.0,0.0,0.0
29.310648679733276,-0.25214547,0.05799037,-5.1943145,-0.004513041149228724,nan,nan,nan,nan,nan,19.31000804901123,20.51000804901123,0.00046896934509277344,0.3247932127677528,0.28995429811440354,0.0,-5.0,0.7291712697770658,0.0032680962582709266,0.16764538034869494,0.0031108987879924772,0.0,0.0,0.0,0.0
29.41058087348938,-0.19231114,0.08255855,-5.1944504,-0.004295676803326497,nan,nan,nan,nan,nan,19.4099338054657,20.609933805465698,0.0003376007080078125,0.29371251988671054,0.3075080052743415,0.0,-5.0,0.729326206265074,-0.003174245265698516,0.18300972052444545,0.003592741614707947,0.0,0.0,0.0,0.0
29.510499954223633,-0.12505436,0.11112086,-5.1956587,-0.0035505490800044398,nan,nan,nan,nan,nan,19.50985860824585,20.70985860824585,0.0003566741943359375,0.2517048143320778,0.3221947253566456,0.0,-5.0,0.7294788953646676,-0.011253679834846967,0.19018764927095447,0.0040899853478937286,0.0,0.0,0.0,0.0
29.61071014404297,-0.06449253,0.13840443,-5.1997313,-0.002417697634267999,nan,nan,nan,nan,nan,19.61007070541382,20.810070705413818,0.0003726482391357422,0.2001732713008385,0.3339068668171562,0.0,-5.0,0.7296110224754874,-0.018906149544967478,0.18950243290753274,0.004284691836147296,0.0,0.0,0.0,0.0
