time,x,y,z,yaw,platform,trajectory,traj_double,traj_short,traj_spin,traj_time,ref_time,comptime,x_ref,y_ref,yaw_ref,z_ref,throttle_input,p_input,q_input,r_input,cbf_term_pitch_cbf,cbf_term_roll_cbf,cbf_term_thrust_cbf,cbf_term_yaw_cbf
10.094661951065063,-0.020988125,-0.0044881757,-2.9371166,0.001019125995365107,SIM,FIG8_VERTICAL,NormSpd,Not Short,NoSpin,0.0900881290435791,1.290088129043579,0.0003757476806640625,0.0,0.21111271176132398,0.0,-5.331818248768644,0.7845542154475805,0.04763443939883614,0.02663038296019933,-0.0015071370680721761,0.0,0.0,-130.4257091799945,0.0
10.194817543029785,-0.01845461,-0.000363292,-2.942174,0.0009399855744228209,nan,nan,nan,nan,nan,0.19020390510559082,1.3902039051055908,0.0004467964172363281,0.0,0.1534748269279912,0.0,-5.341023899603963,0.7931224188808962,0.03242794019647765,0.025296181455265607,-0.0013348972653455936,0.0,0.0,-104.13386750237294,0.0
10.294833421707153,-0.014734135,0.0012840759,-2.9689252,0.0006508973873109638,nan,nan,nan,nan,nan,0.2901952266693115,1.4901952266693115,0.0006139278411865234,0.0,0.09018667243075713,0.0,-5.347032662185258,0.8016846034684592,0.004497923610125285,0.019285751885436925,-0.0007440167888136923,0.0,0.0,-71.79196061795807,0.0
10.394773721694946,-0.015021393,0.00089875516,-3.009282,0.0008029695372929174,nan,nan,nan,nan,nan,0.3901956081390381,1.590195608139038,0.0003733634948730469,0.0,0.02353265016108947,0.0,-5.349801939346813,0.8093510429017439,-0.021180677553686054,0.011962924310474684,-0.0005387328974252004,0.0,0.0,-38.64766370132308,0.0
10.495282649993896,-0.01338647,-0.0016520286,-3.0764008,0.0012955972087191627,nan,nan,nan,nan,nan,0.4909331798553467,1.6909331798553466,0.0008218288421630859,0.0,-0.04449301777729706,0.0,-5.349289388713094,0.8162231771144057,-0.04074295234649599,0.005275760261369397,-0.0008395945452340411,0.0,0.0,-0.8363438390959415,0.0
10.59448766708374,-0.009556382,0.00024338499,-3.1677718,0.0015661963761679915,nan,nan,nan,nan,nan,0.58980393409729,1.78980393409729,0.00042176246643066406,0.0,-0.10963752805408275,0.0,-5.345568124579428,0.8057760737991265,-0.054684705691458994,0.0004935653494884937,-0.0012738200252084128,0.0,0.0,0.0,0.0
10.694618940353394,-0.0070190877,0.0058239778,-3.271615,0.0015037453563752443,nan,nan,nan,nan,nan,0.6899232864379883,1.8899232864379882,0.00043511390686035156,0.0,-0.17152538432419417,0.0,-5.338586033016887,0.7896145366139239,-0.06675970979816497,-0.0018468548774185974,-0.0013560782488764788,0.0,0.0,0.0,0.0
10.794654846191406,-0.010305682,0.009567139,-3.3893156,0.0015443671769461778,nan,nan,nan,nan,nan,0.7902672290802002,1.9902672290802002,0.00051116943359375,0.0,-0.22712267895456445,0.0,-5.328408842973854,0.7739490403652318,-0.07105774424743937,-0.006018289286209573,-0.0016209534670032664,0.0,0.0,0.0,0.0
10.894529104232788,-0.018942565,0.015491425,-3.535085,0.0012460378852763073,nan,nan,nan,nan,nan,0.8898320198059082,2.0898320198059084,0.0004189014434814453,0.0,-0.273871344209301,0.0,-5.315258865496652,0.7629324695811619,-0.0689741561685591,-0.011835851959250484,-0.001834227037616271,0.0,0.0,8.531034352622202,0.0
10.994631052017212,-0.027245658,0.024760677,-3.6724763,0.0003816292829591419,nan,nan,nan,nan,nan,0.9899241924285889,2.189924192428589,0.00047707557678222656,0.0,-0.3106685027316124,0.0,-5.299098320549486,0.7530496408137585,-0.06448394063848455,-0.017230327507729584,-0.0017100835984104213,0.0,0.0,12.380934726683407,0.0
11.09484052658081,-0.034071136,0.035012767,-3.8261712,-0.00032833128991469063,nan,nan,nan,nan,nan,1.090230941772461,2.290230941772461,0.0004107952117919922,0.0,-0.3359097604953848,0.0,-5.280096503469858,0.7440002465148694,-0.0543081318598306,-0.021064356745073756,-0.0012396465690449148,0.0,0.0,20.840537581818563,0.0
11.194531679153442,-0.03837199,0.04177606,-3.9594393,-0.0003522182670009956,nan,nan,nan,nan,nan,1.1898491382598877,2.389849138259888,0.00040841102600097656,0.0,-0.3485158922980482,0.0,-5.258620466468741,0.7357215757913973,-0.038980027294759044,-0.021801647098972744,-0.0010068071981908127,0.0,0.0,24.76902371810411,0.0
11.294788599014282,-0.043895107,0.04638642,-4.1198425,0.0010078124697084911,nan,nan,nan,nan,nan,1.2902038097381592,2.4902038097381594,0.00039005279541015625,0.0,-0.34818473799898125,0.0,-5.234563276384374,0.7281545429170174,-0.017675878033477536,-0.021155908093757534,-0.0016229385326556895,0.0,0.0,32.618075410098676,0.0
11.394723415374756,-0.051415477,0.03656059,-4.265218,0.003999897937754196,nan,nan,nan,nan,nan,1.3900537490844727,2.590053749084473,0.0005626678466796875,0.0,-0.33488784160372803,0.0,-5.208437685975168,0.7212436252663458,0.01437993809911282,-0.02045368486542438,-0.0034512413041574105,0.0,0.0,37.24345517809735,0.0
11.49460744857788,-0.063344784,0.019927867,-4.4176774,0.006954667157847923,nan,nan,nan,nan,nan,1.489915132522583,2.689915132522583,0.00041484832763671875,0.0,-0.309146782432917,0.0,-5.180368482786037,0.7149367829275945,0.049220918426317074,-0.020544385273447735,-0.0053907527875870125,0.0,0.0,40.1610996023244,0.0
11.594568490982056,-0.07582327,0.0018984183,-4.5532317,0.008584424250325278,nan,nan,nan,nan,nan,1.589871883392334,2.789871883392334,0.0006022453308105469,0.0,-0.27187817089313665,0.0,-5.150590764214373,0.7091853616943995,0.0845245760802274,-0.02223426184085121,-0.006790822127730264,0.0,0.0,43.839597323883865,0.0
11.69456434249878,-0.09067514,-0.019408578,-4.695001,0.008743656894623607,nan,nan,nan,nan,nan,1.6898906230926514,2.8898906230926515,0.0009140968322753906,0.0,-0.22445599837763983,0.0,-5.119388520904441,0.703943981518018,0.11222483038943884,-0.023844922806917267,-0.006675481422154664,0.0,0.0,45.79486176241524,0.0
11.794530153274536,-0.10960687,-0.045638934,-4.824368,0.008406159416489822,nan,nan,nan,nan,nan,1.789830207824707,2.989830207824707,0.0005984306335449219,0.0,-0.16871445572271648,0.0,-5.087097099594082,0.699170412736448,0.13522819934172162,-0.027849530161859207,-0.005644195758167171,0.0,0.0,47.80707242127029,0.0
11.894531011581421,-0.12494647,-0.079807855,-4.9501004,0.009057474082710102,nan,nan,nan,nan,nan,1.8898231983184814,3.0898231983184816,0.0004322528839111328,0.0,-0.10665980718383179,0.0,-5.053975605366634,0.6948254425027318,0.15424778938271574,-0.029807279263612794,-0.00509896539560818,0.0,0.0,48.604877752640476,0.0
11.994635581970215,-0.1356475,-0.11648593,-5.0760107,0.010307560054326753,nan,nan,nan,nan,nan,1.9899368286132812,3.1899368286132814,0.00043582916259765625,0.0,-0.04055051633498134,0.0,-5.020309479454435,0.690872733830597,0.1637570027289094,-0.02681533913097363,-0.005656494467490083,0.0,0.0,48.499913612641365,0.0
12.0947265625,-0.1445125,-0.15029164,-5.1921005,0.011190120840172351,nan,nan,nan,nan,nan,2.090128183364868,3.2901281833648683,0.0006313323974609375,0.0,0.027125535856976447,0.0,-4.986427022142755,0.6872786795834539,0.16035596363231394,-0.01916392355255288,-0.007215925752598262,0.0,0.0,47.093096310751775,0.0
12.194810628890991,-0.1525045,-0.17555754,-5.283251,0.010647726601598333,nan,nan,nan,nan,nan,2.1903836727142334,3.3903836727142336,0.00042366981506347656,0.0,0.09382884677782063,0.0,-4.952650278176684,0.6840122535743952,0.14459974707666398,-0.012610141313935739,-0.007628165497102966,0.0,0.0,44.8766267569566,0.0
12.294453859329224,-0.15542828,-0.20117688,-5.389987,0.011409246474883974,nan,nan,nan,nan,nan,2.289789915084839,3.489789915084839,0.0008788108825683594,0.0,0.15650450543294947,0.0,-4.91959749657032,0.6810448607406626,0.11962851375403317,-0.003716910283144916,-0.009065473564858617,0.0,0.0,41.73479644929668,0.0
12.394920110702515,-0.15012938,-0.21391596,-5.471503,0.013486383812794739,nan,nan,nan,nan,nan,2.390218496322632,3.590218496322632,0.0004265308380126953,0.0,0.21396553991113007,0.0,-4.886959128449221,0.6783501881241185,0.08397334787682972,0.008386588260670473,-0.01186915864455666,0.0,0.0,37.76089746678499,0.0
12.494588136672974,-0.14250472,-0.2185479,-5.5491447,0.015614058564947367,nan,nan,nan,nan,nan,2.4898898601531982,3.6898898601531984,0.0005202293395996094,0.0,0.26304829786465095,0.0,-4.855618585148639,0.675904058144812,0.046345564624160805,0.020120626284715334,-0.014799791559277783,0.0,0.0,33.1403920585018,0.0
12.594604015350342,-0.1361002,-0.21333891,-5.605323,0.016187744061981375,nan,nan,nan,nan,nan,2.5898990631103516,3.7898990631103517,0.0005729198455810547,0.0,0.3025090975464312,0.0,-4.825518160141898,0.6736842854099513,-6.314206934260548e-05,0.029841199441167043,-0.016301185500505203,0.0,0.0,26.713236304952407,0.0
12.694565296173096,-0.1306711,-0.19591041,-5.6561203,0.015515405115323885,nan,nan,nan,nan,nan,2.689923048019409,3.8899230480194094,0.0005145072937011719,0.0,0.3306996920503518,0.0,-4.797043050246867,0.6716705380647757,-0.0451792491193205,0.034282300832818156,-0.01551928709606107,0.0,0.0,19.493688939699652,0.0
12.79465937614441,-0.1230519,-0.16950576,-5.6967363,0.014477880722464975,nan,nan,nan,nan,nan,2.7900049686431885,3.9900049686431887,0.0005528926849365234,0.0,0.34656808498751374,0.0,-4.770449006209787,0.6698442044715536,-0.08942115429549585,0.03593636639546938,-0.013755571102484149,0.0,0.0,9.927476587743781,0.0
12.894554615020752,-0.11138663,-0.13794596,-5.72334,0.012960225067302045,nan,nan,nan,nan,nan,2.889941453933716,4.089941453933716,0.0004475116729736328,0.0,0.349507571210937,0.0,-4.74603558343669,0.6682836706023155,-0.1260536006258084,0.0364029775579708,-0.011567502822695452,0.0,0.0,0.0,0.0
12.994507789611816,-0.09752721,-0.09512319,-5.738169,0.010312459478333237,nan,nan,nan,nan,nan,2.9897801876068115,4.189780187606812,0.0006029605865478516,0.0,0.3394570975004054,0.0,-4.724010686546372,0.673626330115774,-0.15370265967001406,0.03624707635691387,-0.008716820055731827,0.0,0.0,0.0,0.0
13.094411134719849,-0.083582275,-0.047641672,-5.7402034,0.007000628155588072,nan,nan,nan,nan,nan,3.0897011756896973,4.289701175689697,0.0003972053527832031,0.0,0.31677550794952763,0.0,-4.704539410407087,0.6810156876116455,-0.17176211784803153,0.03425018484196365,-0.00532999419887652,0.0,0.0,0.0,0.0
13.194471836090088,-0.070357606,-0.0039837086,-5.733472,0.0015599131498460084,nan,nan,nan,nan,nan,3.1897330284118652,4.389733028411865,0.00040602684020996094,0.0,0.28226518023815605,0.0,-4.687805457958679,0.6877937465970592,-0.1765385234749557,0.0318184317109935,-0.0003917746475119223,0.0,0.0,0.0,0.0
13.294389009475708,-0.057645705,0.044085313,-5.714994,-0.0055588469745269705,nan,nan,nan,nan,nan,3.2897400856018066,4.489740085601807,0.0004572868347167969,0.0,0.23724337854900765,0.0,-4.673991289932953,0.6942995233594685,-0.17559197774141366,0.028218265212293998,0.0054471298608105975,0.0,0.0,0.0,0.0
13.394456148147583,-0.04290034,0.09397771,-5.6819553,-0.012305373276399337,nan,nan,nan,nan,nan,3.389714479446411,4.589714479446411,0.0005626678466796875,0.0,0.18339952939829515,0.0,-4.6632244155333735,0.7009761048303274,-0.1665179150857802,0.023509898867005812,0.011273610723380222,0.0,0.0,0.0,0.0
13.49453330039978,-0.029500607,0.13731454,-5.6488295,-0.01748160044107577,nan,nan,nan,nan,nan,3.4897923469543457,4.689792346954346,0.0008280277252197266,0.0,0.1226601756641631,0.0,-4.655594079444212,0.7069957411604846,-0.15216895439588088,0.01812039532918491,0.015352541415201154,0.0,0.0,0.0,0.0
13.594410181045532,-0.016130866,0.18056446,-5.6091647,-0.022635844291763896,nan,nan,nan,nan,nan,3.5896871089935303,4.7896871089935305,0.0004367828369140625,0.0,0.05746565728342041,0.0,-4.651189472062418,0.7124428310091696,-0.131548492847025,0.012505249132743734,0.019505496930786036,0.0,0.0,0.0,0.0
13.694469213485718,-0.005269777,0.21908218,-5.5599937,-0.025513820305607313,nan,nan,nan,nan,nan,3.689727544784546,4.889727544784546,0.0004382133483886719,0.0,-0.009964057444091562,0.0,-4.650035466998882,0.7176540651817959,-0.1098431217930245,0.006055843148061379,0.02177141665723229,0.0,0.0,0.0,0.0
13.79438829421997,0.0026336634,0.24522737,-5.5177283,-0.026391980222289335,nan,nan,nan,nan,nan,3.789642095565796,4.989642095565796,0.0004956722259521484,0.0,-0.07693912022000933,0.0,-4.652146914786901,0.7223301084225098,-0.08479854763149604,-0.00022309193047178585,0.02224249601032914,0.0,0.0,0.0,0.0
13.89445972442627,0.017885113,0.2675795,-5.4698715,-0.027052465358525506,nan,nan,nan,nan,nan,3.8897297382354736,5.089729738235474,0.0005521774291992188,0.0,-0.14115951515428155,0.0,-4.65751269286472,0.7265130079522016,-0.058195987620297616,-0.003222907882539546,0.022404167113904586,0.0,0.0,0.0,0.0
13.994482517242432,0.032579247,0.2819299,-5.4219036,-0.028133130867371105,nan,nan,nan,nan,nan,3.989741086959839,5.189741086959839,0.00046539306640625,0.0,-0.2000687912942666,0.0,-4.666074052375085,0.7300496188763506,-0.031504979363369906,-0.003016858685798424,0.023323822169351312,0.0,0.0,0.0,0.0
14.09446668624878,0.041207954,0.28477222,-5.3791814,-0.028467115577798636,nan,nan,nan,nan,nan,4.089739084243774,5.289739084243775,0.0004220008850097656,0.0,-0.2515155855317965,0.0,-4.677752132786549,0.7329114233906766,-0.0015978511863431898,-0.0047588945723804925,0.023663442843152315,0.0,0.0,0.0,0.0
14.1944739818573,0.049660068,0.2742572,-5.3245907,-0.028601293374485165,nan,nan,nan,nan,nan,4.189728736877441,5.389728736877442,0.00045108795166015625,0.0,-0.29358827280847505,0.0,-4.6924374868146055,0.7359956158645881,0.03036399413747732,-0.005972884760335837,0.023818219420955248,0.0,0.0,0.0,0.0
14.294437170028687,0.05218431,0.255274,-5.282646,-0.02767517714831122,nan,nan,nan,nan,nan,4.289691209793091,5.489691209793091,0.0005400180816650391,0.0,-0.3247173291881689,0.0,-4.709988727259177,0.7384384658191417,0.0595498553819888,-0.008184364216071525,0.02323828822768731,0.0,0.0,0.0,0.0
14.394378185272217,0.04959489,0.22580262,-5.233632,-0.02558869772308699,nan,nan,nan,nan,nan,4.389634847640991,5.589634847640991,0.0003750324249267578,0.0,-0.34375415380180674,0.0,-4.730241634276065,0.7406066966844926,0.08546291297549212,-0.011745198840727085,0.02187259535451928,0.0,0.0,0.0,0.0
14.49434757232666,0.04616032,0.19202715,-5.190648,-0.022879583426662443,nan,nan,nan,nan,nan,4.489599943161011,5.689599943161011,0.0003540515899658203,0.0,-0.3499971156660177,0.0,-4.753015510057783,0.7427615481333079,0.10829141425319971,-0.015472254178338052,0.02015806808157636,0.0,0.0,0.0,0.0
14.594358682632446,0.044329435,0.14948972,-5.1488724,-0.01764090920129183,nan,nan,nan,nan,nan,4.589614152908325,5.789614152908325,0.0003514289855957031,0.0,-0.34320183032784196,0.0,-4.778106655361564,0.7443973731993972,0.12594534814659827,-0.016493983374625293,0.016782501541737885,0.0,0.0,0.0,0.0
14.694353580474854,0.048212763,0.10544317,-5.11196,-0.009750387359385874,nan,nan,nan,nan,nan,4.689609050750732,5.889609050750733,0.00036144256591796875,0.0,-0.3236202854578135,0.0,-4.805264718359211,0.7458548132415578,0.13923039436392362,-0.012380930376351258,0.010772341326495405,0.0,0.0,0.0,0.0
14.794344186782837,0.04849803,0.055877887,-5.075837,-0.0021944067272897383,nan,nan,nan,nan,nan,4.789600849151611,5.9896008491516115,0.0003452301025390625,0.0,-0.29198311340006716,0.0,-4.8342398632663865,0.7471222124197572,0.14685984965632928,-0.00843659135018657,0.004458157792692554,0.0,0.0,0.0,0.0
14.894318342208862,0.044128995,0.011695889,-5.0513253,0.002682684737323732,nan,nan,nan,nan,nan,4.889568090438843,6.089568090438843,0.0003514289855957031,0.0,-0.24948015771036874,0.0,-4.864754749265421,0.7479773340837279,0.14856600880363743,-0.007443288647737851,-0.0006941271800547768,0.0,0.0,0.0,0.0
14.994525671005249,0.03424242,-0.04361061,-5.0272856,0.00680996811289316,nan,nan,nan,nan,nan,4.9897780418396,6.1897780418396,0.0003490447998046875,0.0,-0.19755215810888907,0.0,-4.896610004840133,0.7484622865093844,0.146673599654881,-0.009768023078071057,-0.003887386584904658,0.0,0.0,0.0,0.0
15.094529628753662,0.025342051,-0.0839732,-5.012402,0.008688265198404837,nan,nan,nan,nan,nan,5.089789628982544,6.289789628982544,0.00045299530029296875,0.0,-0.13835587248888032,0.0,-4.929368907239788,0.7485877085535232,0.13945869077335132,-0.013056878764567311,-0.00569220501095128,0.0,0.0,0.0,0.0
15.194479703903198,0.02090322,-0.1209895,-4.9975333,0.009699875570847998,nan,nan,nan,nan,nan,5.1897358894348145,6.389735889434815,0.00035762786865234375,0.0,-0.07404649434777374,0.0,-4.9627654495126245,0.748656574230886,0.12569426053814547,-0.013542016935566493,-0.006685476156110128,0.0,0.0,0.0,0.0
15.294459581375122,0.014447108,-0.15938546,-4.9838815,0.01013328856943169,nan,nan,nan,nan,nan,5.289717674255371,6.489717674255371,0.0004105567932128906,0.0,-0.006957084956139083,0.0,-4.996521285691162,0.7485990397138605,0.10860869971083494,-0.013362337425473079,-0.007097959972058547,0.0,0.0,0.0,0.0
15.39442253112793,0.0061869733,-0.1920301,-4.9771023,0.00988944250754091,nan,nan,nan,nan,nan,5.389679193496704,6.589679193496704,0.00034999847412109375,0.0,0.06037794244204302,0.0,-5.030302759257957,0.7482744519621214,0.08905194851594811,-0.013407560339338242,-0.00710286451041774,0.0,0.0,0.0,0.0
15.494449377059937,-0.0034332164,-0.21383765,-4.9769063,0.009237041698504676,nan,nan,nan,nan,nan,5.489704370498657,6.689704370498657,0.0005230903625488281,0.0,0.12550523903641392,0.0,-5.063822697717882,0.747486549606165,0.06626427247764073,-0.013552549817078723,-0.006640338645442581,0.0,0.0,0.0,0.0
15.594403982162476,-0.01485176,-0.22588688,-4.9816356,0.00820876311075576,nan,nan,nan,nan,nan,5.589672565460205,6.789672565460205,0.0003452301025390625,0.0,0.1859212284155477,0.0,-5.09672791350743,0.7463053570167433,0.039455276699927815,-0.013869386826279164,-0.005918503616809842,0.0,0.0,0.0,0.0
15.694458723068237,-0.0212624,-0.23631218,-4.9916973,0.0076553509618203786,nan,nan,nan,nan,nan,5.689722537994385,6.889722537994385,0.00035071372985839844,0.0,0.23945459249332202,0.0,-5.128756308424991,0.7449376448046374,0.01428822601976097,-0.011931518943083426,-0.00566880070384469,0.0,0.0,0.0,0.0
15.794391393661499,-0.036298815,-0.22798268,-5.0075808,0.00558130029418253,nan,nan,nan,nan,nan,5.789647340774536,6.989647340774536,0.0003528594970703125,0.0,0.28400755736792344,0.0,-5.159543648236917,0.743242088552116,-0.014207802321065248,-0.01089607390216514,-0.004565075273451679,0.0,0.0,0.0,0.0
15.894376754760742,-0.049156293,-0.2095483,-5.0275636,0.0021668460530839193,nan,nan,nan,nan,nan,5.889627456665039,7.089627456665039,0.00033473968505859375,0.0,0.318009965765198,0.0,-5.188859365574148,0.7414268629983455,-0.04447515994633118,-0.01107949363981022,-0.00223324560516398,0.0,0.0,0.0,0.0
15.994621515274048,-0.057988442,-0.18455966,-5.050201,-0.000968802467844844,nan,nan,nan,nan,nan,5.989877462387085,7.189877462387085,0.00034546852111816406,0.0,0.3402110350011136,0.0,-5.216484210466257,0.7396319908297712,-0.07202824764570458,-0.008137731315209671,0.0002996864898081491,0.0,0.0,0.0,0.0
16.094529151916504,-0.0672462,-0.14848678,-5.0802116,-0.003890498179947976,nan,nan,nan,nan,nan,6.089795112609863,7.2897951126098635,0.00035953521728515625,0.0,0.34966286795540397,0.0,-5.241996465999559,0.7376708374157704,-0.09682919490055401,-0.005206501642400957,0.00258343292834979,0.0,0.0,0.0,0.0
16.194481134414673,-0.0741515,-0.10299171,-5.11473,-0.005568463409355642,nan,nan,nan,nan,nan,6.189770460128784,7.389770460128784,0.0003509521484375,0.0,0.34610192437727705,0.0,-5.26526571756368,0.7357248181786689,-0.11931873921055187,-0.002339087824840505,0.004227287999346703,0.0,0.0,0.0,0.0
16.294384002685547,-0.07526659,-0.061925583,-5.144578,-0.006294984096086573,nan,nan,nan,nan,nan,6.289637804031372,7.489637804031372,0.0003478527069091797,0.0,0.32967619599375486,0.0,-5.28603841873134,0.7338249272610569,-0.13723305260997548,0.001325796076607239,0.005231149236378071,0.0,0.0,0.0,0.0
16.39443039894104,-0.07107963,-0.011850865,-5.1773624,-0.007836386680258519,nan,nan,nan,nan,nan,6.389685153961182,7.589685153961182,0.00034880638122558594,0.0,0.3009371098178076,0.0,-5.304177662153797,0.7322913428318192,-0.14937089030612055,0.006588602801514422,0.006369046839262076,0.0,0.0,0.0,0.0
16.494428157806396,-0.062825106,0.045603663,-5.214262,-0.011771290555303153,nan,nan,nan,nan,nan,6.489683151245117,7.689683151245117,0.00032591819763183594,0.0,0.26099684606735346,0.0,-5.31946737240681,0.7307063987086071,-0.15747312170205915,0.014937751389458135,0.01015348854053449,0.0,0.0,0.0,0.0
16.59444522857666,-0.056215603,0.09665741,-5.2515326,-0.015878795293426357,nan,nan,nan,nan,nan,6.589741468429565,7.789741468429566,0.00032401084899902344,0.0,0.21129975723791503,0.0,-5.33178092031714,0.7291010719684667,-0.15984107225435382,0.020628809126884855,0.014462119702739593,0.0,0.0,0.0,0.0
16.694415807724,-0.04280716,0.15020487,-5.2815,-0.02019998561726367,nan,nan,nan,nan,nan,6.68969988822937,7.88969988822937,0.00034046173095703125,0.0,0.15378126042838033,0.0,-5.340985488232278,0.7279154961601793,-0.1531899666707941,0.025460067654904803,0.01899566355914976,0.0,0.0,0.0,0.0
16.794431447982788,-0.025544064,0.19312371,-5.3102293,-0.023798734061465363,nan,nan,nan,nan,nan,6.789690732955933,7.989690732955933,0.0003521442413330078,0.0,0.09051646804062136,0.0,-5.347010442412654,0.7269591758276526,-0.14167602883353395,0.029584688362377536,0.022877167298949737,0.0,0.0,0.0,0.0
16.894423961639404,-0.0071602026,0.23269865,-5.339552,-0.02665352445003474,nan,nan,nan,nan,nan,6.889684677124023,8.089684677124023,0.0003440380096435547,0.0,0.023877578129128302,0.0,-5.349796082143005,0.7258467806910816,-0.12341333928821244,0.0319756589026142,0.026006269350427234,0.0,0.0,0.0,0.0
16.994407653808594,0.0073681013,0.26307812,-5.3659363,-0.027866483255311107,nan,nan,nan,nan,nan,6.989665985107422,8.189665985107421,0.0003457069396972656,0.0,-0.043642393365330746,0.0,-5.3493164324297195,0.7247618691264074,-0.09901022483667539,0.03057570426303535,0.027340194950452465,0.0,0.0,0.0,0.0
17.0944926738739,0.019092225,0.29012024,-5.396714,-0.02784254733078788,nan,nan,nan,nan,nan,7.0897886753082275,8.289788675308227,0.00034499168395996094,0.0,-0.10962772277948363,0.0,-5.345568943478263,0.7234463168915615,-0.07502276839750814,0.025529055684538005,0.027019106198465596,0.0,0.0,0.0,0.0
17.1944797039032,0.020890998,0.3122125,-5.422136,-0.025769267166500166,nan,nan,nan,nan,nan,7.189731121063232,8.389731121063232,0.00034999847412109375,0.0,-0.1714120287343376,0.0,-5.338602495107114,0.7222069635995045,-0.05010760158269913,0.016224088427126436,0.02446650285350546,0.0,0.0,0.0,0.0
17.294386625289917,0.01687668,0.3259663,-5.4448147,-0.023559477867117477,nan,nan,nan,nan,nan,7.289641857147217,8.489641857147216,0.0003421306610107422,0.0,-0.2268005508769943,0.0,-5.328481945474972,0.7212070440174809,-0.02521802556960456,0.004316293682123383,0.021136336576202164,0.0,0.0,0.0,0.0
17.39441227912903,0.01034072,0.32536158,-5.463937,-0.02139157509213479,nan,nan,nan,nan,nan,7.389669418334961,8.58966941833496,0.0003573894500732422,0.0,-0.2738028224753415,0.0,-5.315282756672806,0.7202201117698432,0.004766566850594017,-0.008161975021104478,0.017908003277628554,0.0,0.0,0.0,0.0
17.494391918182373,-0.0010492366,0.3100052,-5.4871526,-0.017888137581481292,nan,nan,nan,nan,nan,7.489656686782837,8.689656686782836,0.0007812976837158203,0.0,-0.31058509470271045,0.0,-5.299145313028199,0.7190119197759091,0.03742573467354413,-0.018543024008261928,0.014792675771296025,0.0,0.0,0.0,0.0
17.59457516670227,-0.013047464,0.29154176,-5.500193,-0.01489763641416085,nan,nan,nan,nan,nan,7.589872360229492,8.789872360229491,0.0003535747528076172,0.0,-0.33584152801786504,0.0,-5.280169232359038,0.7182072380869365,0.06986843687521084,-0.02757708133572055,0.011856508074694244,0.0,0.0,0.0,0.0
17.694610118865967,-0.027312692,0.25475836,-5.515582,-0.01178455493998641,nan,nan,nan,nan,nan,7.68989634513855,8.889896345138549,0.0003502368927001953,0.0,-0.3485188293259984,0.0,-5.25860970478046,0.7175101705851387,0.0975617616948776,-0.03312611990761434,0.009851461162983528,0.0,0.0,0.0,0.0
17.794591426849365,-0.03676787,0.2193248,-5.5219636,-0.010082755182353645,nan,nan,nan,nan,nan,7.78984808921814,8.989848089218139,0.00035381317138671875,0.0,-0.3482091384143871,0.0,-5.234652585492958,0.7171561571566227,0.12431134105298543,-0.03501978035113167,0.008820682335959585,0.0,0.0,0.0,0.0
17.89442491531372,-0.046620674,0.17516083,-5.5256763,-0.008310400387698869,nan,nan,nan,nan,nan,7.889681816101074,9.089681816101074,0.00034880638122558594,0.0,-0.3349609083656244,0.0,-5.208538758822858,0.7170783124137632,0.14448762292720496,-0.03374915349035611,0.00811838064637464,0.0,0.0,0.0,0.0
17.994771718978882,-0.05759354,0.1200707,-5.5287023,-0.00626615878022661,nan,nan,nan,nan,nan,7.9900431632995605,9.19004316329956,0.0003509521484375,0.0,-0.3091061552853971,0.0,-5.180331360118221,0.7171450701790718,0.1601022448906635,-0.030654140429319517,0.007165457590619038,0.0,0.0,0.0,0.0
18.094476461410522,-0.069824055,0.06075054,-5.534575,-0.004948262415923551,nan,nan,nan,nan,nan,8.089733600616455,9.289733600616454,0.0005288124084472656,0.0,-0.27193708670087446,0.0,-5.150632995549848,0.7169654884978751,0.1727219237981835,-0.027733979601381117,0.006469049311197262,0.0,0.0,0.0,0.0
18.194502592086792,-0.08308319,-0.007986324,-5.5337925,-0.0031206699197086933,nan,nan,nan,nan,nan,8.189759492874146,9.389759492874145,0.00035119056701660156,0.0,-0.22452407212248787,0.0,-5.119430223779816,0.7170627642624263,0.18066131795210538,-0.024419522081316036,0.005430837262399279,0.0,0.0,0.0,0.0
18.29445743560791,-0.089170754,-0.07050482,-5.533062,0.00013573609970297246,nan,nan,nan,nan,nan,8.289713382720947,9.489713382720947,0.00034737586975097656,0.0,-0.16878371077446042,0.0,-5.0871353805731525,0.7173989726723096,0.18073401153706717,-0.018648446939124763,0.0030331687940290362,0.0,0.0,0.0,0.0
18.394570350646973,-0.08983334,-0.13224307,-5.5287795,0.005149653378879489,nan,nan,nan,nan,nan,8.389830827713013,9.589830827713012,0.00035381317138671875,0.0,-0.10665489028894405,0.0,-5.0539730550262,0.7176754321827262,0.17112787198307752,-0.008840783718626514,-0.0019092702942022609,0.0,0.0,0.0,0.0
18.494797945022583,-0.08736938,-0.18110584,-5.5192237,0.009646139072188573,nan,nan,nan,nan,nan,8.490060091018677,9.690060091018676,0.00033164024353027344,0.0,-0.04046767126541086,0.0,-5.02026784678119,0.7181907940806721,0.15174593230724337,0.0014221399097023358,-0.007357073827049485,0.0,0.0,0.0,0.0
18.59452486038208,-0.07857659,-0.22834235,-5.5059276,0.013961444542655518,nan,nan,nan,nan,nan,8.589785099029541,9.78978509902954,0.0003643035888671875,0.0,0.026894079890640795,0.0,-4.986543009705403,0.7187701739569281,0.12635595011007666,0.011527702606118155,-0.012433058392503344,0.0,0.0,0.0,0.0
18.6947181224823,-0.0773597,-0.26263267,-5.493212,0.016916968110702486,nan,nan,nan,nan,nan,8.689999103546143,9.889999103546142,0.0003809928894042969,0.0,0.09357812692306164,0.0,-4.952779194817808,0.7192065832476668,0.09742139545689199,0.01694911873411252,-0.01590006592836438,0.0,0.0,0.0,0.0
18.794479846954346,-0.07637752,-0.2901756,-5.4794035,0.01944118648090007,nan,nan,nan,nan,nan,8.789764404296875,9.989764404296874,0.0003592967987060547,0.0,0.15648906523658665,0.0,-4.919605896718954,0.7195980125009259,0.06316264033574205,0.017682667966427156,-0.017998750442729423,0.0,0.0,0.0,0.0
18.894535779953003,-0.07504269,-0.30540708,-5.4657016,0.021286877527486543,nan,nan,nan,nan,nan,8.88982892036438,10.08982892036438,0.00035953521728515625,0.0,0.21375686718643222,0.0,-4.887083876261991,0.7198381310317307,0.03302010245995045,0.016651967323180184,-0.019528748189793565,0.0,0.0,0.0,0.0
18.994762897491455,-0.07261737,-0.31242415,-5.4451876,0.022289259368373192,nan,nan,nan,nan,nan,8.99002456665039,10.19002456665039,0.00035381317138671875,0.0,0.2631084162074302,0.0,-4.855577070200436,0.7202611867558653,0.002202197715770452,0.015299683689007826,-0.0202870554025697,0.0,0.0,0.0,0.0
19.094617128372192,-0.068244934,-0.30165493,-5.420453,0.022201454149590828,nan,nan,nan,nan,nan,9.08991289138794,10.289912891387939,0.0003566741943359375,0.0,0.3025138035593693,0.0,-4.825514104503856,0.7210865988068832,-0.03634221785594556,0.014524447517299397,-0.020056069889257518,0.0,0.0,0.0,0.0
19.19470191001892,-0.06168231,-0.2815785,-5.389077,0.021744809365650035,nan,nan,nan,nan,nan,9.189958095550537,10.389958095550536,0.00037097930908203125,0.0,0.33070745758534376,0.0,-4.797033390035755,0.7221320466463639,-0.07125537340709544,0.014372546184779497,-0.01933271802912091,0.0,0.0,0.0,0.0
19.294578790664673,-0.05533059,-0.2535038,-5.3589754,0.020997667082930244,nan,nan,nan,nan,nan,9.289829969406128,10.489829969406127,0.00038933753967285156,0.0,0.3465515233552872,0.0,-4.770493703584562,0.723414401549349,-0.10271178959503796,0.014225470803420284,-0.018405713577619314,0.0,0.0,0.0,0.0
19.394715785980225,-0.05086461,-0.21407776,-5.327014,0.019421390316935693,nan,nan,nan,nan,nan,9.389969825744629,10.589969825744628,0.0003509521484375,0.0,0.34950655267646535,0.0,-4.746028978493993,0.7246102228727908,-0.1284067481462286,0.013866089510113927,-0.01696181247351325,0.0,0.0,0.0,0.0
19.494481086730957,-0.050951388,-0.17182791,-5.298493,0.017572327423997627,nan,nan,nan,nan,nan,9.489738941192627,10.689738941192626,0.0003528594970703125,0.0,0.3394638949731634,0.0,-4.724019268664484,0.7258080507706934,-0.14841495956432668,0.010440184907184211,-0.0152092871567263,0.0,0.0,0.0,0.0
19.594483375549316,-0.05716868,-0.11413158,-5.267783,0.016042177691808324,nan,nan,nan,nan,nan,9.589766263961792,10.789766263961791,0.0003685951232910156,0.0,0.31675677628401394,0.0,-4.704527606172729,0.7270306035614961,-0.16468539005338043,0.004733874776973692,-0.013804703017030363,0.0,0.0,0.0,0.0
19.694424629211426,-0.058736555,-0.06306515,-5.242585,0.014480219791738455,nan,nan,nan,nan,nan,9.689682245254517,10.889682245254516,0.00036215782165527344,0.0,0.28228549645073453,0.0,-4.687813225387688,0.7283578247453316,-0.17437745155738113,-0.0001301279700613771,-0.012645679680477213,0.0,0.0,0.0,0.0
19.794328689575195,-0.059769858,0.0032433555,-5.2103615,0.012877268385413001,nan,nan,nan,nan,nan,9.789585828781128,10.989585828781127,0.00033855438232421875,0.0,0.2373201078531627,0.0,-4.674010283070424,0.7296649517900398,-0.17668293387776599,-0.0021855917883243405,-0.011510479749737804,0.0,0.0,0.0,0.0
19.894540071487427,-0.061940018,0.054901395,-5.1843767,0.011917938010427112,nan,nan,nan,nan,nan,9.889801740646362,11.089801740646362,0.00035762786865234375,0.0,0.18334923673334008,0.0,-4.6632163780770295,0.7310050695328967,-0.17149605649221614,-0.003480822054537837,-0.010807883585258745,0.0,0.0,0.0,0.0
19.994481325149536,-0.06815353,0.11714324,-5.1506276,0.008515504602456026,nan,nan,nan,nan,nan,9.989738702774048,11.189738702774047,0.0003573894500732422,0.0,0.12269417128362757,0.0,-4.655597311823868,0.7322881895720217,-0.16202904862711098,-0.005018658419639351,-0.009009468133572956,0.0,0.0,0.0,0.0
20.094526290893555,-0.07109314,0.1625072,-5.1308603,0.006047370389761806,nan,nan,nan,nan,nan,10.089836597442627,11.289836597442626,0.00034689903259277344,0.0,0.05736587613053382,0.0,-4.651185309591689,0.7332822463190409,-0.14270603039688914,-0.006007906625754313,-0.006604847298564422,0.0,0.0,0.0,0.0
20.196144104003906,-0.0713598,0.20881091,-5.114083,0.0035578672170347714,nan,nan,nan,nan,nan,10.191696405410767,11.391696405410766,0.0007643699645996094,0.0,-0.01129567304203933,0.0,-4.650045583493657,0.7339221020072043,-0.12387694869326317,-0.005501375405259896,-0.004409160780949272,0.0,0.0,0.0,0.0
20.294630765914917,-0.07013448,0.25129214,-5.0976467,0.0014717994736014386,nan,nan,nan,nan,nan,10.28989052772522,11.489890527725219,0.00035381317138671875,0.0,-0.07710310121641788,0.0,-4.6521562201239774,0.7343520221518742,-0.09921436979652565,-0.003478290583631054,-0.0022258647085921803,0.0,0.0,0.0,0.0
20.394482374191284,-0.068725176,0.28096673,-5.0805464,-7.368125308364337e-05,nan,nan,nan,nan,nan,10.389739751815796,11.589739751815795,0.0003476142883300781,0.0,-0.14116571531100852,0.0,-4.657513391048256,0.7347991185476404,-0.07107860337418463,-0.0016008202901436196,-0.0005200079508195039,0.0,0.0,0.0,0.0
20.4946608543396,-0.06804972,0.3011666,-5.053748,-0.0013756585732569923,nan,nan,nan,nan,nan,10.489913702011108,11.689913702011108,0.00036072731018066406,0.0,-0.20016461637586702,0.0,-4.666091551961299,0.7358380829453147,-0.039097286725255205,-0.0004888918736581216,0.000783285604390927,0.0,0.0,0.0,0.0
20.59454321861267,-0.06276931,0.3059109,-5.025684,-0.0026423128617598657,nan,nan,nan,nan,nan,10.589801549911499,11.789801549911498,0.00034356117248535156,0.0,-0.25154497677722226,0.0,-4.677760380845005,0.7369820906870715,-0.0043996890021632444,0.0014728929087831069,0.0019895622317196407,0.0,0.0,0.0,0.0
20.69453191757202,-0.05910188,0.2980763,-5.003058,-0.004141063456072097,nan,nan,nan,nan,nan,10.68979024887085,11.889790248870849,0.0003712177276611328,0.0,-0.29361092995830246,0.0,-4.692447420111955,0.7380082638231094,0.030829186607392256,0.0036156031777750145,0.0033618579739984416,0.0,0.0,0.0,0.0
20.795100212097168,-0.05502891,0.28079233,-4.9793396,-0.005390690393082195,nan,nan,nan,nan,nan,10.790568351745605,11.990568351745605,0.00035500526428222656,0.0,-0.3249383443831997,0.0,-4.710154967974777,0.7389347336099221,0.06367266902104732,0.004900540869392912,0.0045512500671813635,0.0,0.0,0.0,0.0
20.89469265937805,-0.049530238,0.2543165,-4.9521513,-0.005824449524128313,nan,nan,nan,nan,nan,10.889948844909668,12.089948844909667,0.0003428459167480469,0.0,-0.34379405003275176,0.0,-4.730309333420087,0.7400763841595495,0.09273783949581571,0.006315928271827136,0.005063167599578832,0.0,0.0,0.0,0.0
20.99469757080078,-0.043979608,0.22590752,-4.930376,-0.006194835408852864,nan,nan,nan,nan,nan,10.989980697631836,12.189980697631835,0.0003459453582763672,0.0,-0.34999597488868694,0.0,-4.753106800211182,0.7411032990961204,0.11367370313225833,0.007346112803531618,0.0052509762993223665,0.0,0.0,0.0,0.0
21.094506978988647,-0.030912546,0.178158,-4.9125943,-0.006554572314003731,nan,nan,nan,nan,nan,11.089775085449219,12.289775085449218,0.0003516674041748047,0.0,-0.3431804554394627,0.0,-4.778148764992741,0.7418351839243585,0.13449293197974244,0.009580479812788876,0.00539474497189438,0.0,0.0,0.0,0.0
21.194579601287842,-0.02352692,0.13278475,-4.9015007,-0.006618680381949918,nan,nan,nan,nan,nan,11.18983507156372,12.38983507156372,0.0003781318664550781,0.0,-0.32356200568611815,0.0,-4.805328262549453,0.7424563993261961,0.1507968402013845,0.01103856381981295,0.005234363110996517,0.0,0.0,0.0,0.0
21.294740438461304,-0.016447559,0.076274715,-4.8921957,-0.006459615441097723,nan,nan,nan,nan,nan,11.290040254592896,12.490040254592895,0.00033855438232421875,0.0,-0.29181906201852786,0.0,-4.834370810766064,0.7428351028438623,0.1610793830501585,0.009946425851657439,0.005042339169575793,0.0,0.0,0.0,0.0
21.394700288772583,-0.00885756,0.023332305,-4.8872957,-0.005596645635323008,nan,nan,nan,nan,nan,11.38998556137085,12.589985561370849,0.0003485679626464844,0.0,-0.2492819529478538,0.0,-4.864885030386737,0.7431330467308376,0.16458216475496926,0.009602710232913954,0.004280185864753777,0.0,0.0,0.0,0.0
21.494909048080444,-0.004175552,-0.034068994,-4.888054,-0.004918417036997284,nan,nan,nan,nan,nan,11.490273237228394,12.690273237228393,0.00034689903259277344,0.0,-0.1972754712430281,0.0,-4.89677007726986,0.7431269802085138,0.16163061029376427,0.007681718726718722,0.003683700672470801,0.0,0.0,0.0,0.0
21.594733476638794,-0.0010737482,-0.08599216,-4.8904305,-0.004211551373264088,nan,nan,nan,nan,nan,11.589993715286255,12.789993715286254,0.00034546852111816406,0.0,-0.13822901428893797,0.0,-4.929436535609171,0.7429617241537118,0.15225799815835264,0.004675252086259681,0.0033018959555448655,0.0,0.0,0.0,0.0
21.694711446762085,0.00053241086,-0.13606296,-4.8963623,-0.0030094385677580833,nan,nan,nan,nan,nan,11.689968585968018,12.889968585968017,0.0003409385681152344,0.0,-0.07389259660597676,0.0,-4.962843730822233,0.7427833180596525,0.13853995174077677,0.0017426522760353865,0.002832221554895231,0.0,0.0,0.0,0.0
21.794684886932373,0.0010183975,-0.1751966,-4.905688,-0.001840894253985391,nan,nan,nan,nan,nan,11.789957284927368,12.989957284927367,0.0003445148468017578,0.0,-0.00679498351380068,0.0,-4.9966023481469914,0.7423147099419668,0.11753458113019533,-0.0007956263928264728,0.0018982428880749485,0.0,0.0,0.0,0.0
21.89460039138794,0.00024684443,-0.20995459,-4.9199104,-0.0014911262214848224,nan,nan,nan,nan,nan,11.889885187149048,13.089885187149047,0.00036787986755371094,0.0,0.060515233739854554,0.0,-5.0303721898344325,0.7416824831607999,0.09388844532588504,-0.003378922374714501,0.0017463697742984888,0.0,0.0,0.0,0.0
21.994823694229126,-0.0016845415,-0.23466784,-4.9391794,-0.0009503837650293445,nan,nan,nan,nan,nan,11.9901864528656,13.1901864528656,0.0003554821014404297,0.0,0.12580969234704675,0.0,-5.063983056859111,0.7406858254193714,0.0678848788298068,-0.005913986953180571,0.0016263777556549054,0.0,0.0,0.0,0.0
22.094736099243164,-0.010080475,-0.2472121,-4.960211,-0.0006241283511570772,nan,nan,nan,nan,nan,12.090000629425049,13.290000629425048,0.000354766845703125,0.0,0.1861092662873308,0.0,-5.096834578139591,0.7396484099936514,0.03946778803604852,-0.00923558448227405,0.0015426801375620937,0.0,0.0,0.0,0.0
22.194764852523804,-0.017590158,-0.24886757,-4.98083,-0.0005278762345071741,nan,nan,nan,nan,nan,12.190058469772339,13.390058469772338,0.00033593177795410156,0.0,0.23962032617754986,0.0,-5.12886198589277,0.7385171138228029,0.008463893982077355,-0.01292147596300745,0.001636629968732312,0.0,0.0,0.0,0.0
22.294965982437134,-0.026528634,-0.24022993,-5.009505,-0.0006151027451311922,nan,nan,nan,nan,nan,12.29029655456543,13.490296554565429,0.0003571510314941406,0.0,0.28426406474756505,0.0,-5.1597391149679535,0.7373014191194331,-0.02095798812533829,-0.014888740252097315,0.0015791358729101786,0.0,0.0,0.0,0.0
22.394696950912476,-0.03304178,-0.2259745,-5.0322795,-0.0006171188683298592,nan,nan,nan,nan,nan,12.389967679977417,13.589967679977416,0.0003795623779296875,0.0,0.3181060492056573,0.0,-5.188956265858628,0.735940704402081,-0.051623108641869045,-0.01501267959471637,0.0013437502132500323,0.0,0.0,0.0,0.0
22.494673490524292,-0.04120848,-0.19977352,-5.064166,-0.00018749965929282242,nan,nan,nan,nan,nan,12.489950895309448,13.689950895309448,0.0003561973571777344,0.0,0.34022270092240525,0.0,-5.216503731616707,0.7345007940680548,-0.07850007001754837,-0.01479641201556248,0.000768246564798371,0.0,0.0,0.0,0.0
22.59519624710083,-0.045864582,-0.16095498,-5.0965557,0.0001066039488400311,nan,nan,nan,nan,nan,12.590697050094604,13.790697050094604,0.00034236907958984375,0.0,0.3496891167853249,0.0,-5.24221682977707,0.7331858999605724,-0.10390665201787375,-0.012847897293039649,8.265843661695375e-05,0.0,0.0,0.0,0.0
22.694588661193848,-0.050385512,-0.11726475,-5.126463,0.00035658122219590915,nan,nan,nan,nan,nan,12.689844131469727,13.889844131469726,0.0003612041473388672,0.0,0.3460945016745128,0.0,-5.265281977096268,0.732014861001264,-0.12708604368753001,-0.008779730323343128,-0.0002900386802109073,0.0,0.0,0.0,0.0
22.79462766647339,-0.058528423,-0.064413376,-5.1593804,0.001490849633803068,nan,nan,nan,nan,nan,12.789907217025757,13.989907217025756,0.00034046173095703125,0.0,0.32961493476673004,0.0,-5.286090936481284,0.730978070815005,-0.14542935952258076,-0.0070958803816884635,-0.001182422417064805,0.0,0.0,0.0,0.0
22.89465880393982,-0.06863861,-0.0140221985,-5.1886535,0.002851697521375476,nan,nan,nan,nan,nan,12.889963626861572,14.089963626861572,0.0004086494445800781,0.0,0.30084085503414004,0.0,-5.30422425649926,0.7300890132382503,-0.1571223243784175,-0.007550843886582089,-0.002555467056081829,0.0,0.0,0.0,0.0
22.994733810424805,-0.08523935,0.044703063,-5.2210083,0.004274991740082924,nan,nan,nan,nan,nan,12.989999055862427,14.189999055862426,0.0003898143768310547,0.0,0.2608543761932197,0.0,-5.319511016058676,0.7293108593140128,-0.16368011285503095,-0.00994009451888222,-0.004062163625588084,0.0,0.0,0.0,0.0
23.09453320503235,-0.09858516,0.10242419,-5.249554,0.005055735680718009,nan,nan,nan,nan,nan,13.089798927307129,14.289798927307128,0.0003612041473388672,0.0,0.21126876107399079,0.0,-5.331787110071055,0.7285575568075955,-0.16499552242118906,-0.012221553100778222,-0.005364698934218108,0.0,0.0,0.0,0.0
23.19498062133789,-0.10889599,0.16264465,-5.277985,0.005252491746701388,nan,nan,nan,nan,nan,13.190336227416992,14.390336227416991,0.0003643035888671875,0.0,0.15339435310044336,0.0,-5.341033970536566,0.7279374227283721,-0.16140989392577687,-0.011652671528482057,-0.005840273322980328,0.0,0.0,0.0,0.0
23.29491114616394,-0.115099214,0.21309404,-5.3036714,0.004962613140435765,nan,nan,nan,nan,nan,13.290237665176392,14.490237665176391,0.00036907196044921875,0.0,0.09015892578350237,0.0,-5.347034527571161,0.7274527209021323,-0.15191873643541806,-0.008039527075454465,-0.0053700376086741235,0.0,0.0,0.0,0.0
23.39494776725769,-0.12061153,0.2607916,-5.336791,0.004462233234877138,nan,nan,nan,nan,nan,13.39049744606018,14.59049744606018,0.0006601810455322266,0.0,0.023328869491818487,0.0,-5.349805359459458,0.7262720462048934,-0.1321024931430967,-0.0035789521694115046,-0.004433054498535689,0.0,0.0,0.0,0.0
23.494506359100342,-0.12629853,0.29227507,-5.362037,0.004239175080645578,nan,nan,nan,nan,nan,13.489781618118286,14.689781618118285,0.0004608631134033203,0.0,-0.04372002478045953,0.0,-5.349313986389737,0.7250967547298394,-0.10712428777247891,-0.00044030095054028024,-0.0037204530212065906,0.0,0.0,0.0,0.0
23.594630002975464,-0.12677568,0.32472226,-5.3871913,0.0035483323392561106,nan,nan,nan,nan,nan,13.589889287948608,14.789889287948608,0.0003578662872314453,0.0,-0.10969237454909271,0.0,-5.345563542477595,0.7241533130037913,-0.08133604114145813,0.003077586692014673,-0.0028503658535344338,0.0,0.0,0.0,0.0
23.694885730743408,-0.12507752,0.34828097,-5.4080477,0.002455014930088456,nan,nan,nan,nan,nan,13.6902015209198,14.890201520919799,0.00034308433532714844,0.0,-0.17168946888424236,0.0,-5.338562177003933,0.723302330303849,-0.054089583295414266,0.00804144159462281,-0.0013327894178287736,0.0,0.0,0.0,0.0
23.794795751571655,-0.12239618,0.3638167,-5.428979,0.0016630862234816926,nan,nan,nan,nan,nan,13.79008936882019,14.99008936882019,0.0003676414489746094,0.0,-0.2270310971836526,0.0,-5.328429646062693,0.7223621873712878,-0.025266083233608648,0.011134817228294238,-0.0003393574289380997,0.0,0.0,0.0,0.0
23.894757986068726,-0.1129643,0.36389765,-5.443618,0.0006674476945275759,nan,nan,nan,nan,nan,13.890032768249512,15.090032768249511,0.0003688335418701172,0.0,-0.2739559040901541,0.0,-5.315229358609006,0.7215369153915848,0.0072122733389991985,0.016026951007190912,0.0008127054596155932,0.0,0.0,0.0,0.0
23.994808435440063,-0.10715588,0.35185012,-5.463056,-0.00025583356627388587,nan,nan,nan,nan,nan,13.990112543106079,15.190112543106078,0.00037169456481933594,0.0,-0.3107271804623332,0.0,-5.299065221155324,0.7205064497794059,0.04147284190211302,0.018608820028138774,0.001465505678679523,0.0,0.0,0.0,0.0
24.094902515411377,-0.1022817,0.3288885,-5.4811573,-0.0012521046730774449,nan,nan,nan,nan,nan,14.09019947052002,15.290199470520019,0.0003578662872314453,0.0,-0.33590377846859104,0.0,-5.280102887937737,0.719403932658557,0.07321084228703141,0.01762899844429228,0.0017142294712200808,0.0,0.0,0.0,0.0
24.195220470428467,-0.0988308,0.29856607,-5.4923573,-0.0019329175340432533,nan,nan,nan,nan,nan,14.190738677978516,15.390738677978515,0.0007266998291015625,0.0,-0.34857074794760573,0.0,-5.2584175887924305,0.7185305400991773,0.10246884246588134,0.014888112863256689,0.002024912050376751,0.0,0.0,0.0,0.0
24.29470181465149,-0.09645136,0.26043037,-5.4972954,-0.0016661924271937703,nan,nan,nan,nan,nan,14.289973020553589,15.489973020553588,0.00038504600524902344,0.0,-0.3482005875933757,0.0,-5.234621222719771,0.7182797380031855,0.12776610599471022,0.011940321420095702,0.0015851940925051722,0.0,0.0,0.0,0.0
24.39452028274536,-0.096757516,0.2089279,-5.4944005,-0.0007119404260927178,nan,nan,nan,nan,nan,14.389782905578613,15.589782905578613,0.00043201446533203125,0.0,-0.33494106633170245,0.0,-5.2085112904081905,0.71851286064008,0.1489255177863889,0.008364151830496058,0.0007127661790259772,0.0,0.0,0.0,0.0
24.494520664215088,-0.09833118,0.15690306,-5.489514,0.0007145132615792305,nan,nan,nan,nan,nan,14.489786386489868,15.689786386489867,0.0004699230194091797,0.0,-0.30918761744844,0.0,-5.180405810057237,0.7189495920377073,0.16416492378617284,0.004581732756782676,-0.0003895870457968205,0.0,0.0,0.0,0.0
24.595413208007812,-0.09416445,0.09335616,-5.4837184,0.0022390763867501592,nan,nan,nan,nan,nan,14.590677499771118,15.790677499771117,0.00035452842712402344,0.0,-0.2715345492991639,0.0,-5.150344676802872,0.7193074252784846,0.17381153881505104,0.002331955949318182,-0.0015687648894451738,0.0,0.0,0.0,0.0
24.69485330581665,-0.089399256,0.038547114,-5.476818,0.003098818927044409,nan,nan,nan,nan,nan,14.690179347991943,15.890179347991943,0.00034809112548828125,0.0,-0.2243060615262368,0.0,-5.119296691994557,0.7197141741064425,0.17784386599078505,0.0033418644687326967,-0.0028117026667640495,0.0,0.0,0.0,0.0
24.79499864578247,-0.08699841,-0.026866386,-5.4631886,0.00203002203352492,nan,nan,nan,nan,nan,14.79038953781128,15.990389537811279,0.0003757476806640625,0.0,-0.16838276031507285,0.0,-5.08691380426039,0.7202543684526043,0.1743222319660603,0.0020898015265929095,-0.002425451253505426,0.0,0.0,0.0,0.0
24.894822359085083,-0.08511698,-0.07544362,-5.451859,-0.0007806478435942003,nan,nan,nan,nan,nan,14.8901207447052,16.0901207447052,0.0004928112030029297,0.0,-0.10646803109912083,0.0,-5.053876139915727,0.7207550096671055,0.16285266120038946,-0.0006515838498149845,-0.00013287879469947675,0.0,0.0,0.0,0.0
24.99494957923889,-0.0837558,-0.12629056,-5.4400263,-0.00331885016324052,nan,nan,nan,nan,nan,14.990237474441528,16.190237474441528,0.0004515647888183594,0.0,-0.040348447249450935,0.0,-5.020207933880039,0.7211114519512591,0.14613941536174282,-0.0029455686879707424,0.0026043340022365,0.0,0.0,0.0,0.0
25.094834327697754,-0.08672418,-0.17301485,-5.4285126,-0.00521611883071189,nan,nan,nan,nan,nan,15.090137720108032,16.29013772010803,0.00035119056701660156,0.0,0.02713196948729112,0.0,-4.986423798048312,0.7213653659872487,0.12225301145050049,-0.005144748518093385,0.004664186704299389,0.0,0.0,0.0,0.0
25.194631576538086,-0.09242016,-0.2071033,-5.4188623,-0.006418756701144161,nan,nan,nan,nan,nan,15.189931392669678,16.389931392669677,0.0003752708435058594,0.0,0.0935339774602002,0.0,-4.952801893774207,0.7213035066650348,0.0958284701935626,-0.008412945471479623,0.006254719401050322,0.0,0.0,0.0,0.0
25.294965744018555,-0.099240646,-0.2341188,-5.409116,-0.00729325610463713,nan,nan,nan,nan,nan,15.290332317352295,16.490332317352294,0.00036787986755371094,0.0,0.15683269982828663,0.0,-4.919418906858588,0.7211454884921404,0.062479154699038496,-0.01099772569307187,0.007328448231934076,0.0,0.0,0.0,0.0
25.39463996887207,-0.104446046,-0.24275069,-5.399121,-0.007739829776901852,nan,nan,nan,nan,nan,15.389901638031006,16.589901638031005,0.0003845691680908203,0.0,0.21379582693341853,0.0,-4.887060589805484,0.7208892366527786,0.02798642342839498,-0.011916378490462662,0.007762427257089456,0.0,0.0,0.0,0.0
25.495048761367798,-0.11253824,-0.24155556,-5.389927,-0.0078058142343117864,nan,nan,nan,nan,nan,15.49036717414856,16.69036717414856,0.0003914833068847656,0.0,0.26326123854860695,0.0,-4.855471493660025,0.7206026017927704,-0.009307858956600825,-0.012716842840031996,0.007771609129787067,0.0,0.0,0.0,0.0
25.595012426376343,-0.120015666,-0.23216012,-5.380961,-0.007767929723078659,nan,nan,nan,nan,nan,15.59035348892212,16.79035348892212,0.0003514289855957031,0.0,0.30266363365871274,0.0,-4.825384899810602,0.7203357920343333,-0.043321063440944094,-0.013534829996556906,0.00757319580962341,0.0,0.0,0.0,0.0
25.694747924804688,-0.12762603,-0.21384205,-5.369722,-0.007238644042085844,nan,nan,nan,nan,nan,15.690090417861938,16.890090417861938,0.00037980079650878906,0.0,0.3307367627543648,0.0,-4.796996919910308,0.7203282320447784,-0.07533883556958268,-0.01351039032313997,0.006960817941981996,0.0,0.0,0.0,0.0
25.795819520950317,-0.13412267,-0.19034888,-5.357789,-0.006273490981164309,nan,nan,nan,nan,nan,15.79114031791687,16.99114031791687,0.0003616809844970703,0.0,0.3466745689055293,0.0,-4.770159180941643,0.7204786943261706,-0.10002238599354873,-0.012660123597353684,0.005909355675929047,0.0,0.0,0.0,0.0
25.89499020576477,-0.14029281,-0.15806517,-5.3488126,-0.005257540047792858,nan,nan,nan,nan,nan,15.890340805053711,17.09034080505371,0.0005276203155517578,0.0,0.34949313793142034,0.0,-4.7459426322861935,0.7207091151384002,-0.12193879045725879,-0.010873782685227144,0.0047303487730850115,0.0,0.0,0.0,0.0
25.994779109954834,-0.14732206,-0.117644064,-5.3360167,-0.004344015450570227,nan,nan,nan,nan,nan,15.990206718444824,17.190206718444824,0.00037384033203125,0.0,0.33938667799553124,0.0,-4.7239219642449655,0.7211958479861305,-0.14050682637401143,-0.008883101294893206,0.0036936709942566436,0.0,0.0,0.0,0.0
26.09475803375244,-0.15404585,-0.06728289,-5.317897,-0.003150732493952698,nan,nan,nan,nan,nan,16.090030431747437,17.290030431747436,0.0003578662872314453,0.0,0.3166807003109236,0.0,-4.7044797094195,0.7220326412180813,-0.15481925442445343,-0.007209322046528923,0.0027341111947542973,0.0,0.0,0.0,0.0
26.195072174072266,-0.15876757,-0.017352238,-5.29696,-0.001941045354491907,nan,nan,nan,nan,nan,16.190404415130615,17.390404415130615,0.0003540515899658203,0.0,0.2819963308696326,0.0,-4.6877028381687,0.7233546315665598,-0.16352695024255023,-0.005062303690815205,0.001610645399261106,0.0,0.0,0.0,0.0
26.29487681388855,-0.16223042,0.03861011,-5.269213,-0.001101738321298073,nan,nan,nan,nan,nan,16.290372610092163,17.490372610092162,0.0004253387451171875,0.0,0.23692853225586674,0.0,-4.673913485066198,0.7250190472038465,-0.16641716467763432,-0.0020917359611288626,0.0009760281717787057,0.0,0.0,0.0,0.0
26.39482879638672,-0.16620612,0.092787586,-5.2391257,1.2290542349648569e-05,nan,nan,nan,nan,nan,16.390145301818848,17.590145301818847,0.0005474090576171875,0.0,0.18315117583922172,0.0,-4.663184756627545,0.7270520083495696,-0.16281229293534735,0.0004941635053407717,0.00034699226246063413,0.0,0.0,0.0,0.0
26.494763135910034,-0.17118625,0.15077771,-5.2104664,0.0013341892303737213,nan,nan,nan,nan,nan,16.4901123046875,17.6901123046875,0.00036215782165527344,0.0,0.12245738329196491,0.0,-4.65557481932988,0.7288576598097283,-0.15566599212806242,0.001908154985273737,-0.0005091460451736185,0.0,0.0,0.0,0.0
26.59480333328247,-0.17624752,0.19848661,-5.1840625,0.0024423924152633184,nan,nan,nan,nan,nan,16.59015703201294,17.79015703201294,0.0004661083221435547,0.0,0.05715197503899504,0.0,-4.651176411705904,0.7304555843282615,-0.14061549154441375,0.002323473389321647,-0.0014714694600604374,0.0,0.0,0.0,0.0
26.694757223129272,-0.18014355,0.2411611,-5.1552763,0.0034280370780103604,nan,nan,nan,nan,nan,16.6900851726532,17.890085172653198,0.0003993511199951172,0.0,-0.010205946117777758,0.0,-4.65003721036644,0.7319962693361971,-0.11892583406001242,0.001754000289089707,-0.002451190678446791,0.0,0.0,0.0,0.0
26.794799327850342,-0.17686796,0.27043477,-5.1355643,0.0034258076083641537,nan,nan,nan,nan,nan,16.790080547332764,17.990080547332763,0.0003592967987060547,0.0,-0.07722851421758585,0.0,-4.652163351085588,0.7330860769363648,-0.09219827364933782,0.00446166837825248,-0.0023602889069547638,0.0,0.0,0.0,0.0
26.89479398727417,-0.17354295,0.29043412,-5.1143985,0.003022175275616691,nan,nan,nan,nan,nan,16.89017081260681,18.09017081260681,0.00037217140197753906,0.0,-0.14143256710669172,0.0,-4.657543476608936,0.7338075282171143,-0.06296450118442477,0.0073113298143548545,-0.001789569387113547,0.0,0.0,0.0,0.0
26.99524474143982,-0.16836895,0.29842702,-5.0970826,0.0027081204421653127,nan,nan,nan,nan,nan,16.990524768829346,18.190524768829345,0.0003490447998046875,0.0,-0.20050366325201988,0.0,-4.666153576166601,0.7344736906988757,-0.028496469315191033,0.010063656084350258,-0.001286269801825453,0.0,0.0,0.0,0.0
27.095057487487793,-0.15935317,0.29859123,-5.076492,0.002668031671293765,nan,nan,nan,nan,nan,17.09040856361389,18.29040856361389,0.0004127025604248047,0.0,-0.25183039678689606,0.0,-4.677840593001867,0.7352612504631438,0.0031529258700026645,0.012885774210365353,-0.0010985609664271043,0.0,0.0,0.0,0.0
27.19512391090393,-0.14897834,0.2889771,-5.0572333,0.0025400600100017393,nan,nan,nan,nan,nan,17.19044065475464,18.390440654754638,0.00038361549377441406,0.0,-0.29385024445098,0.0,-4.69255251778211,0.7360358129765773,0.0344895094835247,0.016063768224469557,-0.0009261104039485294,0.0,0.0,0.0,0.0
27.29479479789734,-0.13843602,0.2679172,-5.032764,0.002352978465383196,nan,nan,nan,nan,nan,17.29007649421692,18.49007649421692,0.0003597736358642578,0.0,-0.32481452510284264,0.0,-4.710061722790004,0.7372019359015669,0.06566110576491756,0.018150640650688634,-0.00101948437303323,0.0,0.0,0.0,0.0
27.3949077129364,-0.1289009,0.23512624,-5.011685,0.002359497851971766,nan,nan,nan,nan,nan,17.390259265899658,18.590259265899657,0.0003972053527832031,0.0,-0.34383336733073777,0.0,-4.730376285926076,0.7382555659026353,0.09374515599839918,0.017848604476147632,-0.0014160269995425216,0.0,0.0,0.0,0.0
27.49499821662903,-0.12270889,0.19909145,-4.9968348,0.0020055574800270093,nan,nan,nan,nan,nan,17.49032950401306,18.69032950401306,0.0005037784576416016,0.0,-0.34999476338543983,0.0,-4.75319045980558,0.7390297964721099,0.11681154038744955,0.014949900509833882,-0.001709618192364069,0.0,0.0,0.0,0.0
27.594587564468384,-0.1185027,0.1562569,-4.9850297,0.0011655814392314556,nan,nan,nan,nan,nan,17.589869022369385,18.789869022369384,0.00039839744567871094,0.0,-0.3431679634831751,0.0,-4.778173347022014,0.7395785853163082,0.1333334446524107,0.010003244511290471,-0.001375606437195162,0.0,0.0,0.0,0.0
27.695558071136475,-0.11649939,0.11444186,-4.97773,0.00018317008690644024,nan,nan,nan,nan,nan,17.690842866897583,18.890842866897582,0.0004258155822753906,0.0,-0.3233013925844565,0.0,-4.805611710294424,0.7399188739398084,0.14303801011238484,0.004154451316883237,-0.0005256627980170221,0.0,0.0,0.0,0.0
27.794734716415405,-0.110191375,0.060667098,-4.970056,-0.0003670382741999996,nan,nan,nan,nan,nan,17.790029764175415,18.990029764175414,0.0003941059112548828,0.0,-0.2918229810548947,0.0,-4.834367684161694,0.740398008031554,0.15004018805861605,0.000936780469360719,0.00012293780854802028,0.0,0.0,0.0,0.0
27.89494514465332,-0.10736526,0.002643071,-4.9652367,-0.0009216983836107208,nan,nan,nan,nan,nan,17.890326976776123,19.090326976776122,0.0004208087921142578,0.0,-0.24911973674057014,0.0,-4.864991593040106,0.7409535793906342,0.15613791234335608,-0.0015303335397466075,0.0007216064943349033,0.0,0.0,0.0,0.0
27.994593620300293,-0.10308849,-0.05510782,-4.9671283,-0.0015900594519484535,nan,nan,nan,nan,nan,17.989867687225342,19.18986768722534,0.0005185604095458984,0.0,-0.19750208280824305,0.0,-4.896638981050215,0.7412765042991618,0.15769017756097822,-0.00396249484466112,0.001514311341275124,0.0,0.0,0.0,0.0
28.09466052055359,-0.098802395,-0.10930109,-4.9709845,-0.002366968568422145,nan,nan,nan,nan,nan,18.08995032310486,19.289950323104858,0.00040078163146972656,0.0,-0.13825598827822527,0.0,-4.929422156450202,0.7411872923075672,0.15333341953469173,-0.004609134566755006,0.0022986625948826717,0.0,0.0,0.0,0.0
28.194886922836304,-0.09925028,-0.1608159,-4.967711,-0.003127349942577934,nan,nan,nan,nan,nan,18.19021987915039,19.39021987915039,0.0004878044128417969,0.0,-0.07372638286530878,0.0,-4.9629282703313,0.7417022786161684,0.14027375891363328,-0.006463407759898899,0.0032373009788926174,0.0,0.0,0.0,0.0
28.294885635375977,-0.0979114,-0.21102591,-4.96421,-0.003160711313261552,nan,nan,nan,nan,nan,18.290199279785156,19.490199279785156,0.00038123130798339844,0.0,-0.006631267641947106,0.0,-4.99668421737941,0.7422262538061298,0.12181302059356673,-0.007529193251003972,0.003621085186503935,0.0,0.0,0.0,0.0
28.3949875831604,-0.096418045,-0.24944828,-4.9608016,-0.0024869325110569857,nan,nan,nan,nan,nan,18.390344381332397,19.590344381332397,0.0004973411560058594,0.0,0.06082124434878884,0.0,-5.030526957822792,0.7426355632764844,0.09956374768161962,-0.007248562843091869,0.0032314871764568772,0.0,0.0,0.0,0.0
28.495720148086548,-0.096076146,-0.27860796,-4.9621897,-0.001332350456593294,nan,nan,nan,nan,nan,18.4909930229187,19.6909930229187,0.00044798851013183594,0.0,0.12631882743976452,0.0,-5.064251322000181,0.7428066097750532,0.0749269701567762,-0.006583040023186763,0.0022584095874520365,0.0,0.0,0.0,0.0
28.59500503540039,-0.097578675,-0.29801077,-4.9707556,-0.00014985452694001727,nan,nan,nan,nan,nan,18.59035038948059,19.79035038948059,0.0004837512969970703,0.0,0.1863096573461943,0.0,-5.096948286174931,0.7422298456066719,0.04450773921786989,-0.006311888337989229,0.0010883392396150232,0.0,0.0,0.0,0.0
28.694627285003662,-0.101749286,-0.302539,-4.9864697,0.00048689308956214455,nan,nan,nan,nan,nan,18.689937829971313,19.889937829971313,0.000457763671875,0.0,0.23956081953331676,0.0,-5.128824036569635,0.7411645924209681,0.012186463821547089,-0.006974251686886231,0.00040990626577854026,0.0,0.0,0.0,0.0
28.79463815689087,-0.1062292,-0.30024534,-5.0021563,0.0005206176353764469,nan,nan,nan,nan,nan,18.789936542510986,19.989936542510986,0.0003795623779296875,0.0,0.28412187759927854,0.0,-5.159630729503751,0.739973435847549,-0.0203138820995301,-0.007103618703656795,9.434386521939757e-05,0.0,0.0,0.0,0.0
28.8949716091156,-0.106654726,-0.28980473,-5.019016,0.0002531721860821387,nan,nan,nan,nan,nan,18.890357971191406,20.090357971191406,0.00054168701171875,0.0,0.31821610296984737,0.0,-5.189067401000397,0.7388457738411215,-0.04806934310249045,-0.005638783416497367,6.795688802574702e-05,0.0,0.0,0.0,0.0
28.994912147521973,-0.11101785,-0.26596665,-5.038904,-0.00013229778371021822,nan,nan,nan,nan,nan,18.99036955833435,20.19036955833435,0.0005469322204589844,0.0,0.34028908082651416,0.0,-5.216615006684194,0.7377323252696025,-0.07385178730386609,-0.0031654530057832553,0.00011723669576843187,0.0,0.0,0.0,0.0
29.09501051902771,-0.12019163,-0.23942162,-5.054475,-0.0003034080407748399,nan,nan,nan,nan,nan,19.090356588363647,20.290356588363647,0.0003993511199951172,0.0,0.3496793333437867,0.0,-5.242133668880235,0.7369023017167794,-0.09746541855363826,-0.004581459272130574,0.0003028649233619429,0.0,0.0,0.0,0.0
29.19490146636963,-0.138461,-0.19583641,-5.0828414,-0.0004609483992119648,nan,nan,nan,nan,nan,19.19025492668152,20.390254926681518,0.0004131793975830078,0.0,0.3460529835835153,0.0,-5.265372616423521,0.7356679613577727,-0.118537227216893,-0.009768714025152527,0.0002869323719406976,0.0,0.0,0.0,0.0
29.294560194015503,-0.14199543,-0.15566176,-5.104872,-0.0008684240912180397,nan,nan,nan,nan,nan,19.289824962615967,20.489824962615966,0.0005404949188232422,0.0,0.3296336478993051,0.0,-5.2860749043584985,0.7344427186543508,-0.13683493383120712,-0.011122783332768825,0.00030003694520773874,0.0,0.0,0.0,0.0
29.395167350769043,-0.14097735,-0.10384968,-5.1340446,-0.001180528455921006,nan,nan,nan,nan,nan,19.390506744384766,20.590506744384765,0.000591278076171875,0.0,0.3006528743973109,0.0,-5.304315068003912,0.7331622151764821,-0.1498808920460982,-0.007330476882540376,0.0005954925944468978,0.0,0.0,0.0,0.0
29.49481964111328,-0.13819052,-0.05287791,-5.1613965,-0.0012490650028159338,nan,nan,nan,nan,nan,19.49009680747986,20.690096807479858,0.0004239082336425781,0.0,0.26081027146135694,0.0,-5.319524514850946,0.7319102014658355,-0.15739303126569384,-0.0014268218565148304,0.0009147007642440854,0.0,0.0,0.0,0.0
29.594959259033203,-0.13579437,-0.0006009528,-5.187375,-0.0014132553963979962,nan,nan,nan,nan,nan,19.590376377105713,20.790376377105712,0.0004794597625732422,0.0,0.2109571113696203,0.0,-5.331849258979164,0.7308369401829162,-0.15987302905268216,0.003729407946734618,0.0014898924895461526,0.0,0.0,0.0,0.0
29.694567918777466,-0.13415031,0.054041725,-5.2135596,-0.0018661451782580312,nan,nan,nan,nan,nan,19.689838647842407,20.889838647842407,0.00044417381286621094,0.0,0.15369691154870826,0.0,-5.3409960712446,0.7298685138422812,-0.15545242892565161,0.007000739159134499,0.00221040267128751,0.0,0.0,0.0,0.0
