time,x,y,z,yaw,platform,trajectory,traj_double,traj_short,traj_spin,traj_time,ref_time,comptime,x_ref,y_ref,yaw_ref,z_ref,throttle_input,p_input,q_input,r_input,cbf_term_pitch_cbf,cbf_term_roll_cbf,cbf_term_thrust_cbf,cbf_term_yaw_cbf
10.092759132385254,0.07734002,-0.013329638,-2.8616245,-0.002935895484452056,SIM,CIRCLE_HORIZONTAL,DblSpd,Not Short,NoSpin,0.08952116966247559,1.2895211696624755,0.0012280941009521484,0.19118070662751105,0.5687265928488007,0.0,-5.0,0.7991912139172115,0.054347721674408,-0.05488412362168692,0.006477630161567032,0.0,-3.2704920939429294,-74.05128323374646,0.0
10.192734003067017,0.075608164,-0.012408445,-2.8749847,-0.00505155245508479,nan,nan,nan,nan,nan,0.18944406509399414,1.389444065093994,0.000499725341796875,0.1354417375405048,0.5845130757579414,0.0,-5.0,0.8063636085069353,0.11883378312409949,-0.043701923109065774,0.00847189756684389,0.0,-0.8892774379633047,-48.60948257243506,0.0
10.292680978775024,0.07253372,-0.010418522,-2.9091003,-0.006560177939079849,nan,nan,nan,nan,nan,0.28940296173095703,1.489402961730957,0.0006060600280761719,0.0784194322266361,0.5948532530374631,0.0,-5.0,0.8135444091288864,0.1391122597158908,-0.016813086594772413,0.006885979310767661,0.0,0.0,-13.803382246748761,0.0
10.392680644989014,0.06688644,-0.008455049,-2.9558177,-0.007373118406208993,nan,nan,nan,nan,nan,0.389479398727417,1.589479398727417,0.0009722709655761719,0.020597415625294057,0.5996463511683856,0.0,-5.0,0.811899129260128,0.10365504721589869,0.008513511622872536,0.005304526688781083,0.0,0.0,0.0,0.0
10.492611169815063,0.056366827,-0.00073790323,-3.023417,-0.007304911672502953,nan,nan,nan,nan,nan,0.4893524646759033,1.6893524646759033,0.0005838871002197266,-0.03729948380676583,0.598839501459071,0.0,-5.0,0.797721358798627,0.06080017810266304,0.02828131760068102,0.004085132500151789,0.0,0.0,0.0,0.0
10.592687845230103,0.0519953,0.0072065336,-3.1027737,-0.006629828465654845,nan,nan,nan,nan,nan,0.5893990993499756,1.7893990993499755,0.000560760498046875,-0.09494841123438133,0.592439700901338,0.0,-5.0,0.7836622427621641,0.019910199507858734,0.04277600400385537,0.0031434585690189826,0.0,0.0,0.0,0.0
10.692592859268188,0.05122494,0.019951709,-3.2055006,-0.006490049998788289,nan,nan,nan,nan,nan,0.6892902851104736,1.8892902851104736,0.0005731582641601562,-0.15162277423041268,0.5805260841122243,0.0,-5.0,0.7709573706112187,-0.014628322953988441,0.05506703574573299,0.0029951732221363794,0.0,0.0,1.8138188611169301,0.0
10.79262924194336,0.05069725,0.0380683,-3.3132632,-0.006975058444142292,nan,nan,nan,nan,nan,0.7893447875976562,1.9893447875976562,0.0005364418029785156,-0.20697346299295521,0.5631713643436639,0.0,-5.0,0.7604039388266132,-0.04452478494200895,0.0636222039256681,0.003970245244481952,0.0,0.0,3.748681730803604,0.0
10.89255166053772,0.04778636,0.06241421,-3.4401968,-0.009074213762576014,nan,nan,nan,nan,nan,0.8892168998718262,2.0892168998718263,0.0006146430969238281,-0.26029428394791515,0.5405986364615083,0.0,-5.0,0.7507335391819853,-0.06956093816727686,0.0670110124665075,0.006497674598632599,0.0,0.0,7.204896990189994,0.0
10.99283218383789,0.042396374,0.08834238,-3.5570729,-0.009537944448969186,nan,nan,nan,nan,nan,0.9894959926605225,2.1894959926605226,0.0006740093231201172,-0.3113928040140513,0.5128689126943323,0.0,-5.0,0.7418807041850504,-0.0895201665934166,0.06438349989255768,0.008702363803421133,0.0,0.0,8.319203144280142,0.0
11.092660665512085,0.038354326,0.12590048,-3.6860871,-0.008686374905522909,nan,nan,nan,nan,nan,1.0893464088439941,2.2893464088439943,0.0005712509155273438,-0.35936862846334733,0.4804728804796089,0.0,-5.0,0.733783625398915,-0.10584506271477617,0.059258489489915765,0.009252250219569996,0.0,0.0,7.835134405532793,0.0
11.192682981491089,0.03325019,0.16258498,-3.797177,-0.007792841931309544,nan,nan,nan,nan,nan,1.1894123554229736,2.389412355422974,0.0009431838989257812,-0.4040915598517655,0.4435200235125433,0.0,-5.0,0.7263841059644904,-0.12125799327571413,0.050520714105855805,0.009209550520662175,0.0,0.0,8.977072937003765,0.0
11.292603015899658,0.021043671,0.20845158,-3.9287999,-0.007554702495911451,nan,nan,nan,nan,nan,1.289273977279663,2.4892739772796633,0.0004329681396484375,-0.4449571327896142,0.4025085713120227,0.0,-5.0,0.7196274938656025,-0.13147385038565057,0.038718083378868236,0.00900670157492983,0.0,0.0,8.587058365821356,0.0
11.392884016036987,0.0036849894,0.25398093,-4.0451097,-0.008309476068556988,nan,nan,nan,nan,nan,1.3895893096923828,2.589589309692383,0.0011181831359863281,-0.48183659583351285,0.35753810274650727,0.0,-5.0,0.7134625972499914,-0.13602814233929106,0.02160747189288821,0.008629099948988701,0.0,0.0,7.767261467296581,0.0
11.492594242095947,-0.024340145,0.30389956,-4.170348,-0.005869903236619236,nan,nan,nan,nan,nan,1.4892632961273193,2.6892632961273195,0.0004394054412841797,-0.5139970922460086,0.3095270410846976,0.0,-5.0,0.7078415836152473,-0.1351875131643379,0.0010133738024091972,0.006136324790475761,0.0,0.0,5.75609653570182,0.0
11.592657804489136,-0.047959276,0.34444296,-4.2827663,-0.002996450354616334,nan,nan,nan,nan,nan,1.589341640472412,2.7893416404724123,0.00045228004455566406,-0.54149080740635,0.2584331741367951,0.0,-5.0,0.7027198650121809,-0.12661937163121217,-0.020613377188467112,0.0008885375331791343,0.0,0.0,3.642266689343262,0.0
11.692635536193848,-0.07176838,0.37996385,-4.3978705,-0.0022358648984195303,nan,nan,nan,nan,nan,1.6893036365509033,2.8893036365509035,0.0004394054412841797,-0.5638977994114166,0.2049860283506213,0.0,-5.0,0.6980559716197194,-0.11029027233910847,-0.0336006376853763,-0.001764744294724472,0.0,0.0,0.23341395750262173,0.0
11.792602300643921,-0.097898416,0.40540767,-4.4963317,-0.0024949321737802663,nan,nan,nan,nan,nan,1.789271593093872,2.9892715930938722,0.0003898143768310547,-0.5810446895922673,0.1496230887818645,0.0,-5.0,0.6958364323885535,-0.085125640020395,-0.04501341539602976,-0.0028893116549068504,0.0,0.0,0.0,0.0
11.89258623123169,-0.13247362,0.43058634,-4.5904927,-0.002825418263823161,nan,nan,nan,nan,nan,1.8892524242401123,3.0892524242401125,0.00043773651123046875,-0.5927711512116791,0.09285667607221706,0.0,-5.0,0.6954379445335007,-0.06357114448063354,-0.054733596245424114,-0.00348202440504593,0.0,0.0,0.0,0.0
11.992537498474121,-0.17032509,0.44340605,-4.6789603,-0.0017210620604420843,nan,nan,nan,nan,nan,1.9892199039459229,3.189219903945923,0.0003516674041748047,-0.5989647336191662,0.03523134798047384,0.0,-5.0,0.6951903452717779,-0.03897007365756553,-0.06457480857389537,-0.0045751134664519634,0.0,0.0,0.0,0.0
12.092595100402832,-0.21116747,0.44744423,-4.762766,0.0019451089091507834,nan,nan,nan,nan,nan,2.0892560482025146,3.289256048202515,0.00042366981506347656,-0.5995680680593097,-0.02276250785012301,0.0,-5.0,0.6949924023914352,-0.013771263024478795,-0.0736783432268024,-0.007384529623944316,0.0,0.0,0.0,0.0
12.192488670349121,-0.253221,0.4420876,-4.8397756,0.006846187273745391,nan,nan,nan,nan,nan,2.189154863357544,3.389154863357544,0.0003323554992675781,-0.5945800395020445,-0.08046475393454659,0.0,-5.0,0.6952532125497374,0.0063669724531077105,-0.08013291788550136,-0.011023285394120282,0.0,0.0,0.0,0.0
12.29259181022644,-0.29956624,0.4211863,-4.915304,0.014941865204954385,nan,nan,nan,nan,nan,2.2892556190490723,3.4892556190490724,0.00031566619873046875,-0.5840249617218612,-0.13753124767040575,0.0,-5.0,0.6958886642272919,0.03176283074577429,-0.08306724277193639,-0.01606804246229782,0.0,0.0,0.0,0.0
12.392617225646973,-0.34334525,0.3940502,-4.9737277,0.022125762722443692,nan,nan,nan,nan,nan,2.3892874717712402,3.5892874717712404,0.00034117698669433594,-0.5680188892458311,-0.1932732300654495,0.0,-5.0,0.6970486277209551,0.050688389210257964,-0.08331187913034502,-0.021213820714533222,0.0,0.0,0.0,0.0
12.492706775665283,-0.3821674,0.35968187,-5.030831,0.02913483808567288,nan,nan,nan,nan,nan,2.489398241043091,3.689398241043091,0.0004563331604003906,-0.546687141189233,-0.24725122781968867,0.0,-5.0,0.6983347390666296,0.06531407251194916,-0.08001018308055241,-0.02570198364244423,0.0,0.0,0.0,0.0
12.592679023742676,-0.42084467,0.31636524,-5.0856423,0.03467832538120803,nan,nan,nan,nan,nan,2.589353561401367,3.7893535614013674,0.000335693359375,-0.5202847275361707,-0.2988374178255001,0.0,-5.0,0.6996677849186748,0.07617277192883375,-0.07251463842845135,-0.02976724560478886,0.0,0.0,0.0,0.0
12.69271731376648,-0.45385262,0.27128825,-5.1270347,0.036896442292860786,nan,nan,nan,nan,nan,2.6893932819366455,3.8893932819366457,0.0005240440368652344,-0.48900052860075893,-0.3476758303767726,0.0,-5.0,0.7014430259268637,0.08137941786361798,-0.06508215739300893,-0.03127922477116371,0.0,0.0,0.0,0.0
12.7926344871521,-0.4827569,0.21461521,-5.162921,0.04109585537797145,nan,nan,nan,nan,nan,2.789308786392212,3.989308786392212,0.0003921985626220703,-0.4531942557676112,-0.3932110966634092,0.0,-5.0,0.7035481167371533,0.08482795185021855,-0.05488545304434662,-0.0336964673093206,0.0,0.0,0.0,0.0
12.892659902572632,-0.506562,0.15793772,-5.183424,0.04221808028293255,nan,nan,nan,nan,nan,2.8893353939056396,4.08933539390564,0.0003464221954345703,-0.41311704346153305,-0.4351256237014798,0.0,-5.0,0.7060646510593614,0.08564949230340324,-0.04474972207019833,-0.03500386491832702,0.0,0.0,0.0,0.0
12.99258804321289,-0.5228748,0.09749516,-5.198982,0.0407918205027598,nan,nan,nan,nan,nan,2.9892866611480713,4.1892866611480715,0.0004210472106933594,-0.3692150618620959,-0.4729484518361051,0.0,-5.0,0.7087207493548808,0.08214519547504819,-0.035637035825267074,-0.03425884943814565,0.0,0.0,0.0,0.0
13.092584371566772,-0.53087777,0.041698676,-5.209477,0.038345094122149266,nan,nan,nan,nan,nan,3.0892574787139893,4.289257478713989,0.0003609657287597656,-0.32185960582229406,-0.5063658698410838,0.0,-5.0,0.7112902473748156,0.07531598716483529,-0.02530936072140886,-0.03231134209444995,0.0,0.0,0.0,0.0
13.192578315734863,-0.53321123,-0.019960087,-5.218972,0.03622265145195512,nan,nan,nan,nan,nan,3.1892433166503906,4.389243316650391,0.0003437995910644531,-0.27149301694843925,-0.5350621849357646,0.0,-5.0,0.7135769272497146,0.06820661245216554,-0.015163432268366145,-0.030576055342963503,0.0,0.0,0.0,0.0
13.292598724365234,-0.52704513,-0.07860351,-5.2263722,0.03663896448342092,nan,nan,nan,nan,nan,3.289264440536499,4.489264440536499,0.0003361701965332031,-0.21857322930602147,-0.5587716379977936,0.0,-5.0,0.7155587045525126,0.0616106136264273,-0.004034241118057252,-0.030738001887924787,0.0,0.0,0.0,0.0
13.392882108688354,-0.5056591,-0.14182928,-5.2269335,0.038872603205418244,nan,nan,nan,nan,nan,3.3895604610443115,4.589560461044312,0.0003483295440673828,-0.16345842081930423,-0.5773052439249614,0.0,-5.0,0.7173900316628846,0.05558417860341927,0.007044995220481623,-0.032386167823818555,0.0,0.0,0.0,0.0
13.49281096458435,-0.4786405,-0.19887322,-5.2249856,0.04089871986363587,nan,nan,nan,nan,nan,3.4895107746124268,4.689510774612427,0.0003364086151123047,-0.10700570013218239,-0.5903810465616435,0.0,-5.0,0.7193260031654692,0.05039858843990291,0.020661656319755098,-0.034850458649783506,0.0,0.0,0.0,0.0
13.592718601226807,-0.44530013,-0.25980178,-5.2218895,0.04060019289576911,nan,nan,nan,nan,nan,3.5893969535827637,4.789396953582764,0.0003352165222167969,-0.049591957863391385,-0.5979470191541016,0.0,-5.0,0.7210111842710203,0.04620852193011847,0.03021679704931983,-0.036457558150440536,0.0,0.0,0.0,0.0
13.692694902420044,-0.41330194,-0.31474832,-5.21844,0.03607705901777113,nan,nan,nan,nan,nan,3.6893701553344727,4.889370155334473,0.0003597736358642578,0.008334225713138974,-0.5999421144425205,0.0,-5.0,0.7225514063290372,0.04576075504103338,0.03535838521005045,-0.03393040719946117,0.0,0.0,0.0,0.0
13.79269528388977,-0.3814003,-0.3645082,-5.213493,0.02981688070961431,nan,nan,nan,nan,nan,3.789371967315674,4.989371967315674,0.0003368854522705078,0.06619912879809406,-0.5963368807531304,0.0,-5.0,0.7239289156035982,0.04450730060775616,0.03574092300452709,-0.02918008922863846,0.0,0.0,0.0,0.0
13.892742395401001,-0.34555557,-0.40793687,-5.211347,0.024880480888955458,nan,nan,nan,nan,nan,3.8894243240356445,5.089424324035645,0.0003447532653808594,0.12347461401226166,-0.5871575765452771,0.0,-5.0,0.725005106626767,0.04066939010596218,0.035063386792715985,-0.02424013798512502,0.0,0.0,0.0,0.0
13.992798328399658,-0.30585796,-0.45627645,-5.210997,0.020105910162698498,nan,nan,nan,nan,nan,3.989480972290039,5.189480972290039,0.00034618377685546875,0.17959841837047688,-0.5724896576522785,0.0,-5.0,0.7257442733972391,0.03744099067533143,0.033846062771435766,-0.020377018617610997,0.0,0.0,0.0,0.0
14.092851638793945,-0.26968423,-0.49884045,-5.210127,0.015780796813578662,nan,nan,nan,nan,nan,4.089582681655884,5.289582681655884,0.00034499168395996094,0.23406752611874193,-0.5524603091776386,0.0,-5.0,0.7262835351133041,0.03745493498386786,0.03049490896632162,-0.016344492144823742,0.0,0.0,0.0,0.0
14.192756652832031,-0.23056807,-0.53685474,-5.2071247,0.012450858161556645,nan,nan,nan,nan,nan,4.189443826675415,5.389443826675415,0.0003523826599121094,0.2862241467417761,-0.5273288706508892,0.0,-5.0,0.7269584754999298,0.03406417372023628,0.026343944823324708,-0.013127600653598519,0.0,0.0,0.0,0.0
14.292731046676636,-0.1905663,-0.5669386,-5.208051,0.010601876150007256,nan,nan,nan,nan,nan,4.28941535949707,5.4894153594970705,0.0003616809844970703,0.33576884173097615,-0.4972517319453384,0.0,-5.0,0.727302124094599,0.02974693292475474,0.024440229815746634,-0.01102530615912763,0.0,0.0,0.0,0.0
14.392992973327637,-0.14364539,-0.59012073,-5.198318,0.010775581633536192,nan,nan,nan,nan,nan,4.389711380004883,5.589711380004883,0.0003509521484375,0.38232539839855584,-0.46241462967707403,0.0,-5.0,0.7279586668402147,0.02294163667749203,0.023731817512363078,-0.010471679231195734,0.0,0.0,0.0,0.0
14.492707967758179,-0.0946137,-0.60406053,-5.187132,0.012217697432088302,nan,nan,nan,nan,nan,4.489389419555664,5.689389419555664,0.00033926963806152344,0.4250382348131102,-0.42348848738419714,0.0,-5.0,0.7288878418765614,0.014046927636918704,0.02560163468940512,-0.01136746659183161,0.0,0.0,0.0,0.0
14.59268832206726,-0.04059429,-0.61316276,-5.174951,0.014666204758142298,nan,nan,nan,nan,nan,4.5893659591674805,5.789365959167481,0.00034165382385253906,0.46391790665665433,-0.3804999026061738,0.0,-5.0,0.7297315375711033,0.006650113345380432,0.029566641250383666,-0.013350548254478652,0.0,0.0,0.0,0.0
14.692707777023315,0.0015140681,-0.6175248,-5.165342,0.01649055197109157,nan,nan,nan,nan,nan,4.689401149749756,5.889401149749756,0.00037169456481933594,0.49848706549237254,-0.33393209719462885,0.0,-5.0,0.730443435433229,0.0010565099841333661,0.030701164884010184,-0.015286250234184205,0.0,0.0,0.0,0.0
14.792582750320435,0.05292796,-0.61027074,-5.153966,0.01858884391330788,nan,nan,nan,nan,nan,4.789252758026123,5.989252758026123,0.0003604888916015625,0.5283482612349087,-0.284338029201246,0.0,-5.0,0.7310408621653988,-0.004253190086573179,0.03219332168751247,-0.016975634355267628,0.0,0.0,0.0,0.0
14.892942905426025,0.10702991,-0.60255647,-5.137085,0.019717509355349938,nan,nan,nan,nan,nan,4.889600038528442,6.089600038528443,0.000335693359375,0.5534021729779979,-0.23183191096833516,0.0,-5.0,0.7318003009568873,-0.007783615857138261,0.034592741043828916,-0.018138371168908353,0.0,0.0,0.0,0.0
14.99293041229248,0.15772727,-0.5932453,-5.116854,0.01950051545033643,nan,nan,nan,nan,nan,4.989593744277954,6.189593744277954,0.0003421306610107422,0.5731926172153782,-0.17734210884554444,0.0,-5.0,0.7326906550879754,-0.007316313568411431,0.0365907677858647,-0.01830758691393424,0.0,0.0,0.0,0.0
15.092830181121826,0.20281617,-0.5829309,-5.1006126,0.018225786882813337,nan,nan,nan,nan,nan,5.089517831802368,6.289517831802368,0.00034618377685546875,0.5876238321938755,-0.12123626453245782,0.0,-5.0,0.7336321294939231,-0.005270081539375971,0.03691504969972684,-0.017651951963566493,0.0,0.0,0.0,0.0
15.192885398864746,0.24985744,-0.5715114,-5.094038,0.01437074116080396,nan,nan,nan,nan,nan,5.1895623207092285,6.389562320709229,0.0003445148468017578,0.596584326632883,-0.06393075328814403,0.0,-5.0,0.733685479560242,-0.00034575642277030863,0.03929352188562322,-0.014971998702076116,0.0,0.0,0.0,0.0
15.292736053466797,0.3042525,-0.5507908,-5.092003,0.01150673829620551,nan,nan,nan,nan,nan,5.289425373077393,6.489425373077393,0.0003414154052734375,0.5999686541100108,-0.006133032318703053,0.0,-5.0,0.7333234208958889,0.0005349219420823356,0.04334704288486592,-0.012385565538734338,0.0,0.0,0.0,0.0
15.392840147018433,0.34801504,-0.52971315,-5.0927606,0.008835088272362943,nan,nan,nan,nan,nan,5.389533519744873,6.589533519744873,0.0003509521484375,0.5977542857711757,0.05186341525768964,0.0,-5.0,0.7328191279841929,0.0004766170446140568,0.04625960595610933,-0.010282494750494824,0.0,0.0,0.0,0.0
15.49277925491333,0.3950822,-0.5022355,-5.09667,0.006145526471773067,nan,nan,nan,nan,nan,5.489457130432129,6.689457130432129,0.0003597736358642578,0.5899662790523136,0.1092693441966575,0.0,-5.0,0.732250529187352,-0.0006669045493128157,0.04702156986024535,-0.007790559179748504,0.0,0.0,0.0,0.0
15.592817783355713,0.4385636,-0.4719152,-5.103384,0.0048821860346424,nan,nan,nan,nan,nan,5.589597225189209,6.789597225189209,0.00035262107849121094,0.57664364355219,0.1657772853887252,0.0,-5.0,0.7315635007602376,-0.0038368705299246485,0.048012712508155274,-0.006295017033722557,0.0,0.0,0.0,0.0
15.692638158798218,0.48202783,-0.43376672,-5.115722,0.00500619299712721,nan,nan,nan,nan,nan,5.6893064975738525,6.889306497573853,0.00036716461181640625,0.5580138339390718,0.22050070551501183,0.0,-5.0,0.7305792928446009,-0.009396830355578237,0.0476801004039145,-0.005844045096871598,0.0,0.0,0.0,0.0
15.79256820678711,0.5160621,-0.38667879,-5.1294746,0.00593470587701107,nan,nan,nan,nan,nan,5.789238214492798,6.989238214492798,0.0003561973571777344,0.534145473805205,0.27329217481189066,0.0,-5.0,0.7295786715674288,-0.017835559766995253,0.044048497441106726,-0.0060282368662088835,0.0,0.0,0.0,0.0
15.8929922580719,0.5449433,-0.3377671,-5.1404138,0.007335977444220321,nan,nan,nan,nan,nan,5.889668941497803,7.089668941497803,0.00037598609924316406,0.5051406234866588,0.3237791693477355,0.0,-5.0,0.7288188828017942,-0.026100396279151773,0.039408522164680236,-0.006657267434136856,0.0,0.0,0.0,0.0
15.992905616760254,0.5711715,-0.2881388,-5.148242,0.00795570755673046,nan,nan,nan,nan,nan,5.9896063804626465,7.189606380462647,0.0003483295440673828,0.47155568172980167,0.3709922358060098,0.0,-5.0,0.7283374070986651,-0.03281771405072588,0.03557328564847238,-0.007262707264405155,0.0,0.0,0.0,0.0
16.09294366836548,0.5952094,-0.234086,-5.1531777,0.00705314052324753,nan,nan,nan,nan,nan,6.089617013931274,7.289617013931275,0.0003516674041748047,0.4335441088780661,0.41477645263096063,0.0,-5.0,0.7281934757918651,-0.03700506331289317,0.033271642721582714,-0.006514122982447764,0.0,0.0,0.0,0.0
16.19283962249756,0.60907006,-0.18518783,-5.1558785,0.006795675813574025,nan,nan,nan,nan,nan,6.1896491050720215,7.389649105072022,0.00035691261291503906,0.39147436008454184,0.45469531050627565,0.0,-5.0,0.7281897849545439,-0.04267221671942658,0.027981327803564604,-0.005844829022085008,0.0,0.0,0.0,0.0
16.29288959503174,0.6256731,-0.12879513,-5.15549,0.005596713272646262,nan,nan,nan,nan,nan,6.289593935012817,7.489593935012818,0.0003902912139892578,0.3457885375961556,0.4903369119973654,0.0,-5.0,0.7283981566802384,-0.045875595904031306,0.024532391789384527,-0.005026779623295582,0.0,0.0,0.0,0.0
16.393019914627075,0.63356113,-0.078076884,-5.152189,0.004268950171203996,nan,nan,nan,nan,nan,6.38969349861145,7.58969349861145,0.0003457069396972656,0.2967997481637926,0.5214498149294036,0.0,-5.0,0.7287739186811905,-0.04798819359177412,0.01975261879167247,-0.0036947280973697355,0.0,0.0,0.0,0.0
16.49282145500183,0.63342357,-0.020900412,-5.1489305,0.0037744886747186294,nan,nan,nan,nan,nan,6.489523649215698,7.689523649215698,0.00037217140197753906,0.24517692609734626,0.5476205574204245,0.0,-5.0,0.7291112582577217,-0.04727939918467287,0.013499219969119854,-0.002912958689421757,0.0,0.0,0.0,0.0
16.59291648864746,0.62619543,0.03514794,-5.1482415,0.0045475112730405925,nan,nan,nan,nan,nan,6.589625358581543,7.789625358581543,0.0003464221954345703,0.1911234271654544,0.5687458444582529,0.0,-5.0,0.729265464149161,-0.048606956513361194,0.004486004148237483,-0.003515148680182822,0.0,0.0,0.0,0.0
16.692832946777344,0.615468,0.098790154,-5.155436,0.004310972735870736,nan,nan,nan,nan,nan,6.689530611038208,7.889530611038208,0.00034880638122558594,0.1353928372237849,0.5845244046474823,0.0,-5.0,0.7289206341666928,-0.051910370530099566,-0.0019147422150176821,-0.0037859584696524895,0.0,0.0,0.0,0.0
16.792770624160767,0.5976411,0.15714264,-5.159123,0.003072241637740787,nan,nan,nan,nan,nan,6.789475679397583,7.989475679397583,0.0004076957702636719,0.0783776185554965,0.5948587638335415,0.0,-5.0,0.7286498280118089,-0.05548582657060983,-0.008153541028902216,-0.003260236707893461,0.0,0.0,0.0,0.0
16.892862558364868,0.5686456,0.21983677,-5.159027,0.001872648583855322,nan,nan,nan,nan,nan,6.889556169509888,8.089556169509887,0.0003566741943359375,0.020552915808061577,0.5996478780516001,0.0,-5.0,0.7286406840509615,-0.057420695623185726,-0.014655014239287318,-0.0025222306174004947,0.0,0.0,0.0,0.0
16.992737770080566,0.53775233,0.2753317,-5.159586,0.0009447472327658128,nan,nan,nan,nan,nan,6.989421844482422,8.189421844482421,0.0003600120544433594,-0.03733964523313924,0.5988369986013417,0.0,-5.0,0.7288092026475703,-0.05797660356400801,-0.022673600446574384,-0.0022674193460167865,0.0,0.0,0.0,0.0
17.092795610427856,0.5034946,0.33151805,-5.1641498,-0.0007898575678907203,nan,nan,nan,nan,nan,7.089586496353149,8.289586496353149,0.00034737586975097656,-0.09505572785801891,0.5924224916403683,0.0,-5.0,0.7286778153720513,-0.057236501227243115,-0.02645243679832809,-0.0012774703633152177,0.0,0.0,0.0,0.0
17.192752361297607,0.46713963,0.380346,-5.1692405,-0.002398383927455094,nan,nan,nan,nan,nan,7.189429521560669,8.389429521560668,0.0003662109375,-0.15170090706090375,0.5805056716319824,0.0,-5.0,0.7284321085481671,-0.055051401317991015,-0.02999443404672463,-0.00015062083342186927,0.0,0.0,0.0,0.0
17.29258966445923,0.44124055,0.42348817,-5.1752005,-0.004721404837213568,nan,nan,nan,nan,nan,7.289256811141968,8.489256811141967,0.0003674030303955078,-0.20692556907967494,0.5631889637244791,0.0,-5.0,0.7282237413941275,-0.052962563514164535,-0.028186907977015643,0.001606688324499601,0.0,0.0,0.0,0.0
17.39297604560852,0.40597612,0.47212926,-5.1801286,-0.007351690078674072,nan,nan,nan,nan,nan,7.389703750610352,8.58970375061035,0.0003509521484375,-0.26054866693770157,0.5404760791718599,0.0,-5.0,0.7281108812578999,-0.050265359904870834,-0.025238928414511246,0.003985148115556307,0.0,0.0,0.0,0.0
17.4930477142334,0.36932242,0.513975,-5.183119,-0.009037124468760063,nan,nan,nan,nan,nan,7.4897520542144775,8.689752054214477,0.00034809112548828125,-0.31151973996015675,0.51279182093239,0.0,-5.0,0.7281141644368933,-0.04800457813754571,-0.02442091896728735,0.005479655610706314,0.0,0.0,0.0,0.0
17.59292483329773,0.32967365,0.5556331,-5.185836,-0.010565171632501428,nan,nan,nan,nan,nan,7.589628458023071,8.78962845802307,0.00035691261291503906,-0.3594996117678459,0.4803748839591513,0.0,-5.0,0.7281921112263828,-0.04505411581103944,-0.023933305638693274,0.006832494464791861,0.0,0.0,0.0,0.0
17.692983388900757,0.28658673,0.5842753,-5.188781,-0.010467717799484147,nan,nan,nan,nan,nan,7.689713716506958,8.889713716506957,0.0005900859832763672,-0.40422074401284835,0.44340228924724695,0.0,-5.0,0.728243673801797,-0.03824803297403456,-0.025331649226091154,0.0070647136318356734,0.0,0.0,0.0,0.0
17.792760133743286,0.23551077,0.607161,-5.1855464,-0.009299771714191326,nan,nan,nan,nan,nan,7.7894604206085205,8.98946042060852,0.000392913818359375,-0.4450296673905838,0.4024283726854089,0.0,-5.0,0.7285245896548527,-0.02884890697033951,-0.028854463589143262,0.006200657679949178,0.0,0.0,0.0,0.0
17.89287543296814,0.18364245,0.62155384,-5.1828895,-0.007432858913955488,nan,nan,nan,nan,nan,7.889578342437744,9.089578342437743,0.00035452842712402344,-0.48183280539136575,0.3575432108832249,0.0,-5.0,0.7288809382690413,-0.018549386716458095,-0.03406128430517124,0.0045203825281074595,0.0,0.0,0.0,0.0
17.992884397506714,0.12406573,0.6288946,-5.1830316,-0.004767680886462119,nan,nan,nan,nan,nan,7.989574670791626,9.189574670791625,0.0003502368927001953,-0.5140902330164356,0.30937231989482644,0.0,-5.0,0.7290356727181465,-0.00793955630479667,-0.040478619315743855,0.002198317968450103,0.0,0.0,0.0,0.0
18.09297490119934,0.068117626,0.6265138,-5.1871,-0.002429537373104605,nan,nan,nan,nan,nan,8.089736700057983,9.289736700057983,0.0003528594970703125,-0.541589458880964,0.2582263697398555,0.0,-5.0,0.728814544083227,0.0030873343129800513,-0.0467314149390671,-6.841303896111257e-05,0.0,0.0,0.0,0.0
18.192732095718384,0.012274902,0.6190007,-5.193337,-0.0016455594378062197,nan,nan,nan,nan,nan,8.189428329467773,9.389428329467773,0.00043654441833496094,-0.5639225030286096,0.2049180582036337,0.0,-5.0,0.7284464943529368,0.011022825267782541,-0.050612754559841204,-0.001106986245586565,0.0,0.0,0.0,0.0
18.293587923049927,-0.0333427,0.60994834,-5.199603,-0.0024336618290505367,nan,nan,nan,nan,nan,8.290485382080078,9.490485382080077,0.0006918907165527344,-0.581219842634386,0.14894124522126015,0.0,-5.0,0.7281208904771526,0.013770991328608505,-0.05064744732152969,-0.0006936525936121708,0.0,0.0,0.0,0.0
18.393144130706787,-0.08359135,0.5922501,-5.2033305,-0.002968809477917528,nan,nan,nan,nan,nan,8.389812707901001,9.589812707901,0.00034356117248535156,-0.5928213549629426,0.09253562070846415,0.0,-5.0,0.7278803961419335,0.016264158149866318,-0.04835304263761759,0.00039512154885411115,0.0,0.0,0.0,0.0
18.493069171905518,-0.13138115,0.56879514,-5.2044873,-0.0021737711539437828,nan,nan,nan,nan,nan,8.489762544631958,9.689762544631957,0.0003459453582763672,-0.5989831314800158,0.0349171620037209,0.0,-5.0,0.7278979335216317,0.019509107964933037,-0.04685339982648438,0.0002508339228095463,0.0,0.0,0.0,0.0
18.592908143997192,-0.1829771,0.538403,-5.205205,-0.0008021304448707495,nan,nan,nan,nan,nan,8.58964729309082,9.78964729309082,0.0003540515899658203,-0.5995594165262176,-0.022989259551832834,0.0,-5.0,0.7279573973071296,0.0248007374363048,-0.04610059742908436,-0.000501091275267212,0.0,0.0,0.0,0.0
18.692944288253784,-0.22922856,0.5110665,-5.209914,0.00030482795511468583,nan,nan,nan,nan,nan,8.68960976600647,9.889609766006469,0.00042438507080078125,-0.5945445993436127,-0.08072620015424402,0.0,-5.0,0.7278489850547899,0.02647202888631379,-0.04686077470855927,-0.0013718074401856265,0.0,0.0,0.0,0.0
18.792794466018677,-0.2752157,0.4722712,-5.2149205,0.001217503304708479,nan,nan,nan,nan,nan,8.789483070373535,9.989483070373534,0.0003647804260253906,-0.5839947093762095,-0.1376596506627726,0.0,-5.0,0.7276887316202031,0.0284375761279245,-0.046652384060890874,-0.0020039590429645577,0.0,0.0,0.0,0.0
18.89286518096924,-0.31377766,0.4332786,-5.2177267,0.0014975334256119334,nan,nan,nan,nan,nan,8.889554977416992,10.089554977416991,0.0003497600555419922,-0.5679688931426343,-0.19342010345962202,0.0,-5.0,0.727603220454921,0.02981878326021477,-0.04397893803214418,-0.0021291180994384485,0.0,0.0,0.0,0.0
18.99291205406189,-0.35263938,0.3887364,-5.218663,0.0014950949934468116,nan,nan,nan,nan,nan,8.989656209945679,10.189656209945678,0.00035262107849121094,-0.546625468621612,-0.24738754425840248,0.0,-5.0,0.7276834553937594,0.02969152862999762,-0.04129390547624617,-0.001937156014368386,0.0,0.0,0.0,0.0
19.092875242233276,-0.38414696,0.3454188,-5.2183743,0.0015685655101129094,nan,nan,nan,nan,nan,9.089574098587036,10.289574098587035,0.0003521442413330078,-0.5202210092773988,-0.29894832581301495,0.0,-5.0,0.7278802639812431,0.030190783802828015,-0.03751851580293913,-0.0017585176990641538,0.0,0.0,0.0,0.0
19.19304347038269,-0.41340154,0.29994306,-5.21971,0.0016072372286139707,nan,nan,nan,nan,nan,9.18975567817688,10.38975567817688,0.0003783702850341797,-0.4888787049352691,-0.34784710989285805,0.0,-5.0,0.727977093695242,0.028564579318780405,-0.033585951490555425,-0.001652254041221863,0.0,0.0,0.0,0.0
19.2928786277771,-0.4377539,0.25116727,-5.216737,0.0017574316215792623,nan,nan,nan,nan,nan,9.28955602645874,10.48955602645874,0.00035881996154785156,-0.4531002680866498,-0.3933193957330429,0.0,-5.0,0.7282125011714097,0.02841974545983988,-0.029427565772389037,-0.001582446586003367,0.0,0.0,0.0,0.0
19.392902135849,-0.45432574,0.198833,-5.211824,0.002600232712320437,nan,nan,nan,nan,nan,9.38958191871643,10.58958191871643,0.00035858154296875,-0.4130133405554166,-0.4352240578406201,0.0,-5.0,0.7286080943153941,0.029445281172399848,-0.02460287845790047,-0.001785407832415362,0.0,0.0,0.0,0.0
19.492923259735107,-0.46381816,0.14916673,-5.207675,0.00406813496222895,nan,nan,nan,nan,nan,9.489675045013428,10.689675045013427,0.00035071372985839844,-0.36903747733329145,-0.4730870325040419,0.0,-5.0,0.7289461228419106,0.027368288848658155,-0.014689264381046084,-0.0030973342098566514,0.0,0.0,0.0,0.0
19.59302258491516,-0.4762045,0.10225987,-5.2054725,0.003861883319210693,nan,nan,nan,nan,nan,9.589757442474365,10.789757442474365,0.0003561973571777344,-0.3216148482445025,-0.5065213612362913,0.0,-5.0,0.7291605960500711,0.02634616321662438,-0.011488544547708505,-0.0033057814910017794,0.0,0.0,0.0,0.0
19.692769050598145,-0.48344502,0.056515522,-5.2002625,0.00256583586168368,nan,nan,nan,nan,nan,9.689470529556274,10.889470529556274,0.000347137451171875,-0.2713754925703061,-0.5351218011184218,0.0,-5.0,0.7294780326139175,0.02721048212290883,-0.010318277488316143,-0.002462898406054156,0.0,0.0,0.0,0.0
19.7927143573761,-0.4844218,0.010828693,-5.195404,0.0015037414785873033,nan,nan,nan,nan,nan,9.78939437866211,10.989394378662109,0.0004191398620605469,-0.21850304368755694,-0.5587990872391199,0.0,-5.0,0.7297989072905982,0.029893877436801247,-0.009304297845864661,-0.0013471285610586537,0.0,0.0,0.0,0.0
19.89288568496704,-0.4828786,-0.044255946,-5.1907344,0.0006940811712297754,nan,nan,nan,nan,nan,9.889595031738281,11.08959503173828,0.0003504753112792969,-0.1634391286010595,-0.5773107059825985,0.0,-5.0,0.7300391499713623,0.03491847359677096,-0.006299917559009613,-0.0006805410160013363,0.0,0.0,0.0,0.0
19.993129014968872,-0.48206916,-0.09339222,-5.18798,-0.00015295416622897857,nan,nan,nan,nan,nan,9.989841222763062,11.18984122276306,0.0003533363342285156,-0.1068171118050153,-0.5904151968112227,0.0,-5.0,0.730137246022116,0.0378862843469917,-0.00637199807536538,9.784215808582117e-05,0.0,0.0,0.0,0.0
20.09305500984192,-0.46516204,-0.13968135,-5.1858034,0.00023192454946024217,nan,nan,nan,nan,nan,10.089743852615356,11.289743852615356,0.00034928321838378906,-0.04939144680169545,-0.5979636150994768,0.0,-5.0,0.7301035927012481,0.037824182815699325,-0.002551663908771614,1.133745091647227e-05,0.0,0.0,0.0,0.0
20.193120002746582,-0.44580072,-0.18591353,-5.1832395,0.0007763420078183919,nan,nan,nan,nan,nan,10.189820528030396,11.389820528030395,0.0003669261932373047,0.008595409724381579,-0.5999384292839308,0.0,-5.0,0.7300216805204366,0.0372391018131358,0.0034699679150324435,-0.0006106149398071932,0.0,0.0,0.0,0.0
20.29305124282837,-0.42184022,-0.22916563,-5.1786714,0.0011717743183335457,nan,nan,nan,nan,nan,10.289735555648804,11.489735555648803,0.0004119873046875,0.06640871352882574,-0.5963135775474564,0.0,-5.0,0.7300538696484464,0.03780689050686493,0.009315047181406385,-0.0012209699118885325,0.0,0.0,0.0,0.0
20.39278793334961,-0.39340162,-0.2713134,-5.1754704,0.0015747365383987147,nan,nan,nan,nan,nan,10.389542579650879,11.589542579650878,0.0003612041473388672,0.12354173181524364,-0.587143458194069,0.0,-5.0,0.7301944909691279,0.039679654592476965,0.015566088928832955,-0.0018273473622029126,0.0,0.0,0.0,0.0
20.493025541305542,-0.35973057,-0.3140404,-5.1757426,0.0022697141391821544,nan,nan,nan,nan,nan,10.489742040634155,11.689742040634155,0.00034809112548828125,0.17974288620907225,-0.5724443159445576,0.0,-5.0,0.7300061150303592,0.040605610617233556,0.02099616109836488,-0.0027043093858318008,0.0,0.0,0.0,0.0
20.592844009399414,-0.3260057,-0.34906742,-5.171133,0.0031726632938037357,nan,nan,nan,nan,nan,10.58957839012146,11.78957839012146,0.00037097930908203125,0.23406523429836684,-0.552461280175227,0.0,-5.0,0.7301382653855459,0.039704111624150586,0.02538330489984273,-0.003704974503741434,0.0,0.0,0.0,0.0
20.69277596473694,-0.28023455,-0.38051486,-5.1700873,0.00433421209775234,nan,nan,nan,nan,nan,10.689457178115845,11.889457178115844,0.0005042552947998047,0.2862309524709364,-0.5273251765728434,0.0,-5.0,0.7301724966087378,0.03623059192574382,0.030496003759896067,-0.004858655149408336,0.0,0.0,0.0,0.0
20.79284405708313,-0.23139088,-0.4078928,-5.1718464,0.005439963688755264,nan,nan,nan,nan,nan,10.789525985717773,11.989525985717773,0.0003490447998046875,0.3358220140021709,-0.49721582327147007,0.0,-5.0,0.7300014180556681,0.03106337379776979,0.036142490940347854,-0.006142657719106387,0.0,0.0,0.0,0.0
20.89335298538208,-0.18404068,-0.43155837,-5.175326,0.006141817897724985,nan,nan,nan,nan,nan,10.890019416809082,12.090019416809081,0.00037360191345214844,0.38246307090436915,-0.4623007672440091,0.0,-5.0,0.7297481643081277,0.027268088801843476,0.039079042379168795,-0.007049193833134738,0.0,0.0,0.0,0.0
20.993505716323853,-0.13372923,-0.45415702,-5.1802173,0.006487502006142405,nan,nan,nan,nan,nan,10.99025845527649,12.190258455276489,0.0003643035888671875,0.4253938354882585,-0.4231312854523858,0.0,-5.0,0.7293937676829089,0.027401289828364137,0.041491409265031746,-0.007682869045400041,0.0,0.0,0.0,0.0
21.09311032295227,-0.08734765,-0.47134095,-5.186388,0.005592140999071429,nan,nan,nan,nan,nan,11.089818716049194,12.289818716049194,0.0003483295440673828,0.4640843897827236,-0.380296830331252,0.0,-5.0,0.7290171818498932,0.0262193277074286,0.04160932105136218,-0.007375091705698441,0.0,0.0,0.0,0.0
21.193021297454834,-0.044912253,-0.47724032,-5.1965785,0.0050326093341631975,nan,nan,nan,nan,nan,11.189788818359375,12.389788818359374,0.0003631114959716797,0.4986121673659468,-0.3337452719584699,0.0,-5.0,0.7284449639108531,0.023161373214228814,0.0397817928652513,-0.006620803971221055,0.0,0.0,0.0,0.0
21.293095111846924,0.0068917926,-0.47980258,-5.2078876,0.004771018658087968,nan,nan,nan,nan,nan,11.289806365966797,12.489806365966796,0.0004696846008300781,0.528500346720667,-0.28405524729554754,0.0,-5.0,0.7277889937378216,0.01822522620064061,0.03882989026931304,-0.00619466573163356,0.0,0.0,0.0,0.0
21.39300036430359,0.054604083,-0.4781068,-5.2164845,0.005092939570678273,nan,nan,nan,nan,nan,11.389684915542603,12.589684915542602,0.00034880638122558594,0.5534211919609533,-0.23178650583784555,0.0,-5.0,0.7272685218036632,0.011549698912168407,0.03913037906579002,-0.0062019801535926995,0.0,0.0,0.0,0.0
21.49318027496338,0.10439759,-0.4709674,-5.2233963,0.006513766224008434,nan,nan,nan,nan,nan,11.489887475967407,12.689887475967407,0.0003464221954345703,0.5732429475541274,-0.1771793528587797,0.0,-5.0,0.7270108677469922,0.005812374714016809,0.03823655251637871,-0.00701782298007702,0.0,0.0,0.0,0.0
21.59313988685608,0.15363693,-0.45915347,-5.2260427,0.008129176803821147,nan,nan,nan,nan,nan,11.589867115020752,12.789867115020751,0.00035858154296875,0.5876647320016904,-0.12103785672830326,0.0,-5.0,0.7270367324579554,-0.0006577706072326356,0.03901258696461229,-0.008272899597740713,0.0,0.0,0.0,0.0
21.693102598190308,0.20592481,-0.4469846,-5.2256565,0.008973155464283948,nan,nan,nan,nan,nan,11.689824342727661,12.88982434272766,0.0003674030303955078,0.5966005000047767,-0.06377964717721746,0.0,-5.0,0.7272951476800047,-0.0033895763242215997,0.04022660770178783,-0.00920735591559608,0.0,0.0,0.0,0.0
21.793115854263306,0.2513517,-0.4332671,-5.2251844,0.008989709308600935,nan,nan,nan,nan,nan,11.789823532104492,12.989823532104491,0.0004253387451171875,0.5999709701421186,-0.005902117139210211,0.0,-5.0,0.7276635485501853,-0.004054088394668101,0.04087415140997313,-0.009375660525818598,0.0,0.0,0.0,0.0
21.892781734466553,0.29685834,-0.41475636,-5.2245646,0.00829675524642609,nan,nan,nan,nan,nan,11.889480590820312,13.089480590820312,0.00035643577575683594,0.5977569384985915,0.051832832035218615,0.0,-5.0,0.727927331029948,-0.004351825363359049,0.04072159620719412,-0.009016236126828671,0.0,0.0,0.0,0.0
21.992919921875,0.3352272,-0.3955598,-5.2222395,0.006582982173252719,nan,nan,nan,nan,nan,11.989696502685547,13.189696502685546,0.0003573894500732422,0.589940979673873,0.10940585222661019,0.0,-5.0,0.7282802029631371,-0.004089771715053517,0.03965701772130508,-0.0076323180488414594,0.0,0.0,0.0,0.0
22.092828512191772,0.38341382,-0.37102738,-5.2243667,0.00491806159792188,nan,nan,nan,nan,nan,12.089568614959717,13.289568614959716,0.0003559589385986328,0.5766482280522954,0.1657613377242952,0.0,-5.0,0.7283895195118771,-0.004987836211304661,0.04068553021369552,-0.006134254480378997,0.0,0.0,0.0,0.0
22.19269561767578,0.42155847,-0.35016525,-5.2268596,0.003476308509307087,nan,nan,nan,nan,nan,12.189383745193481,13.38938374519348,0.00048470497131347656,0.5579973673885087,0.22054237231764248,0.0,-5.0,0.7284083122778866,-0.0035616815568528496,0.043357607564635914,-0.00496983439774381,0.0,0.0,0.0,0.0
22.292964220046997,0.46279255,-0.32257408,-5.228772,0.0020842275241583115,nan,nan,nan,nan,nan,12.289625883102417,13.489625883102416,0.0003592967987060547,0.5340430234783002,0.27349231995461154,0.0,-5.0,0.7284127884557816,-0.004305272773732196,0.044630864173061606,-0.0036594459713341428,0.0,0.0,0.0,0.0
22.393324613571167,0.49631828,-0.2936006,-5.2293477,0.0013931275449432581,nan,nan,nan,nan,nan,12.389984369277954,13.589984369277953,0.0003681182861328125,0.505041877686581,0.323933174872245,0.0,-5.0,0.7285083198736421,-0.006190599082970656,0.0440835529102661,-0.002810712765138565,0.0,0.0,0.0,0.0
22.493234872817993,0.52377903,-0.2638702,-5.2296643,0.0010587987115524937,nan,nan,nan,nan,nan,12.489916801452637,13.689916801452636,0.00037670135498046875,0.4714443381401584,0.37113371719043253,0.0,-5.0,0.7285857524915689,-0.008303795994400235,0.04141171063963541,-0.0022406952157514493,0.0,0.0,0.0,0.0
22.593149185180664,0.54991746,-0.23266567,-5.223009,0.0009105990912730531,nan,nan,nan,nan,nan,12.589922666549683,13.789922666549682,0.00037598609924316406,0.4334215412520341,0.41490452826971086,0.0,-5.0,0.7289642841568585,-0.010785281201433973,0.037099355600523326,-0.001829387367926104,0.0,0.0,0.0,0.0
22.69305944442749,0.5693032,-0.20239992,-5.217078,0.0007354363261144053,nan,nan,nan,nan,nan,12.689784526824951,13.88978452682495,0.00042247772216796875,0.3914148350180372,0.4547465524089245,0.0,-5.0,0.729419564687827,-0.013765484123673401,0.031645512905431536,-0.0014413244464020572,0.0,0.0,0.0,0.0
22.793025255203247,0.58633435,-0.16654445,-5.210761,0.0005675287413068244,nan,nan,nan,nan,nan,12.789725065231323,13.989725065231323,0.0004203319549560547,0.3457263815624823,0.49038073890775197,0.0,-5.0,0.7297501946177768,-0.017192605369708777,0.02596486482711856,-0.0010191712356617652,0.0,0.0,0.0,0.0
22.893162727355957,0.5993603,-0.12939385,-5.2049127,0.0005678735655022752,nan,nan,nan,nan,nan,12.889853477478027,14.089853477478027,0.0004019737243652344,0.2967191062629742,0.5214957065772468,0.0,-5.0,0.7300520872611449,-0.022279166982308352,0.021612141410794063,-0.000803236270820533,0.0,0.0,0.0,0.0
22.993178129196167,0.6111787,-0.0835783,-5.2018914,4.3500775907772196e-05,nan,nan,nan,nan,nan,12.989970207214355,14.189970207214355,0.0004239082336425781,0.24494051596939587,0.5477263400975401,0.0,-5.0,0.7301238247922508,-0.030464973106463962,0.019026649661175357,-0.0003177472557720289,0.0,0.0,0.0,0.0
23.09281039237976,0.61440295,-0.04350959,-5.202037,-0.00037787664017662967,nan,nan,nan,nan,nan,13.089507102966309,14.289507102966308,0.0003788471221923828,0.19118843986169348,0.5687239932192518,0.0,-5.0,0.7299968474953394,-0.03731783136343152,0.016057548058089434,0.00022057310544064577,0.0,0.0,0.0,0.0
23.192867517471313,0.6158791,0.00042131316,-5.202073,-0.0008697769148527067,nan,nan,nan,nan,nan,13.189564943313599,14.389564943313598,0.0003800392150878906,0.13537343848850628,0.5845288976190985,0.0,-5.0,0.729796629329174,-0.042185110729939426,0.012130704061095803,0.000657874993667973,0.0,0.0,0.0,0.0
23.292731046676636,0.613995,0.043944776,-5.2020087,-0.0014249384740281429,nan,nan,nan,nan,nan,13.289441347122192,14.489441347122192,0.0003643035888671875,0.07839736014030546,0.5948561623813199,0.0,-5.0,0.7296614929464763,-0.04706438388171636,0.009056523790898073,0.0011660448703596795,0.0,0.0,0.0,0.0
23.392996788024902,0.6071903,0.09468237,-5.199706,-0.0021015767985814145,nan,nan,nan,nan,nan,13.389676809310913,14.589676809310912,0.00034046173095703125,0.020482987295247005,0.5996502707674388,0.0,-5.0,0.7295696613163308,-0.05452801500109685,0.0055132225576111134,0.0017369506691168402,0.0,0.0,0.0,0.0
23.493146896362305,0.5987397,0.13940004,-5.1874294,-0.002504622639287851,nan,nan,nan,nan,nan,13.48984956741333,14.68984956741333,0.0003502368927001953,-0.03758723464047383,0.5988215091261184,0.0,-5.0,0.7302256338309178,-0.059451585098194364,0.002181232918014787,0.0020862397899909214,0.0,0.0,0.0,0.0
23.59293818473816,0.57490027,0.19079797,-5.181283,-0.003198994434860108,nan,nan,nan,nan,nan,13.589648485183716,14.789648485183715,0.0003497600555419922,-0.09509122630924051,0.5924167947307071,0.0,-5.0,0.73061670117192,-0.06366274712540021,-0.0026621822241356605,0.0023500299745460706,0.0,0.0,0.0,0.0
23.693016052246094,0.54563886,0.23617475,-5.180425,-0.0033112149844559064,nan,nan,nan,nan,nan,13.689720630645752,14.889720630645751,0.00033926963806152344,-0.15186425466316664,0.5804629601926387,0.0,-5.0,0.7306019083340282,-0.06635114630986738,-0.012757041565818597,0.002259832414157751,0.0,0.0,0.0,0.0
23.792909383773804,0.508165,0.2795891,-5.181364,-0.002705687583000183,nan,nan,nan,nan,nan,13.789652109146118,14.989652109146117,0.0004417896270751953,-0.2071407554554395,0.5631098537846321,0.0,-5.0,0.730328800990097,-0.06586741464525565,-0.0229566182668234,0.00128906938769936,0.0,0.0,0.0,0.0
23.893009901046753,0.4621586,0.3216018,-5.1819377,-0.0017703360082858399,nan,nan,nan,nan,nan,13.889717102050781,15.08971710205078,0.0003459453582763672,-0.260555642348036,0.5404727164627298,0.0,-5.0,0.7300635801869413,-0.06292691206887942,-0.036202399280173325,-0.00038712873044683327,0.0,0.0,0.0,0.0
23.992867469787598,0.41243964,0.358836,-5.181293,-0.0008388543994672561,nan,nan,nan,nan,nan,13.989553928375244,15.189553928375243,0.0003528594970703125,-0.31142152582849203,0.5128514728950808,0.0,-5.0,0.7299479930689255,-0.05686627359353832,-0.04571690425443995,-0.001862947369728896,0.0,0.0,0.0,0.0
24.09304690361023,0.36648852,0.38944092,-5.1790853,-0.0004735413367480852,nan,nan,nan,nan,nan,14.089853525161743,15.289853525161742,0.0003666877746582031,-0.35960411351082583,0.48029665993643245,0.0,-5.0,0.729992122495439,-0.048856523768769144,-0.0511857565591156,-0.002780547864541243,0.0,0.0,0.0,0.0
24.193063497543335,0.31184483,0.4236516,-5.1761694,-0.0007189457102803262,nan,nan,nan,nan,nan,14.189748287200928,15.389748287200927,0.00034880638122558594,-0.40423556120540943,0.443388780932657,0.0,-5.0,0.7301318874432035,-0.04306097423816305,-0.053306149948363545,-0.0030177313019949218,0.0,0.0,0.0,0.0
24.292990922927856,0.2569326,0.454466,-5.17463,-0.0012823433076879845,nan,nan,nan,nan,nan,14.289742946624756,15.489742946624755,0.0004100799560546875,-0.44513955480589296,0.4023068191656852,0.0,-5.0,0.73023909193609,-0.04043159380250189,-0.056198635143990434,-0.0028918152757518643,0.0,0.0,0.0,0.0
24.392726182937622,0.19337158,0.48308715,-5.175364,-0.0018555742185760934,nan,nan,nan,nan,nan,14.389424085617065,15.589424085617065,0.0003571510314941406,-0.48177948626133327,0.35761505367890445,0.0,-5.0,0.7301407045341877,-0.03713608198543628,-0.059843049249395416,-0.002767087331606343,0.0,0.0,0.0,0.0
24.49283480644226,0.12438869,0.5077547,-5.173643,-0.002203319515220563,nan,nan,nan,nan,nan,14.489667415618896,15.689667415618896,0.0003523826599121094,-0.5141179665566381,0.30932622983456726,0.0,-5.0,0.7301946939278786,-0.034097582503196444,-0.06361056541823983,-0.0027752721991913783,0.0,0.0,0.0,0.0
24.59373450279236,0.06005136,0.5216849,-5.169559,-0.0020298497809126785,nan,nan,nan,nan,nan,14.590722799301147,15.790722799301147,0.0007030963897705078,-0.5418353559333403,0.25771000574403463,0.0,-5.0,0.730374758501354,-0.029282831545754177,-0.06579593728826608,-0.0029061746996787694,0.0,0.0,0.0,0.0
24.693622589111328,-0.0038687678,0.53189784,-5.16896,-0.0017801031448615653,nan,nan,nan,nan,nan,14.690685033798218,15.890685033798217,0.0003540515899658203,-0.5641710183755889,0.20423286225544335,0.0,-5.0,0.7304800449614605,-0.022462996010593855,-0.06612242946479445,-0.003076574025076341,0.0,0.0,0.0,0.0
24.79305601119995,-0.061241407,0.5375952,-5.1716657,-0.001629086031511101,nan,nan,nan,nan,nan,14.789804220199585,15.989804220199584,0.0004303455352783203,-0.5811216476308348,0.14932391186552726,0.0,-5.0,0.730285206659255,-0.01792308575284352,-0.06477634055352612,-0.0030575340377216684,0.0,0.0,0.0,0.0
24.89368724822998,-0.12671989,0.5368668,-5.178027,-0.0014750975306259337,nan,nan,nan,nan,nan,14.890774726867676,16.090774726867675,0.0008559226989746094,-0.5929071502511964,0.09198429855690084,0.0,-5.0,0.729841553425557,-0.012176072400606726,-0.0624044692906012,-0.002885279880554852,0.0,0.0,0.0,0.0
24.99377703666687,-0.18075055,0.52909946,-5.1927867,-0.0014369469591295862,nan,nan,nan,nan,nan,14.990692853927612,16.19069285392761,0.0005614757537841797,-0.5990142895054187,0.03437849572506687,0.0,-5.0,0.7289811835882448,-0.004704639476993538,-0.05779529085776657,-0.0024062327219479636,0.0,0.0,0.0,0.0
25.093832969665527,-0.23348303,0.5150059,-5.2031193,-0.0016294050517924492,nan,nan,nan,nan,nan,15.090843915939331,16.29084391593933,0.0004088878631591797,-0.599532423570472,-0.023682759292704747,0.0,-5.0,0.7282856572237975,0.0017632853069122322,-0.0517628689500931,-0.0017275248193128472,0.0,0.0,0.0,0.0
25.19302773475647,-0.277132,0.49624547,-5.2095985,-0.0018115525260920563,nan,nan,nan,nan,nan,15.18982195854187,16.38982195854187,0.0003814697265625,-0.5945280287131333,-0.08084814824395042,0.0,-5.0,0.7279477518221383,0.009658667632742394,-0.04425277837724905,-0.000820681409212121,0.0,0.0,0.0,0.0
25.29289674758911,-0.31975734,0.4693162,-5.2158265,-0.0016433304474758187,nan,nan,nan,nan,nan,15.289644479751587,16.489644479751586,0.000457763671875,-0.5839732238673045,-0.13775076698888844,0.0,-5.0,0.7277252537859192,0.017832131764896404,-0.03572067611678297,-0.00022406571823669334,0.0,0.0,0.0,0.0
25.393022775650024,-0.3551001,0.43816558,-5.2216144,-0.0014700793014869075,nan,nan,nan,nan,nan,15.389750480651855,16.589750480651855,0.00037741661071777344,-0.5679323300810121,-0.19352743590703708,0.0,-5.0,0.7275173803685405,0.02546504687571821,-0.028438324865531404,0.00016997147531798488,0.0,0.0,0.0,0.0
25.49361276626587,-0.39038858,0.40107217,-5.2254076,-0.0012528433280436548,nan,nan,nan,nan,nan,15.490383863449097,16.690383863449096,0.00036978721618652344,-0.5464513255155531,-0.24777196944427557,0.0,-5.0,0.7274850636373941,0.03213794967293809,-0.023272816016196567,0.00036105842863208435,0.0,0.0,0.0,0.0
25.59322714805603,-0.41632682,0.36274403,-5.2279754,-0.001081693207940753,nan,nan,nan,nan,nan,15.58994197845459,16.78994197845459,0.00039887428283691406,-0.5201146677230608,-0.299133302090105,0.0,-5.0,0.7275843413556351,0.037728229474399536,-0.019131500070064745,0.000491032151043525,0.0,0.0,0.0,0.0
25.692835092544556,-0.4396662,0.31850883,-5.2277308,-0.0007776568285821524,nan,nan,nan,nan,nan,15.689534902572632,16.88953490257263,0.0003676414489746094,-0.4889529283369685,-0.34774276968860657,0.0,-5.0,0.7277490511701056,0.0421400950863014,-0.014673807609692929,0.0005124108749898766,0.0,0.0,0.0,0.0
25.79288363456726,-0.45961007,0.27193558,-5.2258663,-0.00021660742074929018,nan,nan,nan,nan,nan,15.789636373519897,16.989636373519897,0.0004513263702392578,-0.45306971878415037,-0.39335458548344243,0.0,-5.0,0.7281648316440495,0.044379234649053044,-0.011156449802143798,0.0002742376364162018,0.0,0.0,0.0,0.0
25.893420696258545,-0.47415933,0.22459489,-5.228093,0.0007788535722085717,nan,nan,nan,nan,nan,15.890186786651611,17.09018678665161,0.0004322528839111328,-0.4127587979930916,-0.4354654689861162,0.0,-5.0,0.728225353879718,0.0470046975182949,-0.008674187331675581,-0.00041230594203285154,0.0,0.0,0.0,0.0
25.993701934814453,-0.48331538,0.18018304,-5.229021,0.002088349000079948,nan,nan,nan,nan,nan,15.990678548812866,17.190678548812866,0.00037479400634765625,-0.3685783947786114,-0.4734447875966343,0.0,-5.0,0.7283249977697317,0.04688385977162111,-0.006755193952161443,-0.0013941795064406856,0.0,0.0,0.0,0.0
26.093246698379517,-0.48863724,0.12909365,-5.230867,0.002987602361405472,nan,nan,nan,nan,nan,16.090004444122314,17.290004444122314,0.0004131793975830078,-0.32149390070369,-0.5065981364062898,0.0,-5.0,0.7284478893797246,0.045447920561695485,-0.005995750829874359,-0.002269411488422408,0.0,0.0,0.0,0.0
26.193126440048218,-0.48790902,0.080097176,-5.230693,0.003327152577150946,nan,nan,nan,nan,nan,16.189902782440186,17.389902782440185,0.0004112720489501953,-0.27115187647824834,-0.5352351444760749,0.0,-5.0,0.7285155862561458,0.045801591490959734,-0.00475644051242389,-0.0026369158564699966,0.0,0.0,0.0,0.0
26.293027639389038,-0.48159215,0.029832618,-5.2277036,0.0036302068853162383,nan,nan,nan,nan,nan,16.289855241775513,17.489855241775512,0.0004520416259765625,-0.21825408232078927,-0.5588963728190675,0.0,-5.0,0.7288106231274288,0.04536574374281282,-0.002850622325409694,-0.0029341199807279388,0.0,0.0,0.0,0.0
26.393107175827026,-0.47040373,-0.025607588,-5.2233133,0.0041796645293474205,nan,nan,nan,nan,nan,16.38993191719055,17.58993191719055,0.0004467964172363281,-0.16325111970839004,-0.5773638990393813,0.0,-5.0,0.7291859123983856,0.04783098779847198,0.0007704286934113278,-0.0034137933568747746,0.0,0.0,0.0,0.0
26.493425607681274,-0.45454726,-0.08755081,-5.225223,0.004582684217751055,nan,nan,nan,nan,nan,16.490225076675415,17.690225076675414,0.0003871917724609375,-0.10659803087425848,-0.590454790660327,0.0,-5.0,0.7292983293848884,0.05057389296456293,0.003797133807835846,-0.003884666206003273,0.0,0.0,0.0,0.0
26.593194246292114,-0.4336552,-0.14438663,-5.227386,0.004659467800694437,nan,nan,nan,nan,nan,16.589913368225098,17.789913368225097,0.00037384033203125,-0.049293463086177325,-0.5979717004148036,0.0,-5.0,0.7292502664246883,0.05332268085663015,0.007030942683704663,-0.0042015456515413635,0.0,0.0,0.0,0.0
26.69367241859436,-0.40621582,-0.2043334,-5.2270427,0.0044342725265677655,nan,nan,nan,nan,nan,16.690616607666016,17.890616607666015,0.00038313865661621094,0.009057075064676037,-0.599931637264841,0.0,-5.0,0.7292359030040899,0.05530032222426038,0.010059756154879435,-0.004278693193053748,0.0,0.0,0.0,0.0
26.79318404197693,-0.37830848,-0.25800082,-5.2231445,0.0040847599147368656,nan,nan,nan,nan,nan,16.790040016174316,17.990040016174316,0.0004329681396484375,0.06658420866272655,-0.5962940073124653,0.0,-5.0,0.7295232117426775,0.05580216851994289,0.012771594516130549,-0.004189835949051861,0.0,0.0,0.0,0.0
26.892885208129883,-0.3442879,-0.31636414,-5.219861,0.0037701639253172013,nan,nan,nan,nan,nan,16.889688730239868,18.089688730239867,0.00034427642822265625,0.12362467961138661,-0.587125998905671,0.0,-5.0,0.7297841346174511,0.05658419296966964,0.016047990365409548,-0.004181432231163618,0.0,0.0,0.0,0.0
26.99302315711975,-0.313271,-0.36911693,-5.221007,0.0033476940275088754,nan,nan,nan,nan,nan,16.98980736732483,18.18980736732483,0.0004074573516845703,0.17977903436204493,-0.5724329644629584,0.0,-5.0,0.7298673665993348,0.05745166780184015,0.01830963247755983,-0.004094156485451899,0.0,0.0,0.0,0.0
27.09304904937744,-0.28242835,-0.41374066,-5.2217937,0.003081627101882197,nan,nan,nan,nan,nan,17.090173482894897,18.290173482894897,0.00040149688720703125,0.23438299492543802,-0.5523265444370585,0.0,-5.0,0.7298534372343022,0.05721140689106399,0.018822534219228883,-0.003910263122003071,0.0,0.0,0.0,0.0
27.193450927734375,-0.24256726,-0.46309057,-5.22216,0.0030010744981057366,nan,nan,nan,nan,nan,17.19039225578308,18.39039225578308,0.0007297992706298828,0.2867074779125116,-0.5270662407222139,0.0,-5.0,0.7298685960650795,0.05440042080022736,0.0203442178160973,-0.004040920285177661,0.0,0.0,0.0,0.0
27.292946815490723,-0.20406462,-0.50913763,-5.2225876,0.002553261463015953,nan,nan,nan,nan,nan,17.289807319641113,18.489807319641113,0.0005185604095458984,0.33595721928579225,-0.49712447818404404,0.0,-5.0,0.7298967971681057,0.05387996522077469,0.02200876884747073,-0.003939248976706428,0.0,0.0,0.0,0.0
27.393712759017944,-0.16205926,-0.5524948,-5.227904,0.0022265154837969106,nan,nan,nan,nan,nan,17.390454053878784,18.590454053878783,0.0004715919494628906,0.3826572678495743,-0.4621400386916277,0.0,-5.0,0.7296908815567199,0.05081008590434206,0.02388652431769699,-0.0038471267192371574,0.0,0.0,0.0,0.0
27.492865800857544,-0.114642344,-0.583495,-5.2356267,0.0024719048748050518,nan,nan,nan,nan,nan,17.489668369293213,18.689668369293212,0.0003294944763183594,0.4251524109385351,-0.4233738625295035,0.0,-5.0,0.7293297183560371,0.04461679388223257,0.026035907174332247,-0.004067163826958912,0.0,0.0,0.0,0.0
27.592780828475952,-0.06857198,-0.6042473,-5.2445617,0.0028918317674968344,nan,nan,nan,nan,nan,17.58951449394226,18.78951449394226,0.0003802776336669922,0.4639725341392395,-0.3804332892432157,0.0,-5.0,0.7288418498458274,0.03393148934778732,0.029953148192493638,-0.004677246470372034,0.0,0.0,0.0,0.0
27.69270420074463,-0.02155452,-0.619279,-5.25267,0.003194873731246113,nan,nan,nan,nan,nan,17.68942093849182,18.88942093849182,0.0003693103790283203,0.4984934530769512,-0.3339225617406189,0.0,-5.0,0.7283057266438938,0.02277660168082244,0.034038983637910296,-0.005190414666982469,0.0,0.0,0.0,0.0
27.79300856590271,0.029188199,-0.6314301,-5.255616,0.0034947153581343857,nan,nan,nan,nan,nan,17.789819717407227,18.989819717407226,0.00040912628173828125,0.5285040127187722,-0.2840484263997178,0.0,-5.0,0.7282287439770949,0.013862891156795377,0.03726748198911716,-0.005567669576844946,0.0,0.0,0.0,0.0
27.892706871032715,0.08290633,-0.63709456,-5.263305,0.0034486641017847375,nan,nan,nan,nan,nan,17.889415740966797,19.089415740966796,0.0004031658172607422,0.5533608633153972,-0.2319304959483297,0.0,-5.0,0.7280522919008733,0.006257006106381902,0.040370535405629196,-0.0056988348854172845,0.0,0.0,0.0,0.0
27.993199348449707,0.13520473,-0.63506424,-5.2641993,0.0033453767379054214,nan,nan,nan,nan,nan,17.98996376991272,19.18996376991272,0.0004734992980957031,0.5732560128088228,-0.17713707623908334,0.0,-5.0,0.7280680254505526,-0.0004742947589339098,0.044294559467116315,-0.005689810430732516,0.0,0.0,0.0,0.0
28.092884063720703,0.18796462,-0.6262536,-5.2630153,0.0032020899355923588,nan,nan,nan,nan,nan,18.089815139770508,19.289815139770507,0.00039649009704589844,0.5876586501294669,-0.12106738176739712,0.0,-5.0,0.7283295218063588,-0.00623391614816062,0.04820890995557337,-0.005615655216773434,0.0,0.0,0.0,0.0
28.193253755569458,0.24501635,-0.60797864,-5.2621374,0.0030272744758797036,nan,nan,nan,nan,nan,18.19019055366516,19.39019055366516,0.0003681182861328125,0.5966230403357772,-0.0635684492534899,0.0,-5.0,0.7286002630402417,-0.013420339133883066,0.05219461018890675,-0.0054077958104535445,0.0,0.0,0.0,0.0
28.29293394088745,0.29687667,-0.5820427,-5.2630534,0.0030645418989659265,nan,nan,nan,nan,nan,18.289713859558105,19.489713859558105,0.0005121231079101562,0.5999703410617728,-0.00596572260668899,0.0,-5.0,0.7287011164777537,-0.02228566866939337,0.055485524859196556,-0.005153331789334007,0.0,0.0,0.0,0.0
28.39332628250122,0.35679638,-0.55199903,-5.26125,0.0024342709059865172,nan,nan,nan,nan,nan,18.390040397644043,19.590040397644042,0.0005052089691162109,0.5977288024807895,0.05215629094252472,0.0,-5.0,0.7289720615174308,-0.02753901856599829,0.0589300830078683,-0.00458718521037326,0.0,0.0,0.0,0.0
28.49341368675232,0.41250625,-0.52217543,-5.2594533,0.001549025387999125,nan,nan,nan,nan,nan,18.49011468887329,19.69011468887329,0.0004801750183105469,0.5898967055675142,0.10964431932660043,0.0,-5.0,0.729267421914054,-0.029278855287644814,0.062160162070641324,-0.003733817777088133,0.0,0.0,0.0,0.0
28.59295392036438,0.46690744,-0.48610204,-5.2614427,0.0005568908899243122,nan,nan,nan,nan,nan,18.589687824249268,19.789687824249267,0.0005023479461669922,0.5766291230588669,0.16582778548953145,0.0,-5.0,0.7294130200300583,-0.028731733757758206,0.06326680663071602,-0.0027295311741462307,0.0,0.0,0.0,0.0
28.693126440048218,0.50830334,-0.45166534,-5.2653456,-8.347789328047237e-05,nan,nan,nan,nan,nan,18.689929723739624,19.889929723739623,0.00043010711669921875,0.5578808947340462,0.2208368340896508,0.0,-5.0,0.729174781309892,-0.028037398481889027,0.060544177040571225,-0.0017531138248341948,0.0,0.0,0.0,0.0
28.792800903320312,0.5627355,-0.40054753,-5.267562,-0.0008398918129490403,nan,nan,nan,nan,nan,18.78950333595276,19.989503335952758,0.0005617141723632812,0.5340754174820679,0.27342905559094266,0.0,-5.0,0.729076105277431,-0.03292768271502062,0.05896711321796861,-0.0006807619897101807,0.0,0.0,0.0,0.0
28.8928964138031,0.60797423,-0.35509056,-5.274391,-0.001165319218423451,nan,nan,nan,nan,nan,18.889601230621338,20.089601230621337,0.0009121894836425781,0.5051618144976585,0.32374610603593856,0.0,-5.0,0.7288484599322927,-0.03599586409776355,0.0560826173635701,8.299755984727721e-05,0.0,0.0,0.0,0.0
28.99312138557434,0.65121835,-0.3006538,-5.2778606,-0.0015952707540529704,nan,nan,nan,nan,nan,18.989856481552124,20.189856481552123,0.0005064010620117188,0.4714659773528517,0.3711062276474491,0.0,-5.0,0.7286967490476001,-0.03768987471206723,0.051702268163080094,0.0006894457339060113,0.0,0.0,0.0,0.0
29.092841863632202,0.6862986,-0.24756634,-5.2768245,-0.002212837301383762,nan,nan,nan,nan,nan,19.089701890945435,20.289701890945434,0.00044417381286621094,0.43351007673334996,0.4148120217286922,0.0,-5.0,0.7288063426901439,-0.04187914156734317,0.04523090526006018,0.0015568142309768497,0.0,0.0,0.0,0.0
29.192705631256104,0.71864474,-0.1889127,-5.2724495,-0.00321770236753674,nan,nan,nan,nan,nan,19.18945050239563,20.38945050239563,0.0005884170532226562,0.39156164439557933,0.4546201476378162,0.0,-5.0,0.7291912730500304,-0.04439734601118854,0.03944248368193886,0.0026153763302021807,0.0,0.0,0.0,0.0
29.292816638946533,0.73859423,-0.12915075,-5.270391,-0.003984777879471331,nan,nan,nan,nan,nan,19.289539575576782,20.48953957557678,0.0005393028259277344,0.34581430246849376,0.4903187414409418,0.0,-5.0,0.7293429944982843,-0.04579843371851801,0.03098115184956211,0.003464397739450237,0.0,0.0,0.0,0.0
29.392808198928833,0.74973965,-0.07459071,-5.2718415,-0.0045128793463105185,nan,nan,nan,nan,nan,19.389565467834473,20.589565467834472,0.0005497932434082031,0.29686428060773196,0.5214130789491704,0.0,-5.0,0.7292967754757483,-0.046031746501347656,0.021141296325632303,0.003991657112090325,0.0,0.0,0.0,0.0
29.49283480644226,0.753084,-0.018335743,-5.2716327,-0.004983301669000252,nan,nan,nan,nan,nan,19.48955750465393,20.68955750465393,0.0005364418029785156,0.245159004452115,0.5476285808246752,0.0,-5.0,0.7292258453032485,-0.04611297582151267,0.011107328542812473,0.00429227492409418,0.0,0.0,0.0,0.0
29.5932297706604,0.7484309,0.044539034,-5.273325,-0.0054671956586779275,nan,nan,nan,nan,nan,19.590092182159424,20.790092182159423,0.0005092620849609375,0.19086675992378507,0.5688320314083906,0.0,-5.0,0.7292104627671622,-0.04728828200952238,0.0011282111423574907,0.004495750379795832,0.0,0.0,0.0,0.0
29.692644834518433,0.7381896,0.09844147,-5.277076,-0.005769051734185061,nan,nan,nan,nan,nan,19.68938899040222,20.88938899040222,0.0005753040313720703,0.1354728554303416,0.5845058643346102,0.0,-5.0,0.7288603324854479,-0.0501157601836379,-0.008335917707008636,0.00453073363188531,0.0,0.0,0.0,0.0
