time,x,y,z,yaw,platform,trajectory,traj_double,traj_short,traj_spin,traj_time,ref_time,comptime,x_ref,y_ref,yaw_ref,z_ref,throttle_input,p_input,q_input,r_input,cbf_term_pitch_cbf,cbf_term_roll_cbf,cbf_term_thrust_cbf,cbf_term_yaw_cbf
10.001013994216919,0.017013421,0.000167411,-2.683556,-0.00016630685306684,SIM,TRIANGLE,DblSpd,Not Short,NoSpin,9.5367431640625e-07,1.2000009536743164,0.009748220443725586,0.04800003814697266,0.2632716566779746,0.0,-5.0,0.7719601883111019,0.007999999999999998,-0.003964986398922768,5.225973009719246e-05,0.0,-2.1995688888775646,0.0,0.0
10.130748987197876,0.018777458,0.0036935324,-2.6889215,2.1509990678156494e-05,nan,nan,nan,nan,nan,0.1297140121459961,1.329714012145996,0.0003628730773925781,0.05318856048583984,0.2542848723708505,0.0,-5.0,0.8012734909704272,0.06644976549240683,-0.013415416649938193,0.0005588916713338693,0.0,0.0,-65.67875700814164,0.0
10.230707883834839,0.020910894,0.006027377,-2.7062454,0.00017433464206814556,nan,nan,nan,nan,nan,0.22967195510864258,1.4296719551086425,0.00036454200744628906,0.057186878204345704,0.2473595829375955,0.0,-5.0,0.8089827294775667,0.06202387346046171,-0.012929270908734665,0.0004037694424598416,0.0,0.0,-34.74069198984238,0.0
10.330746173858643,0.02288497,0.011752869,-2.7471833,0.0003368422671864999,nan,nan,nan,nan,nan,0.3297562599182129,1.5297562599182128,0.0003693103790283203,0.06119025039672852,0.24042553889878004,0.0,-5.0,0.8157114020265491,0.04084196354508001,-0.01066472301001028,0.00010499961652415413,0.0,0.0,0.0,0.0
10.430792808532715,0.025513818,0.019827042,-2.804576,0.0003708183343467753,nan,nan,nan,nan,nan,0.42986035346984863,1.6298603534698486,0.00037097930908203125,0.06519441413879394,0.23349012385569762,0.0,-5.0,0.8057200187767205,0.018318085894394612,-0.007960958839565106,-0.00010831796119313165,0.0,0.0,0.0,0.0
10.53058385848999,0.026704231,0.031523403,-2.8852105,0.0001072348839109491,nan,nan,nan,nan,nan,0.5295453071594238,1.7295453071594238,0.0003762245178222656,0.06918181228637696,0.22658374767407782,0.0,-5.0,0.7909438858684922,-0.0027354140098819362,-0.005543468026620175,-6.66139437219467e-05,0.0,0.0,0.0,0.0
10.631278991699219,0.025242796,0.041896686,-2.9774814,-1.914856018165635e-05,nan,nan,nan,nan,nan,0.6302509307861328,1.8302509307861328,0.00036644935607910156,0.07321003723144531,0.21960665740490307,0.0,-5.0,0.7768460002684153,-0.01952278558171306,-0.004823853596968307,3.169365880536111e-05,0.0,0.0,0.0,0.0
10.731524467468262,0.023128364,0.05424427,-3.0921206,-2.8230438203890457e-06,nan,nan,nan,nan,nan,0.7304844856262207,1.9304844856262207,0.00038909912109375,0.07721937942504883,0.21266227302065213,0.0,-5.0,0.7654123417607401,-0.030502128089199772,-0.005611414659999826,4.384320327573827e-05,0.0,0.0,1.0581743774060417,0.0
10.830930709838867,0.020552108,0.06959568,-3.2144654,0.00034002787994641317,nan,nan,nan,nan,nan,0.8300042152404785,2.0300042152404787,0.0003807544708251953,0.08120016860961915,0.20576734389875564,0.0,-5.0,0.7553217020881356,-0.03848354271643257,-0.00622058632812936,-0.00019527304234716645,0.0,0.0,5.25579012390928,0.0
10.9307541847229,0.0137258805,0.08521445,-3.3182507,0.0006256665309137925,nan,nan,nan,nan,nan,0.9296920299530029,2.129692029953003,0.0003650188446044922,0.08518768119812013,0.19886076949965148,0.0,-5.0,0.7460799473208268,-0.04417726704831414,-0.008582989120579795,-0.0005734465970223553,0.0,0.0,6.723562689249118,0.0
11.030880689620972,0.010373116,0.10151008,-3.4345803,0.0008124133108006848,nan,nan,nan,nan,nan,1.02988862991333,2.2298886299133303,0.0004858970642089844,0.08919554519653322,0.19191894542457386,0.0,-5.0,0.7376234975371271,-0.04703988540909824,-0.010086196217260852,-0.0008564492135316462,0.0,0.0,9.148771348098581,0.0
11.131470441818237,0.0059075803,0.12019276,-3.5680792,0.006456900559444279,nan,nan,nan,nan,nan,1.1307365894317627,2.330736589431763,0.0007431507110595703,0.09322946357727052,0.18493199383555084,0.0,-5.0,0.7298924099029771,-0.04717362609537774,-0.009527947142918606,-0.00516917183545425,0.0,0.0,10.316325037423594,0.0
11.230705976486206,0.00080439047,0.13884014,-3.6956398,0.0004488328243537811,nan,nan,nan,nan,nan,1.2296745777130127,2.429674577713013,0.00036716461181640625,0.09718698310852053,0.17807736893547968,0.0,-5.0,0.7228303211576157,-0.04595950974918059,-0.010013076719873464,-0.002168561670536949,0.0,0.0,12.347861740835938,0.0
11.330675840377808,-0.0020994612,0.15942861,-3.8339298,-0.004568257278720888,nan,nan,nan,nan,nan,1.329685926437378,2.529685926437378,0.0004038810729980469,0.10118743705749514,0.1711483794425161,0.0,-5.0,0.7163843714461509,-0.04324766777511255,-0.009353113849571095,0.002231879108523081,0.0,0.0,12.835475640702285,0.0
11.430797100067139,-0.0030995063,0.17619446,-3.9571164,-0.00509359232179423,nan,nan,nan,nan,nan,1.429800033569336,2.629800033569336,0.0004127025604248047,0.10519200134277346,0.16421227063823832,0.0,-5.0,0.7105051110867499,-0.03770206725011477,-0.007329957797188066,0.004102727345243194,0.0,0.0,13.306537318364086,0.0
11.531239986419678,-0.005122152,0.19570042,-4.086703,-0.0026159871227063834,nan,nan,nan,nan,nan,1.5304663181304932,2.7304663181304933,0.0004379749298095703,0.10921865272521974,0.1572379058594739,0.0,-5.0,0.7051463922767754,-0.03180444823121493,-0.0050034730282611595,0.002898863926601925,0.0,0.0,12.284821039537153,0.0
11.631072998046875,-0.008672558,0.21304512,-4.2012925,0.001847494369977139,nan,nan,nan,nan,nan,1.630122184753418,2.830122184753418,0.0005307197570800781,0.11320488739013673,0.15033354488894538,0.0,-5.0,0.7002652480108736,-0.026209555251240056,-0.003375919135096007,-0.00041793832875237013,0.0,0.0,10.870247555315277,0.0
11.730987548828125,-0.011318052,0.23011486,-4.318172,0.006389252739970526,nan,nan,nan,nan,nan,1.7299854755401611,2.9299854755401613,0.0003807544708251953,0.11719941902160647,0.14341481315079876,0.0,-5.0,0.6958217606188798,-0.019539075143347472,-0.0036239600797884687,-0.004245382436280034,0.0,0.0,8.169154779724643,0.0
11.831030130386353,-0.008469044,0.24508318,-4.4153447,0.008646224639652889,nan,nan,nan,nan,nan,1.8304483890533447,3.030448389053345,0.00038552284240722656,0.12121793556213381,0.1364545383315495,0.0,-5.0,0.69177892235148,-0.013344866136978382,-0.0006487237655581478,-0.006913034003107446,0.0,0.0,3.9615306083444075,0.0
11.930863857269287,-0.001742501,0.25501603,-4.500307,0.009676469662363725,nan,nan,nan,nan,nan,1.9298882484436035,3.1298882484436037,0.0003771781921386719,0.12519552993774416,0.12956514278109216,0.0,-5.0,0.6883572795869178,-0.006767238593577753,0.004112786124931722,-0.00782165985596613,0.0,0.0,0.0,0.0
12.030694961547852,0.0014615923,0.26545766,-4.5944552,0.011531257587238929,nan,nan,nan,nan,nan,2.029742956161499,3.229742956161499,0.0003781318664550781,0.12918971824645997,0.12264700569539876,0.0,-5.0,0.6882213657830721,0.0003243552084771449,0.008006121772069686,-0.008996508657746552,0.0,0.0,0.0,0.0
12.132681131362915,0.0057523693,0.27222294,-4.6727076,0.013777121985291503,nan,nan,nan,nan,nan,2.1320154666900635,3.3320154666900637,0.0007328987121582031,0.13328061866760255,0.1155613583172749,0.0,-5.0,0.689106420092985,0.006770686577142914,0.00942329316509326,-0.010910569741371496,0.0,0.0,0.0,0.0
12.230971813201904,0.016790481,0.27468213,-4.7466774,0.015831228950401094,nan,nan,nan,nan,nan,2.2299911975860596,3.4299911975860597,0.00038623809814453125,0.13719964790344238,0.10877340056445246,0.0,-5.0,0.6905455806469948,0.0128196240351519,0.012908597357756468,-0.012649680094879774,0.0,0.0,0.0,0.0
12.330882549285889,0.03041352,0.27134725,-4.8087893,0.016168242692545957,nan,nan,nan,nan,nan,2.3299524784088135,3.5299524784088137,0.0004634857177734375,0.14119809913635256,0.10184787987746564,0.0,-5.0,0.6922625392526162,0.020419946990205377,0.017594598864956033,-0.013393061744365648,0.0,0.0,0.0,0.0
12.430692911148071,0.0450143,0.26643696,-4.867122,0.015095341302056985,nan,nan,nan,nan,nan,2.4296488761901855,3.6296488761901857,0.0004010200500488281,0.14518595504760742,0.09494071082590831,0.0,-5.0,0.6941405217953189,0.025834043400738,0.020630609426653682,-0.012831310697709672,0.0,0.0,0.0,0.0
12.530838966369629,0.06178541,0.25960875,-4.913243,0.014910804012010531,nan,nan,nan,nan,nan,2.529876470565796,3.729876470565796,0.00038623809814453125,0.14919505882263184,0.08799673939474983,0.0,-5.0,0.6961765373390102,0.028766840483579293,0.02274158104436612,-0.012328076335401781,0.0,0.0,0.0,0.0
12.631458282470703,0.0864545,0.24798222,-4.953764,0.016267267400067408,nan,nan,nan,nan,nan,2.630708694458008,3.830708694458008,0.0007505416870117188,0.15322834777832034,0.08101087800189097,0.0,-5.0,0.6985907228548788,0.030741974389429497,0.026884429314710794,-0.013145276441378428,0.0,0.0,0.0,0.0
12.730838298797607,0.116517834,0.2323484,-4.986976,0.019079310761217327,nan,nan,nan,nan,nan,2.7299482822418213,3.9299482822418215,0.00045418739318847656,0.15719793128967288,0.07413535767534069,0.0,-5.0,0.7011180835862518,0.03326546809713823,0.033592282620521954,-0.015429540649887719,0.0,0.0,0.0,0.0
12.830557346343994,0.14390625,0.21828298,-5.014246,0.02055911547682856,nan,nan,nan,nan,nan,2.829496145248413,4.029496145248413,0.00041103363037109375,0.16117984580993655,0.06723847941484776,0.0,-5.0,0.7035635893098584,0.03379344804988326,0.03761110276718155,-0.017272914503433344,0.0,0.0,0.0,0.0
12.931044816970825,0.16961809,0.20985042,-5.0323462,0.022171684125307137,nan,nan,nan,nan,nan,2.929979085922241,4.129979085922241,0.00036716461181640625,0.16519916343688967,0.06027681707320776,0.0,-5.0,0.7059832714794452,0.029050943225003064,0.037526646654582024,-0.018624038975338396,0.0,0.0,0.0,0.0
13.031347274780273,0.19060944,0.19974883,-5.0487895,0.021645641251456092,nan,nan,nan,nan,nan,3.0304019451141357,4.230401945114136,0.00039005279541015625,0.16921607780456546,0.05331931729873991,0.0,-5.0,0.7081811353759933,0.022464718919099107,0.03293556019450442,-0.019052301165016577,0.0,0.0,0.0,0.0
13.131128072738647,0.20538095,0.18951698,-5.060354,0.01868997900372852,nan,nan,nan,nan,nan,3.130185842514038,4.330185842514038,0.0004239082336425781,0.17320743370056155,0.046406086095785094,0.0,-5.0,0.7104148112953035,0.01663605100237271,0.023132995784989188,-0.016996618796181286,0.0,0.0,0.0,0.0
13.230960130691528,0.21674578,0.17870967,-5.0670285,0.014697248770462312,nan,nan,nan,nan,nan,3.2300174236297607,4.430017423629761,0.00043201446533203125,0.17720069694519047,0.03948955126809046,0.0,-5.0,0.7126147373996169,0.011464519001843263,0.011815972813775687,-0.013599501473413865,0.0,0.0,0.0,0.0
13.331382989883423,0.21963353,0.16531968,-5.063561,0.008680614881258281,nan,nan,nan,nan,nan,3.3307673931121826,4.530767393112183,0.0003752708435058594,0.18123069572448733,0.03250938862790774,0.0,-5.0,0.7150846446846603,0.008224742403402149,-0.001777398818284914,-0.00886764935830066,0.0,0.0,0.0,0.0
13.431089639663696,0.22086354,0.14762872,-5.060614,0.002546980679869177,nan,nan,nan,nan,nan,3.430187225341797,4.630187225341797,0.0006120204925537109,0.1852074890136719,0.02562138059984108,0.0,-5.0,0.717326568878797,0.007302545677126775,-0.01472156965681605,-0.0036764167729105585,0.0,0.0,0.0,0.0
13.531103372573853,0.22010495,0.13234851,-5.0576,-0.0019884544915399023,nan,nan,nan,nan,nan,3.5302040576934814,4.730204057693482,0.0003814697265625,0.1892081623077393,0.01869201119003245,0.0,-5.0,0.7191207274138152,0.007131713964649079,-0.024036452658655855,0.0007218298395643699,0.0,0.0,0.0,0.0
13.63112473487854,0.21735942,0.11802702,-5.0493517,-0.00536210444594157,nan,nan,nan,nan,nan,3.6302051544189453,4.8302051544189455,0.0004329681396484375,0.19320820617675782,0.011763731976387925,0.0,-5.0,0.7207907081571324,0.005719427150227027,-0.029984657143444615,0.0038086277460663005,0.0,0.0,0.0,0.0
13.73104476928711,0.21336342,0.106356055,-5.0365067,-0.007790395260651431,nan,nan,nan,nan,nan,3.730154275894165,4.930154275894165,0.00044345855712890625,0.19720617103576663,0.004839053713709766,0.0,-5.0,0.7229443360012575,0.0023051276430970232,-0.03332314422634231,0.006198558589694207,0.0,0.0,0.0,0.0
13.830936431884766,0.21153763,0.09224407,-5.018562,-0.009279149799966867,nan,nan,nan,nan,nan,3.8301219940185547,5.030121994018555,0.0005352497100830078,0.2012048797607422,-0.0020869129626169144,0.0,-5.0,0.7248697051493385,8.507073590535961e-05,-0.03310437475670611,0.0076871068783175515,0.0,0.0,0.0,0.0
13.931331396102905,0.2097513,0.082659945,-5.003581,-0.010404626670672872,nan,nan,nan,nan,nan,3.930443525314331,5.130443525314331,0.0004138946533203125,0.20521774101257326,-0.009037392534512734,0.0,-5.0,0.7264743323673605,-0.0024168977154906427,-0.030177075292800445,0.008662432072435536,0.0,0.0,0.0,0.0
14.030931234359741,0.20829691,0.07251544,-4.9866447,-0.010424432644589586,nan,nan,nan,nan,nan,4.029978513717651,5.2299785137176515,0.00042891502380371094,0.20919914054870606,-0.015933378816325925,0.0,-5.0,0.7277547347330345,-0.004696030387532706,-0.02551583646617533,0.009024739442743025,0.0,0.0,0.0,0.0
14.131311416625977,0.20649429,0.06371063,-4.9723554,-0.009530704476447306,nan,nan,nan,nan,nan,4.130387783050537,5.330387783050537,0.000396728515625,0.21321551132202152,-0.022889937057742983,0.0,-5.0,0.7288831670330943,-0.005305900151238874,-0.02016899485979896,0.00833583358433129,0.0,0.0,0.0,0.0
14.230644464492798,0.20053725,0.053252093,-4.953498,-0.0091738627863706,nan,nan,nan,nan,nan,4.2301154136657715,5.430115413665772,0.0006678104400634766,0.21720461654663087,-0.02979926998350485,0.0,-5.0,0.7301008260770685,-0.005658121192301394,-0.016711948308046558,0.007873992104646713,0.0,0.0,0.0,0.0
14.331201314926147,0.19730358,0.04466802,-4.935408,-0.00890433199122284,nan,nan,nan,nan,nan,4.330262184143066,5.530262184143067,0.00047588348388671875,0.22121048736572269,-0.03673764177072941,0.0,-5.0,0.7310923374597628,-0.005513881014791781,-0.013396225263466361,0.0075953484497998484,0.0,0.0,0.0,0.0
14.431462049484253,0.19285804,0.036076345,-4.917897,-0.008340520533410781,nan,nan,nan,nan,nan,4.430806636810303,5.630806636810303,0.0004475116729736328,0.22523226547241212,-0.043703565788283695,0.0,-5.0,0.7317997880711374,-0.004942379537210789,-0.010549952652329312,0.007251949782313603,0.0,0.0,0.0,0.0
14.53070855140686,0.19132914,0.028312828,-4.9007783,-0.007636852860235428,nan,nan,nan,nan,nan,4.529951810836792,5.729951810836792,0.0004680156707763672,0.22919807243347168,-0.050572544937849205,0.0,-5.0,0.732404380510894,-0.004387105045759405,-0.0071886670051517524,0.006601256018932262,0.0,0.0,0.0,0.0
14.630743980407715,0.19461991,0.023415007,-4.887344,-0.007322936935616692,nan,nan,nan,nan,nan,4.62973952293396,5.82973952293396,0.0004870891571044922,0.23318958091735842,-0.05748604043078322,0.0,-5.0,0.7328365915743086,-0.005111385633130341,-0.001397170665257365,0.006253367278354924,0.0,0.0,0.0,0.0
14.730751991271973,0.199846,0.019746039,-4.8771553,-0.007264398104702592,nan,nan,nan,nan,nan,4.729825735092163,5.929825735092163,0.0005905628204345703,0.23719302940368656,-0.06442021661458829,0.0,-5.0,0.7329241548535624,-0.00671233983656823,0.004959365607986598,0.006182438568924816,0.0,0.0,0.0,0.0
14.83095121383667,0.2067233,0.015069066,-4.874108,-0.006861544078119734,nan,nan,nan,nan,nan,4.830039024353027,6.0300390243530275,0.000530242919921875,0.24120156097412113,-0.07136319695832481,0.0,-5.0,0.732496353966718,-0.007125249427962034,0.010671929755960355,0.005976912075792575,0.0,0.0,0.0,0.0
14.930921792984009,0.2158412,0.009814787,-4.8727436,-0.00592511170387229,nan,nan,nan,nan,nan,4.929974555969238,6.1299745559692385,0.0005567073822021484,0.24519898223876957,-0.07828693368795214,0.0,-5.0,0.7318996757882295,-0.00662628659059869,0.014997499198530634,0.005311002482899931,0.0,0.0,0.0,0.0
15.030596494674683,0.2242241,0.006387072,-4.871998,-0.004955023845899529,nan,nan,nan,nan,nan,5.029562473297119,6.229562473297119,0.0005941390991210938,0.24918249893188482,-0.08518658699322652,0.0,-5.0,0.7313358529640147,-0.005840588525834508,0.01767256289594847,0.0045020254587240386,0.0,0.0,0.0,0.0
15.130748748779297,0.23255393,0.0036961155,-4.870976,-0.003966137157338097,nan,nan,nan,nan,nan,5.129781246185303,6.329781246185303,0.0005235671997070312,0.25319124984741215,-0.0921299472538081,0.0,-5.0,0.730907164132727,-0.005629925884724406,0.01836743807004706,0.0036886574391295393,0.0,0.0,0.0,0.0
15.23107385635376,0.23993652,-0.0013040989,-4.868022,-0.0036302881700616464,nan,nan,nan,nan,nan,5.2302045822143555,6.430204582214356,0.0007052421569824219,0.25720818328857425,-0.09908748006452339,0.0,-5.0,0.7307306542127623,-0.0036555309533330004,0.017709150633628608,0.003215650154206261,0.0,0.0,0.0,0.0
15.33084750175476,0.2443104,-0.007568517,-4.8647184,-0.003971534075220415,nan,nan,nan,nan,nan,5.329855442047119,6.529855442047119,0.0009591579437255859,0.26119421768188483,-0.10599149415445426,0.0,-5.0,0.7305833175290172,-0.0012056715221245883,0.015082062139826487,0.0032609435703884137,0.0,0.0,0.0,0.0
15.430845260620117,0.24698932,-0.01124646,-4.8607216,-0.004441566334242859,nan,nan,nan,nan,nan,5.429835081100464,6.629835081100464,0.0007476806640625,0.2651934032440186,-0.11291828673696588,0.0,-5.0,0.7304402099287878,0.0007086219840893151,0.011044473340328105,0.003642949461969079,0.0,0.0,0.0,0.0
15.530825138092041,0.24820817,-0.01440448,-4.8586626,-0.00474820132610289,nan,nan,nan,nan,nan,5.5298752784729,6.729875278472901,0.0005640983581542969,0.26919501113891603,-0.11984927492289701,0.0,-5.0,0.730346928240826,0.0007641082376031572,0.006306193630778172,0.003952578206883163,0.0,0.0,0.0,0.0
15.63071870803833,0.24794017,-0.018056236,-4.859185,-0.004825678934954944,nan,nan,nan,nan,nan,5.629712343215942,6.829712343215943,0.0005254745483398438,0.27318849372863774,-0.12676618966743672,0.0,-5.0,0.7301666477662327,0.0005918794607300281,0.000953674355758867,0.0040780394477422715,0.0,0.0,0.0,0.0
15.731050491333008,0.2507757,-0.024302246,-4.861241,-0.004517602543398611,nan,nan,nan,nan,nan,5.730068206787109,6.9300682067871096,0.0009474754333496094,0.2772027282714844,-0.13371904784914518,0.0,-5.0,0.7298735748389157,0.0021641295640873882,-0.0026814577264666164,0.003894324840578078,0.0,0.0,0.0,0.0
15.83084225654602,0.25474948,-0.027895208,-4.866363,-0.004114405573369137,nan,nan,nan,nan,nan,5.829834222793579,7.029834222793579,0.0005044937133789062,0.2811933689117432,-0.14063104019282258,0.0,-5.0,0.7293626733233204,0.002714320165669709,-0.004143618171316747,0.0035764120830297156,0.0,0.0,0.0,0.0
15.93095850944519,0.25563872,-0.030146902,-4.87106,-0.0037399235422822807,nan,nan,nan,nan,nan,5.929962635040283,7.129962635040283,0.0008442401885986328,0.28519850540161135,-0.1475681400845223,0.0,-5.0,0.7288777042117563,0.0013968825907006827,-0.005298827527517991,0.003254416838902211,0.0,0.0,0.0,0.0
16.030836820602417,0.25399053,-0.03126824,-4.8720675,-0.0032498137687436185,nan,nan,nan,nan,nan,6.02990198135376,7.22990198135376,0.0010950565338134766,0.2891960792541504,-0.15449214110412882,0.0,-5.0,0.7285622525148523,-0.0011203861417560708,-0.00797625989023682,0.0028469670923383606,0.0,0.0,0.0,0.0
16.130645990371704,0.2506588,-0.03157397,-4.868755,-0.0028524990466930514,nan,nan,nan,nan,nan,6.1298041343688965,7.329804134368897,0.0005679130554199219,0.2931921653747559,-0.1614135652964383,0.0,-5.0,0.7288751238861628,-0.004706344644804575,-0.010618802737219343,0.0024568370052135795,0.0,0.0,0.0,0.0
16.23060703277588,0.2443799,-0.03163095,-4.8693256,-0.002440793681532238,nan,nan,nan,nan,nan,6.229674339294434,7.429674339294434,0.0009052753448486328,0.29718697357177737,-0.16833277606017216,0.0,-5.0,0.7289070818690147,-0.00776937745438421,-0.013869975261757147,0.0020863200344589617,0.0,0.0,0.0,0.0
16.331565141677856,0.23532274,-0.028968336,-4.8703704,-0.001534433232801662,nan,nan,nan,nan,nan,6.3307905197143555,7.530790519714356,0.0005502700805664062,0.3012316207885743,-0.1753383105383564,0.0,-5.0,0.7287966600436535,-0.010641182533385004,-0.01731391427485689,0.0014395466549942846,0.0,0.0,0.0,0.0
16.43051314353943,0.23055625,-0.027778221,-4.8721495,-0.0006176620587872318,nan,nan,nan,nan,nan,6.429481744766235,7.6294817447662355,0.0011653900146484375,0.30517926979064947,-0.18217583918039917,0.0,-5.0,0.7286380369046443,-0.011925423476285371,-0.018957745794814147,0.0005658007720900363,0.0,0.0,0.0,0.0
16.53046703338623,0.22709453,-0.02721018,-4.8751507,7.116341603621932e-05,nan,nan,nan,nan,nan,6.5294029712677,7.7294029712677,0.0004036426544189453,0.30917611885070806,-0.18909858482260458,0.0,-5.0,0.728480999304176,-0.011162409304517696,-0.017240633270170076,-0.00010251513412396095,0.0,0.0,0.0,0.0
16.630506992340088,0.22136977,-0.025205778,-4.8789144,0.00040915475107816245,nan,nan,nan,nan,nan,6.629443883895874,7.829443883895874,0.0005202293395996094,0.31317775535583503,-0.19602962256290685,0.0,-5.0,0.7283076577092426,-0.011678719683216491,-0.016033755505313586,-0.00048822907162056377,0.0,0.0,0.0,0.0
16.730862379074097,0.21900602,-0.02446034,-4.8785944,0.000615976219952128,nan,nan,nan,nan,nan,6.729828596115112,7.9298285961151125,0.0005567073822021484,0.3171931438446045,-0.20298447943758288,0.0,-5.0,0.7282993570714369,-0.011386696362227378,-0.01300156998357707,-0.000652519541039539,0.0,0.0,0.0,0.0
16.830634832382202,0.21823832,-0.025956534,-4.877206,0.0006452223981786385,nan,nan,nan,nan,nan,6.829611778259277,8.029611778259277,0.00048470497131347656,0.3211844711303711,-0.20989766108616656,0.0,-5.0,0.728377996833621,-0.00946390639459208,-0.00853939796072326,-0.0006903793309459826,0.0,0.0,0.0,0.0
16.930566549301147,0.2193726,-0.027729264,-4.8744955,0.0005308977671691284,nan,nan,nan,nan,nan,6.929552793502808,8.129552793502807,0.00039124488830566406,0.32518211174011236,-0.216821777732639,0.0,-5.0,0.7285662218790122,-0.006557050245590792,-0.003321577358584653,-0.0005034460777700331,0.0,0.0,0.0,0.0
17.030529975891113,0.22179928,-0.030251164,-4.8686886,0.0005796867933181987,nan,nan,nan,nan,nan,7.029463529586792,8.229463529586791,0.0008504390716552734,0.3291785411834717,-0.2237437965774016,0.0,-5.0,0.7288514384957632,-0.004218562174944847,0.001473751128117387,-0.0004821212685551349,0.0,0.0,0.0,0.0
17.130557537078857,0.22415805,-0.033984147,-4.856053,0.0005999344624167402,nan,nan,nan,nan,nan,7.129507303237915,8.329507303237914,0.0006237030029296875,0.3331802921295166,-0.23067503253518828,0.0,-5.0,0.7297332358385268,-0.0015919417875617655,0.004787735304494506,-0.0004334462764341439,0.0,0.0,0.0,0.0
17.230535984039307,0.22196995,-0.035127044,-4.852267,0.00046528631768140167,nan,nan,nan,nan,nan,7.229481935501099,8.429481935501098,0.0004253387451171875,0.33717927742004394,-0.2376014782371022,0.0,-5.0,0.7300560258588402,4.219135429931324e-05,0.0055499073994655585,-0.0003931735932804579,0.0,0.0,0.0,0.0
17.330564260482788,0.2269667,-0.038993508,-4.8502364,0.00033892719392577316,nan,nan,nan,nan,nan,7.329545736312866,8.529545736312866,0.0005044937133789062,0.34118182945251463,-0.24453410171727952,0.0,-5.0,0.7299864576928697,0.001424212673556004,0.0067079625242196525,-0.00024526582653805235,0.0,0.0,0.0,0.0
17.43048858642578,0.238895,-0.04606023,-4.849523,0.00036684871311129085,nan,nan,nan,nan,nan,7.4294209480285645,8.629420948028564,0.0004363059997558594,0.3451768379211426,-0.25145365936161107,0.0,-5.0,0.7297743932658727,0.0034536435874393664,0.01068633290497088,-0.00015124600303595612,0.0,0.0,0.0,0.0
17.53044056892395,0.25388607,-0.0549115,-4.849531,0.0007379632114625388,nan,nan,nan,nan,nan,7.529366970062256,8.729366970062255,0.0004165172576904297,0.34917467880249026,-0.2583781228886811,0.0,-5.0,0.729625629711567,0.005426753853033136,0.016675964974176026,-0.000421160209053437,0.0,0.0,0.0,0.0
17.630634546279907,0.27192217,-0.06762375,-4.8470244,0.0012005424533060318,nan,nan,nan,nan,nan,7.6295647621154785,8.829564762115478,0.0005099773406982422,0.35318259048461914,-0.2653200295543772,0.0,-5.0,0.7297348039199596,0.007760721535220916,0.022269153738139317,-0.0008146247691986738,0.0,0.0,0.0,0.0
17.73057270050049,0.2868035,-0.078050986,-4.841132,0.0015878986043973888,nan,nan,nan,nan,nan,7.7295081615448,8.929508161544799,0.0004999637603759766,0.357180326461792,-0.2722443113820866,0.0,-5.0,0.7299137984476558,0.009382919407555843,0.025031367645662425,-0.0011776854559154006,0.0,0.0,0.0,0.0
17.83069634437561,0.30237857,-0.087184206,-4.832641,0.002240306045477315,nan,nan,nan,nan,nan,7.829620838165283,9.029620838165282,0.00042247772216796875,0.36118483352661135,-0.27918032107762225,0.0,-5.0,0.7301518900859114,0.00977386649513049,0.0249185483309594,-0.0016104069412908257,0.0,0.0,0.0,0.0
17.930710554122925,0.3146585,-0.09526838,-4.8242865,0.0029550022418766727,nan,nan,nan,nan,nan,7.92965292930603,9.12965292930603,0.0004000663757324219,0.36518611717224125,-0.2861107476473476,0.0,-5.0,0.7305649530363012,0.00840391216048726,0.022585440132974054,-0.0022482026479861,0.0,0.0,0.0,0.0
18.03061866760254,0.32656464,-0.10402997,-4.8185787,0.003664881476106126,nan,nan,nan,nan,nan,8.029558658599854,9.229558658599853,0.0004343986511230469,0.36918234634399416,-0.2930324196115126,0.0,-5.0,0.7307837902856451,0.0065317261325238745,0.0177970489524569,-0.002855673371681061,0.0,0.0,0.0,0.0
18.130789279937744,0.3437648,-0.11287423,-4.813426,0.004729073777139083,nan,nan,nan,nan,nan,8.129752159118652,9.329752159118652,0.0005242824554443359,0.3731900863647461,-0.2999740289509821,0.0,-5.0,0.7310042593540151,0.00509165463216724,0.015003629703477416,-0.003708233446506395,0.0,0.0,0.0,0.0
18.230632781982422,0.3611428,-0.12298982,-4.8060517,0.005341894775959037,nan,nan,nan,nan,nan,8.229580640792847,9.429580640792846,0.0004734992980957031,0.37718322563171386,-0.3068903490430686,0.0,-5.0,0.7311443757937625,0.004862839484929955,0.012844070236024395,-0.004390078764019047,0.0,0.0,0.0,0.0
18.3306941986084,0.378589,-0.1331556,-4.804334,0.00534397261608998,nan,nan,nan,nan,nan,8.329655408859253,9.529655408859252,0.0003902912139892578,0.3811862163543701,-0.3138237323569361,0.0,-5.0,0.7310776318472592,0.00510260824861927,0.010850357189526804,-0.004533490994530021,0.0,0.0,0.0,0.0
18.43054223060608,0.3960022,-0.14708409,-4.8046,0.004795865475220451,nan,nan,nan,nan,nan,8.429476022720337,9.629476022720336,0.0007417201995849609,0.3851790409088135,-0.3207395073509406,0.0,-5.0,0.730730536874862,0.005811279111306976,0.009152446848657719,-0.004302561613357707,0.0,0.0,0.0,0.0
18.530768394470215,0.40870902,-0.16264983,-4.805349,0.003808794002256479,nan,nan,nan,nan,nan,8.529720306396484,9.729720306396484,0.0004818439483642578,0.3891888122558594,-0.327684635050758,0.0,-5.0,0.7305303270606011,0.009850807652188482,0.005954011003659038,-0.0034890735846867297,0.0,0.0,0.0,0.0
18.630618810653687,0.41449225,-0.17468283,-4.8094063,0.002907511829164136,nan,nan,nan,nan,nan,8.629566192626953,9.829566192626952,0.00039124488830566406,0.39318264770507816,-0.33460216096587453,0.0,-5.0,0.7301678365579019,0.01001627198449684,-0.0003162497358063249,-0.0027190923438579566,0.0,0.0,0.0,0.0
18.730531930923462,0.419055,-0.18995889,-4.820661,0.002192018735539825,nan,nan,nan,nan,nan,8.729451656341553,9.929451656341552,0.0004096031188964844,0.39717806625366214,-0.3415224288895251,0.0,-5.0,0.7293416156729154,0.01036107796652202,-0.006876596810485621,-0.0019874270115800754,0.0,0.0,0.0,0.0
18.830599308013916,0.4165328,-0.20500962,-4.832568,0.0015611873662856348,nan,nan,nan,nan,nan,8.829570293426514,10.029570293426513,0.000362396240234375,0.39763437652587896,-0.3464101615137755,0.0,-5.0,0.728422952164285,0.011333164947901594,-0.011452011228919135,-0.0014131027398448443,0.0,0.0,0.0,0.0
18.930503129959106,0.41023502,-0.21499525,-4.8406596,0.0011455264190546636,nan,nan,nan,nan,nan,8.929445505142212,10.129445505142211,0.0003867149353027344,0.38964435958862315,-0.3464101615137755,0.0,-5.0,0.7277921742155767,0.011498148116195686,-0.014739280007987174,-0.0009163950457949908,0.0,0.0,0.0,0.0
19.030513048171997,0.40174708,-0.2229871,-4.84849,0.0008688776099907399,nan,nan,nan,nan,nan,9.029443979263306,10.229443979263305,0.00036215782165527344,0.3816444816589356,-0.3464101615137755,0.0,-5.0,0.7275235416806032,0.008369993359764792,-0.01768419405617438,-0.0006271662878230852,0.0,0.0,0.0,0.0
19.130493879318237,0.39258137,-0.23167178,-4.861543,0.0010371583439550327,nan,nan,nan,nan,nan,9.129421710968018,10.329421710968017,0.0003573894500732422,0.37364626312255866,-0.3464101615137755,0.0,-5.0,0.7269593812476867,0.005750051316634321,-0.019004263966205116,-0.0006675876063140908,0.0,0.0,0.0,0.0
19.23072648048401,0.38150662,-0.24017057,-4.869024,0.0013447346331415607,nan,nan,nan,nan,nan,9.229658603668213,10.429658603668212,0.0003452301025390625,0.36562731170654306,-0.3464101615137755,0.0,-5.0,0.7265964885858771,0.00378941265275158,-0.0195165778818364,-0.0009278545920685381,0.0,0.0,0.0,0.0
19.33074450492859,0.3713913,-0.24919173,-4.877502,0.0015101007873529054,nan,nan,nan,nan,nan,9.329898357391357,10.529898357391357,0.0003750324249267578,0.35760813140869147,-0.3464101615137755,0.0,-5.0,0.7264099115103496,0.0024791483001288172,-0.0186316515933549,-0.0010794864770668356,0.0,0.0,0.0,0.0
19.430686950683594,0.36326078,-0.25746596,-4.88606,0.0015986477849178095,nan,nan,nan,nan,nan,9.429689168930054,10.629689168930053,0.0003407001495361328,0.34962486648559576,-0.3464101615137755,0.0,-5.0,0.72615607648799,0.002093569918450338,-0.015437833095893458,-0.0012117710752797177,0.0,0.0,0.0,0.0
19.530571222305298,0.3530998,-0.2665245,-4.8931828,0.0017032966180303482,nan,nan,nan,nan,nan,9.529507875442505,10.729507875442504,0.00034499168395996094,0.3416393699645997,-0.3464101615137755,0.0,-5.0,0.7262256035864927,0.00206149069564464,-0.012518798262587305,-0.001310932382644365,0.0,0.0,0.0,0.0
19.630610704421997,0.34349266,-0.27268758,-4.9016256,0.0015716514605337928,nan,nan,nan,nan,nan,9.629555463790894,10.829555463790893,0.0003483295440673828,0.3336355628967286,-0.3464101615137755,0.0,-5.0,0.7261332449794073,0.0008620337388028236,-0.009815328700219917,-0.0013034979813473064,0.0,0.0,0.0,0.0
19.730705738067627,0.33230188,-0.27507642,-4.9092093,0.0006180797047213769,nan,nan,nan,nan,nan,9.729666471481323,10.929666471481323,0.00035452842712402344,0.3256266822814942,-0.3464101615137755,0.0,-5.0,0.7260600034804874,-0.002653725678954346,-0.0073805573313600395,-0.0007934363607834476,0.0,0.0,0.0,0.0
19.83059573173523,0.32056573,-0.27666783,-4.9156013,-0.0002973331370854952,nan,nan,nan,nan,nan,9.82957124710083,11.02957124710083,0.0003495216369628906,0.3176343002319337,-0.3464101615137755,0.0,-5.0,0.7260437704016269,-0.007082285743064758,-0.005683373024436435,9.836139415875978e-05,0.0,0.0,0.0,0.0
19.930533170700073,0.3070637,-0.2781715,-4.92136,-0.0004900096688476197,nan,nan,nan,nan,nan,9.929473400115967,11.129473400115966,0.0003459453582763672,0.3096421279907227,-0.3464101615137755,0.0,-5.0,0.7261022797183687,-0.009798582040327485,-0.005667869652611686,0.0004016325084888385,0.0,0.0,0.0,0.0
20.0305016040802,0.29526407,-0.2791315,-4.9263973,-0.00046729181412214675,nan,nan,nan,nan,nan,10.029438972473145,11.229438972473144,0.0003528594970703125,0.3016448822021485,-0.3464101615137755,0.0,-5.0,0.7262680246247037,-0.011950757248487334,-0.005880739887566954,0.0003843599758153986,0.0,0.0,0.0,0.0
20.130664110183716,0.2871473,-0.28425243,-4.926198,-0.0006548768177335193,nan,nan,nan,nan,nan,10.129631042480469,11.329631042480468,0.00036716461181640625,0.29362951660156256,-0.3464101615137755,0.0,-5.0,0.7266899895756926,-0.010013119872738131,-0.004288754991870559,0.0005008837983772815,0.0,0.0,0.0,0.0
20.230669021606445,0.2830482,-0.29073608,-4.926696,-0.0009340877397088026,nan,nan,nan,nan,nan,10.229657411575317,11.429657411575317,0.00035190582275390625,0.28562740707397466,-0.3464101615137755,0.0,-5.0,0.7270114676122809,-0.006248791134413783,-0.0006681228699069334,0.0007072140815916769,0.0,0.0,0.0,0.0
20.330871105194092,0.2822953,-0.29840916,-4.931353,-0.0013988504940262297,nan,nan,nan,nan,nan,10.329827070236206,11.529827070236205,0.0003483295440673828,0.2776138343811036,-0.3464101615137755,0.0,-5.0,0.7271449993690428,-0.0019275815112518202,0.0049245626535205375,0.001021408441320085,0.0,0.0,0.0,0.0
20.4306538105011,0.2844011,-0.30502212,-4.94056,-0.0018026085305186468,nan,nan,nan,nan,nan,10.429603815078735,11.629603815078735,0.0003540515899658203,0.26963169479370125,-0.3464101615137755,0.0,-5.0,0.7269580350727103,0.00226598372161226,0.011362690382286766,0.0013872579105159817,0.0,0.0,0.0,0.0
20.530746936798096,0.2891653,-0.3102078,-4.9543333,-0.0019226993584592392,nan,nan,nan,nan,nan,10.529701709747314,11.729701709747314,0.00038743019104003906,0.2616238632202149,-0.3464101615137755,0.0,-5.0,0.7264872193712745,0.004448554469173702,0.017328872338495848,0.0015205675998903217,0.0,0.0,0.0,0.0
20.630640745162964,0.29304618,-0.30952528,-4.9596205,-0.0013755962262739056,nan,nan,nan,nan,nan,10.629582405090332,11.829582405090331,0.0003502368927001953,0.2536334075927735,-0.3464101615137755,0.0,-5.0,0.7262961700616732,0.003080722847832569,0.020731095342476556,0.0012481905935679879,0.0,0.0,0.0,0.0
20.730557918548584,0.2958183,-0.30360618,-4.9616947,-0.0005016517040499192,nan,nan,nan,nan,nan,10.729482650756836,11.929482650756835,0.0003752708435058594,0.2456413879394532,-0.3464101615137755,0.0,-5.0,0.7264864286380954,-0.0013671914378728897,0.02095131547934138,0.0006461338524384557,0.0,0.0,0.0,0.0
20.8306622505188,0.29627803,-0.29793528,-4.9637775,0.00022593461412485265,nan,nan,nan,nan,nan,10.829692602157593,12.029692602157592,0.0003509521484375,0.23762459182739262,-0.3464101615137755,0.0,-5.0,0.7267513941004174,-0.006727082917657347,0.018994028943151095,3.0730916586353135e-05,0.0,0.0,0.0,0.0
20.930859327316284,0.29237533,-0.292898,-4.965507,0.0009306874023681787,nan,nan,nan,nan,nan,10.929813385009766,12.129813385009765,0.0003476142883300781,0.2296149291992188,-0.3464101615137755,0.0,-5.0,0.7268642417339102,-0.009939740209186903,0.01466855921269667,-0.0004959251965013124,0.0,0.0,0.0,0.0
21.03066658973694,0.28347608,-0.28838336,-4.9643493,0.0019110420244722408,nan,nan,nan,nan,nan,11.029598712921143,12.229598712921142,0.00036406517028808594,0.22163210296630864,-0.3464101615137755,0.0,-5.0,0.727243508430612,-0.012078648821689703,0.006340812217793615,-0.0013465418477679105,0.0,0.0,0.0,0.0
21.130658864974976,0.2832211,-0.28298482,-4.958869,0.002177572091800548,nan,nan,nan,nan,nan,11.129608631134033,12.329608631134032,0.00035500526428222656,0.21363130950927742,-0.3464101615137755,0.0,-5.0,0.7277447817474416,-0.011860920571050697,0.001852404737603025,-0.0018140024087134434,0.0,0.0,0.0,0.0
21.23086452484131,0.28559446,-0.2786916,-4.950963,0.0018585837774712196,nan,nan,nan,nan,nan,11.229859590530396,12.429859590530395,0.00034618377685546875,0.20561123275756843,-0.3464101615137755,0.0,-5.0,0.7283267516380553,-0.01055912942867079,0.0012590010627946875,-0.0016762943806471061,0.0,0.0,0.0,0.0
21.330530405044556,0.28908196,-0.27487394,-4.937159,0.0011998036999556114,nan,nan,nan,nan,nan,11.329468965530396,12.529468965530395,0.0003490447998046875,0.19764248275756843,-0.3464101615137755,0.0,-5.0,0.7290894717583242,-0.009314669329045086,0.0029773237114785922,-0.0012235357375202155,0.0,0.0,0.0,0.0
21.430848360061646,0.29167897,-0.27204406,-4.9249206,0.0005157249921695982,nan,nan,nan,nan,nan,11.429836988449097,12.629836988449096,0.00041174888610839844,0.1896130409240723,-0.3464101615137755,0.0,-5.0,0.7300550419296796,-0.007614866461550758,0.0049971492853212235,-0.0005779106833848083,0.0,0.0,0.0,0.0
21.530412673950195,0.29384202,-0.2644656,-4.91381,-0.0003950356082798945,nan,nan,nan,nan,nan,11.529341459274292,12.729341459274291,0.0003688335418701172,0.1816526832580567,-0.3464101615137755,0.0,-5.0,0.7306971942664456,-0.00828705485910352,0.00609209530285438,0.0002005895473655132,0.0,0.0,0.0,0.0
21.631267547607422,0.28796032,-0.25480324,-4.905893,-0.0006592303301977973,nan,nan,nan,nan,nan,11.630199193954468,12.830199193954467,0.0003719329833984375,0.1735840644836426,-0.3464101615137755,0.0,-5.0,0.7309474747243705,-0.01024431040292847,0.003596331098297449,0.0005745791884016198,0.0,0.0,0.0,0.0
21.730823516845703,0.28598619,-0.24672863,-4.9020324,-0.001087759976322115,nan,nan,nan,nan,nan,11.729762315750122,12.929762315750121,0.00034546852111816406,0.1656190147399903,-0.3464101615137755,0.0,-5.0,0.7309370929531661,-0.011487119956724998,0.0003515829243177796,0.0007286442036160657,0.0,0.0,0.0,0.0
21.830561637878418,0.2853877,-0.23953839,-4.900765,-0.002143822454108582,nan,nan,nan,nan,nan,11.829495668411255,13.029495668411254,0.00034999847412109375,0.15764034652709966,-0.3464101615137755,0.0,-5.0,0.7307037901743907,-0.011368687699088767,9.746794247470176e-05,0.0015197045277791253,0.0,0.0,0.0,0.0
21.930620908737183,0.28223267,-0.23395741,-4.900847,-0.0030867206422745034,nan,nan,nan,nan,nan,11.929566144943237,13.129566144943237,0.00036525726318359375,0.14963470840454107,-0.3464101615137755,0.0,-5.0,0.7304511239826527,-0.009838567783744074,-0.0007845601578901188,0.002370515436770449,0.0,0.0,0.0,0.0
22.03086280822754,0.2793697,-0.22763722,-4.9031053,-0.004038655197996146,nan,nan,nan,nan,nan,12.02982211112976,13.22982211112976,0.00035262107849121094,0.14161423110961918,-0.3464101615137755,0.0,-5.0,0.7300561677895446,-0.00817620241372297,-0.001089410524630235,0.0031735599269453576,0.0,0.0,0.0,0.0
22.13065266609192,0.2747855,-0.22487547,-4.902098,-0.0041219750721750124,nan,nan,nan,nan,nan,12.129598140716553,13.329598140716552,0.0003616809844970703,0.13363214874267584,-0.3464101615137755,0.0,-5.0,0.7297711356430688,-0.00496988861521618,-0.0017274507579272522,0.0034892693089253004,0.0,0.0,0.0,0.0
22.230797052383423,0.26547882,-0.2270383,-4.902414,-0.003256019614513856,nan,nan,nan,nan,nan,12.229791164398193,13.429791164398193,0.0003883838653564453,0.1256167068481446,-0.3464101615137755,0.0,-5.0,0.7295235913937315,0.0009706029251224796,-0.0036154488841215913,0.0030748822416655484,0.0,0.0,0.0,0.0
22.330530643463135,0.2541784,-0.23146333,-4.9022007,-0.0018318869019814687,nan,nan,nan,nan,nan,12.329467535018921,13.52946753501892,0.00034332275390625,0.11764259719848638,-0.3464101615137755,0.0,-5.0,0.729321162973375,0.009095919599485695,-0.007087409346229704,0.0018748200230512743,0.0,0.0,0.0,0.0
22.43044137954712,0.2416527,-0.23618129,-4.902059,-0.00042742999004640597,nan,nan,nan,nan,nan,12.429386138916016,13.629386138916015,0.00035071372985839844,0.10964910888671878,-0.3464101615137755,0.0,-5.0,0.7293258132267157,0.015235358250122222,-0.009864562914637108,0.0007155214379969667,0.0,0.0,0.0,0.0
22.531010150909424,0.22900611,-0.24314709,-4.911713,0.0009478272932517498,nan,nan,nan,nan,nan,12.52993631362915,13.72993631362915,0.0003421306610107422,0.10160509490966803,-0.3464101615137755,0.0,-5.0,0.7287386945518756,0.0199692954291987,-0.011589713276739013,-0.0003763144562192412,0.0,0.0,0.0,0.0
22.631080150604248,0.21625537,-0.25196815,-4.9252486,0.0016477001907062522,nan,nan,nan,nan,nan,12.630046606063843,13.830046606063842,0.0003533363342285156,0.09359627151489264,-0.3464101615137755,0.0,-5.0,0.7278451850339013,0.02266575921430835,-0.012414905881627117,-0.0011345770614177185,0.0,0.0,0.0,0.0
22.730814933776855,0.20726115,-0.2654748,-4.9320235,0.002094290690657192,nan,nan,nan,nan,nan,12.7298424243927,13.9298424243927,0.00035500526428222656,0.085612606048584,-0.3464101615137755,0.0,-5.0,0.7271328895240613,0.024229476311155754,-0.011920513594106858,-0.0014765902029390912,0.0,0.0,0.0,0.0
22.83073925971985,0.20123349,-0.28216535,-4.9360075,0.0024504748602940784,nan,nan,nan,nan,nan,12.829684972763062,14.02968497276306,0.00035071372985839844,0.0776252021789551,-0.3464101615137755,0.0,-5.0,0.7270282607982799,0.026465941910369415,-0.008087654047410388,-0.0019367050432609594,0.0,0.0,0.0,0.0
22.930802822113037,0.19764894,-0.29512772,-4.9405694,0.002041030808006186,nan,nan,nan,nan,nan,12.929761409759521,14.12976140975952,0.0003924369812011719,0.06961908721923833,-0.3464101615137755,0.0,-5.0,0.7270008940456579,0.02610404262971288,-0.0034416267670307854,-0.0017921020701773436,0.0,0.0,0.0,0.0
23.030699491500854,0.19219293,-0.30484688,-4.949934,0.0008226440458395899,nan,nan,nan,nan,nan,13.029641151428223,14.229641151428222,0.0003509521484375,0.06162870788574222,-0.3464101615137755,0.0,-5.0,0.7267095469989948,0.022034739923450383,0.0005448662020004041,-0.001074671840397907,0.0,0.0,0.0,0.0
23.130693435668945,0.19135208,-0.3161182,-4.956857,-0.0002974989508282835,nan,nan,nan,nan,nan,13.129700183868408,14.329700183868407,0.00034546852111816406,0.053623985290527365,-0.3464101615137755,0.0,-5.0,0.7263541427335223,0.016831364324721473,0.004822117046049735,-0.0001231829689365893,0.0,0.0,0.0,0.0
23.230635404586792,0.18582058,-0.32798684,-4.959321,-0.0011491481472076645,nan,nan,nan,nan,nan,13.229583740234375,14.429583740234374,0.00034546852111816406,0.04563330078125003,-0.3464101615137755,0.0,-5.0,0.7262574299131149,0.012118807011487083,0.008302618942604605,0.0005955656729098893,0.0,0.0,0.0,0.0
23.33076810836792,0.17447108,-0.33733776,-4.958692,-0.001640877702352125,nan,nan,nan,nan,nan,13.329734802246094,14.529734802246093,0.0003821849822998047,0.037621215820312554,-0.3464101615137755,0.0,-5.0,0.7266496924225049,0.006602270513501088,0.006308214888379278,0.001180440135144333,0.0,0.0,0.0,0.0
23.43065643310547,0.15799925,-0.34553567,-4.9617853,-0.0017803028740977483,nan,nan,nan,nan,nan,13.429602146148682,14.629602146148681,0.0003478527069091797,0.02963182830810549,-0.3464101615137755,0.0,-5.0,0.7268145364995069,0.002296549836368177,0.0010577675972455764,0.0014467412293946906,0.0,0.0,0.0,0.0
23.530821084976196,0.14319092,-0.35758385,-4.9605327,-0.0014980548077830327,nan,nan,nan,nan,nan,13.529793739318848,14.729793739318847,0.00034880638122558594,0.021616500854492227,-0.3464101615137755,0.0,-5.0,0.7270320277870574,0.0016959101663369476,-0.003842989887490354,0.001408472583633103,0.0,0.0,0.0,0.0
23.630853414535522,0.13032585,-0.36843288,-4.963241,-0.0012435425953522183,nan,nan,nan,nan,nan,13.629948377609253,14.829948377609252,0.00035691261291503906,0.013604129791259823,-0.3464101615137755,0.0,-5.0,0.7271120296816569,0.0018491130260528466,-0.006250417430326396,0.0011953421994311652,0.0,0.0,0.0,0.0
23.73065948486328,0.12006774,-0.37340564,-4.965646,-0.0011455500838200312,nan,nan,nan,nan,nan,13.729628562927246,14.929628562927245,0.00037169456481933594,0.005629714965820343,-0.3464101615137755,0.0,-5.0,0.7270544704276525,-0.0002190442360631994,-0.006391577969005365,0.0010659609162994323,0.0,0.0,0.0,0.0
23.83057928085327,0.10834579,-0.37486735,-4.968725,-0.0011143294128776312,nan,nan,nan,nan,nan,13.829512357711792,15.029512357711791,0.0003554821014404297,-0.002360988616943338,-0.3464101615137755,0.0,-5.0,0.7270502309754323,-0.005302982144841525,-0.006185507112912023,0.0010116105688622113,0.0,0.0,0.0,0.0
23.932244777679443,0.09311322,-0.37610325,-4.974993,-0.0011484255866565287,nan,nan,nan,nan,nan,13.931428909301758,15.131428909301757,0.0003972053527832031,-0.010514312744140587,-0.3464101615137755,0.0,-5.0,0.7268959358096282,-0.009756282460640421,-0.006977293821213195,0.0010086148342261794,0.0,0.0,0.0,0.0
24.03064465522766,0.08381248,-0.37699842,-4.979947,-0.001745809408585073,nan,nan,nan,nan,nan,14.029586553573608,15.229586553573608,0.0003514289855957031,-0.018366924285888597,-0.3464101615137755,0.0,-5.0,0.7267516252478334,-0.011882849060209548,-0.0057348043423259346,0.0013145115154969231,0.0,0.0,0.0,0.0
24.130861520767212,0.07110214,-0.3769838,-4.9758425,-0.0027048741066459745,nan,nan,nan,nan,nan,14.129836797714233,15.329836797714233,0.00036072731018066406,-0.0263869438171386,-0.3464101615137755,0.0,-5.0,0.7269782259217794,-0.012408446353863952,-0.0034082381812565255,0.0020383869156764605,0.0,0.0,0.0,0.0
24.230693101882935,0.05947247,-0.37695584,-4.9693904,-0.003194857211472903,nan,nan,nan,nan,nan,14.229626178741455,15.429626178741454,0.00035881996154785156,-0.03437009429931637,-0.3464101615137755,0.0,-5.0,0.727686663079146,-0.01173472255103099,-0.002375570374590474,0.0026592726902103327,0.0,0.0,0.0,0.0
24.330679416656494,0.049548436,-0.3770297,-4.963158,-0.0027137093004282226,nan,nan,nan,nan,nan,14.329625606536865,15.529625606536865,0.00034737586975097656,-0.04237004852294915,-0.3464101615137755,0.0,-5.0,0.7281848068295197,-0.009089132337502664,-0.0012942754140126715,0.0024716865711982986,0.0,0.0,0.0,0.0
24.43072271347046,0.041821584,-0.3731134,-4.953551,-0.0017916186059335898,nan,nan,nan,nan,nan,14.429657459259033,15.629657459259032,0.00034999847412109375,-0.050372596740722655,-0.3464101615137755,0.0,-5.0,0.7288870470707384,-0.009048570469464666,7.189211417829628e-05,0.0017379241993592033,0.0,0.0,0.0,0.0
24.530893325805664,0.033820447,-0.36294612,-4.937778,-0.0014135944723020848,nan,nan,nan,nan,nan,14.529852867126465,15.729852867126464,0.0003612041473388672,-0.05838822937011719,-0.3464101615137755,0.0,-5.0,0.7297009638393938,-0.010987536035846233,0.0014618378295269893,0.0012558853549162006,0.0,0.0,0.0,0.0
24.63056230545044,0.02636204,-0.35220414,-4.924528,-0.001470235985085931,nan,nan,nan,nan,nan,14.629483938217163,15.829483938217162,0.0003495216369628906,-0.06635871505737301,-0.3464101615137755,0.0,-5.0,0.7304001954499868,-0.013533598252826885,0.00315029924388905,0.0012088059766342224,0.0,0.0,0.0,0.0
24.730650424957275,0.021304637,-0.34239987,-4.9184375,-0.001801175459630705,nan,nan,nan,nan,nan,14.729593753814697,15.929593753814697,0.0003504753112792969,-0.07436750030517576,-0.3464101615137755,0.0,-5.0,0.7307583315258465,-0.01513702231850336,0.004742573172022326,0.0014153296882506191,0.0,0.0,0.0,0.0
24.83054828643799,0.017391821,-0.33332366,-4.918907,-0.002305654331005097,nan,nan,nan,nan,nan,14.829495429992676,16.029495429992675,0.00035452842712402344,-0.08235963439941402,-0.3464101615137755,0.0,-5.0,0.7305068436908182,-0.015290323883037428,0.007686610165965398,0.001884527081542434,0.0,0.0,0.0,0.0
24.930928945541382,0.0076613226,-0.32499242,-4.9180245,-0.0022569483235391195,nan,nan,nan,nan,nan,14.92992639541626,16.12992639541626,0.0003535747528076172,-0.09039411163330079,-0.3464101615137755,0.0,-5.0,0.7303255560595427,-0.013715300974454213,0.0078009785025382585,0.0020070768139313676,0.0,0.0,0.0,0.0
25.031309604644775,-0.00075405324,-0.31938645,-4.9151807,-0.0019444249970336312,nan,nan,nan,nan,nan,15.03046202659607,16.23046202659607,0.0004010200500488281,-0.09843696212768549,-0.3464101615137755,0.0,-5.0,0.7302318744408242,-0.011292102598773586,0.006727352321635048,0.0018036583009011901,0.0,0.0,0.0,0.0
25.130964279174805,-0.008869242,-0.31758076,-4.9181857,-0.001568131173667913,nan,nan,nan,nan,nan,15.130007028579712,16.33000702857971,0.0003495216369628906,-0.10640056228637694,-0.3464101615137755,0.0,-5.0,0.7299228284999506,-0.007199355915893146,0.0054463080025259,0.0014751839622059424,0.0,0.0,0.0,0.0
25.230772018432617,-0.017584607,-0.31847262,-4.9201703,-0.001256538925530262,nan,nan,nan,nan,nan,15.229772806167603,16.429772806167602,0.00034928321838378906,-0.11438182449340815,-0.3464101615137755,0.0,-5.0,0.7294033371069792,-0.0010870265036680017,0.0038661042217932044,0.0012000340078782209,0.0,0.0,0.0,0.0
25.330880165100098,-0.03354174,-0.32065672,-4.913816,-0.0005794978572996232,nan,nan,nan,nan,nan,15.329829216003418,16.529829216003417,0.0003833770751953125,-0.12238633728027343,-0.3464101615137755,0.0,-5.0,0.729668499042121,0.004973460656267492,-0.0006187506013063002,0.0006721250417914029,0.0,0.0,0.0,0.0
25.430967807769775,-0.049784895,-0.320868,-4.905524,0.0006639718812361398,nan,nan,nan,nan,nan,15.429975271224976,16.629975271224975,0.00035452842712402344,-0.130398021697998,-0.3464101615137755,0.0,-5.0,0.7301339357810821,0.008668045399802843,-0.006792761373832537,-0.0002484501220121762,0.0,0.0,0.0,0.0
25.53078842163086,-0.0653312,-0.32005304,-4.890769,0.0018697349570212154,nan,nan,nan,nan,nan,15.529885292053223,16.729885292053222,0.0003578662872314453,-0.13839082336425781,-0.3464101615137755,0.0,-5.0,0.7307489878160887,0.009322645330167887,-0.010877541176460507,-0.0012225478564648242,0.0,0.0,0.0,0.0
25.630812168121338,-0.07777261,-0.32221264,-4.8816237,0.002583230417666699,nan,nan,nan,nan,nan,15.629870414733887,16.829870414733886,0.0003561973571777344,-0.1463896331787109,-0.3464101615137755,0.0,-5.0,0.7312967000092763,0.009315976713014755,-0.01230499843560897,-0.0019860921871611096,0.0,0.0,0.0,0.0
25.731216192245483,-0.090481624,-0.32750684,-4.878505,0.0028791179757784164,nan,nan,nan,nan,nan,15.730401277542114,16.930401277542114,0.0007381439208984375,-0.15443210220336914,-0.3464101615137755,0.0,-5.0,0.7313165343174873,0.011187399535914399,-0.011226493443331542,-0.002311764222692702,0.0,0.0,0.0,0.0
25.8307204246521,-0.10268875,-0.33317852,-4.881339,0.002990449695191263,nan,nan,nan,nan,nan,15.829679250717163,17.029679250717162,0.0004227161407470703,-0.162374340057373,-0.3464101615137755,0.0,-5.0,0.730961101390792,0.013823511705517575,-0.010196403984998242,-0.0024331904412601075,0.0,0.0,0.0,0.0
25.93080163002014,-0.11179047,-0.33285478,-4.8835964,0.002927009254004899,nan,nan,nan,nan,nan,15.929766178131104,17.129766178131103,0.0003476142883300781,-0.17038129425048823,-0.3464101615137755,0.0,-5.0,0.7305625628004285,0.012334480846783935,-0.007791608817431292,-0.00243788183495964,0.0,0.0,0.0,0.0
26.030677556991577,-0.118187375,-0.33111238,-4.8833055,0.0028694148855815896,nan,nan,nan,nan,nan,16.029640436172485,17.229640436172485,0.00034546852111816406,-0.17837123489379883,-0.3464101615137755,0.0,-5.0,0.7302498570827225,0.007806074596590856,-0.0038989161686865887,-0.0024122897534794457,0.0,0.0,0.0,0.0
26.130566120147705,-0.12227954,-0.3307327,-4.88611,0.002844246813707619,nan,nan,nan,nan,nan,16.129507303237915,17.329507303237914,0.00038051605224609375,-0.18636058425903315,-0.3464101615137755,0.0,-5.0,0.7299243479469381,0.004109389714042911,0.00038523461846325986,-0.0023834091990361885,0.0,0.0,0.0,0.0
26.230576038360596,-0.12268287,-0.33138227,-4.8916526,0.0029244283601663145,nan,nan,nan,nan,nan,16.229514122009277,17.429514122009277,0.00036072731018066406,-0.1943611297607422,-0.3464101615137755,0.0,-5.0,0.7294227977366711,0.0019177534091715,0.00555740591590471,-0.002479557538775886,0.0,0.0,0.0,0.0
26.330447673797607,-0.117027596,-0.3320401,-4.8999205,0.003062754429192965,nan,nan,nan,nan,nan,16.329381227493286,17.529381227493285,0.00036597251892089844,-0.20235049819946288,-0.3464101615137755,0.0,-5.0,0.7288080608611441,-0.00015724530163200827,0.013049022875164192,-0.0026214102346460134,0.0,0.0,0.0,0.0
26.431086778640747,-0.11477626,-0.33899382,-4.900751,0.002835122438396608,nan,nan,nan,nan,nan,16.430057764053345,17.630057764053344,0.0003554821014404297,-0.21040462112426753,-0.3464101615137755,0.0,-5.0,0.7286464271525023,0.0015317419579514028,0.017637736477435825,-0.0025566102766974665,0.0,0.0,0.0,0.0
26.53107714653015,-0.11549207,-0.34376875,-4.9041104,0.0025002040802407375,nan,nan,nan,nan,nan,16.53006148338318,17.730061483383178,0.0003790855407714844,-0.21840491867065426,-0.3464101615137755,0.0,-5.0,0.7285305353512221,0.003458904802663062,0.01850752097558044,-0.0023200715202255215,0.0,0.0,0.0,0.0
26.630842447280884,-0.11743129,-0.34895748,-4.9101067,0.0019822404945611808,nan,nan,nan,nan,nan,16.629840850830078,17.829840850830077,0.00034809112548828125,-0.22638726806640622,-0.3464101615137755,0.0,-5.0,0.7282700415151643,0.004491851138548862,0.016877962801029472,-0.001972886579884751,0.0,0.0,0.0,0.0
26.730669736862183,-0.11881035,-0.35507622,-4.9151096,0.0012934921459743043,nan,nan,nan,nan,nan,16.729601860046387,17.929601860046386,0.00040268898010253906,-0.23436814880371096,-0.3464101615137755,0.0,-5.0,0.7279961482899359,0.006248126072372808,0.014622024151301333,-0.001405057397302606,0.0,0.0,0.0,0.0
26.830800771713257,-0.11823199,-0.36278564,-4.914325,0.00044046488721978354,nan,nan,nan,nan,nan,16.829755544662476,18.029755544662475,0.0003631114959716797,-0.24238044357299807,-0.3464101615137755,0.0,-5.0,0.728237231310198,0.008351878794360912,0.013637776543928448,-0.0007349454564698591,0.0,0.0,0.0,0.0
26.93079686164856,-0.12142842,-0.368067,-4.924356,4.9589747484883075e-06,nan,nan,nan,nan,nan,16.92978310585022,18.12978310585022,0.0004024505615234375,-0.25038264846801755,-0.3464101615137755,0.0,-5.0,0.727921642249205,0.008868788450353172,0.011788041996507662,-0.00023739855018550262,0.0,0.0,0.0,0.0
27.030556440353394,-0.1295599,-0.37378976,-4.9357734,-0.0001299738299696449,nan,nan,nan,nan,nan,17.029494047164917,18.229494047164916,0.00039577484130859375,-0.2583595237731934,-0.3464101615137755,0.0,-5.0,0.727329332198435,0.007784739000901692,0.007436603244124428,1.601690442272306e-05,0.0,0.0,0.0,0.0
27.130549430847168,-0.13429877,-0.37709847,-4.9431496,2.0664446153464966e-05,nan,nan,nan,nan,nan,17.129482984542847,18.329482984542846,0.0004296302795410156,-0.26635863876342775,-0.3464101615137755,0.0,-5.0,0.7269190160923301,0.005936750032907053,0.001848553866836088,8.277613800717136e-06,0.0,0.0,0.0,0.0
27.23044490814209,-0.13522635,-0.37777203,-4.9472256,0.0003143535723601062,nan,nan,nan,nan,nan,17.229382038116455,18.429382038116454,0.00038933753967285156,-0.27435056304931643,-0.3464101615137755,0.0,-5.0,0.7269459677456067,0.0020542384142424033,0.0003254082949869179,-0.0001752864011951257,0.0,0.0,0.0,0.0
27.330803871154785,-0.1382972,-0.37671158,-4.948889,0.0007129587359185115,nan,nan,nan,nan,nan,17.3297598361969,18.5297598361969,0.00037097930908203125,-0.28238078689575197,-0.3464101615137755,0.0,-5.0,0.7271566114151461,-0.0031131209266407845,-0.0003421541050134399,-0.0005077706248462409,0.0,0.0,0.0,0.0
27.43088436126709,-0.14340818,-0.37193558,-4.952233,0.00115875186646177,nan,nan,nan,nan,nan,17.429853200912476,18.629853200912475,0.0004191398620605469,-0.290388256072998,-0.3464101615137755,0.0,-5.0,0.7272690077525967,-0.008478390116439489,-0.0013212085413023577,-0.0008386076795868285,0.0,0.0,0.0,0.0
27.53091025352478,-0.1489479,-0.3621727,-4.9517636,0.0016102999470537487,nan,nan,nan,nan,nan,17.529890060424805,18.729890060424804,0.00039267539978027344,-0.29839120483398435,-0.3464101615137755,0.0,-5.0,0.7274369542847097,-0.01475773795991238,-0.0025975200973778322,-0.0012164480381078187,0.0,0.0,0.0,0.0
27.630805492401123,-0.15548548,-0.35060844,-4.9486365,0.0020384780306290325,nan,nan,nan,nan,nan,17.62976360321045,18.82976360321045,0.00044918060302734375,-0.3063810882568359,-0.3464101615137755,0.0,-5.0,0.7277961634268999,-0.02101995218207666,-0.0032348990265812566,-0.0015951630599238438,0.0,0.0,0.0,0.0
27.730883836746216,-0.16331641,-0.33958712,-4.9429617,0.002376920682033417,nan,nan,nan,nan,nan,17.729848861694336,18.929848861694335,0.00037360191345214844,-0.3143879089355469,-0.3464101615137755,0.0,-5.0,0.7285074849601607,-0.02498665651774906,-0.004494176764592317,-0.0019648476080014314,0.0,0.0,0.0,0.0
27.83132791519165,-0.1716331,-0.33163932,-4.938751,0.0025137718497902782,nan,nan,nan,nan,nan,17.830291032791138,19.030291032791137,0.0005428791046142578,-0.32242328262329106,-0.3464101615137755,0.0,-5.0,0.7289791805565289,-0.024394861342765355,-0.005550485523905867,-0.00216693677171019,0.0,0.0,0.0,0.0
27.930939435958862,-0.1849245,-0.32204852,-4.9343305,0.0025000397266611457,nan,nan,nan,nan,nan,17.929959774017334,19.129959774017333,0.0003845691680908203,-0.33039678192138666,-0.3464101615137755,0.0,-5.0,0.729280227758681,-0.02173561066230619,-0.007771461651958725,-0.002202902731174343,0.0,0.0,0.0,0.0
28.030717134475708,-0.20086394,-0.30954808,-4.9342604,0.002429451699683551,nan,nan,nan,nan,nan,18.029660940170288,19.229660940170287,0.0003783702850341797,-0.338372875213623,-0.3464101615137755,0.0,-5.0,0.7293602202387086,-0.0189048779149674,-0.01071889499348216,-0.0022079211733263488,0.0,0.0,0.0,0.0
28.13084387779236,-0.21654263,-0.29932943,-4.937453,0.0023570099853926353,nan,nan,nan,nan,nan,18.12978982925415,19.32978982925415,0.0007815361022949219,-0.34638318634033205,-0.3464101615137755,0.0,-5.0,0.7291309043493162,-0.016152357978038944,-0.012886799624402187,-0.002163198903513204,0.0,0.0,0.0,0.0
28.230807065963745,-0.23439594,-0.2917985,-4.942078,0.0024422935906999923,nan,nan,nan,nan,nan,18.22979235649109,19.429792356491088,0.00036072731018066406,-0.35438338851928713,-0.3464101615137755,0.0,-5.0,0.7288805464055085,-0.010891605749541003,-0.014795028646266493,-0.0022150022578555687,0.0,0.0,0.0,0.0
28.331052541732788,-0.24783288,-0.2855507,-4.9437366,0.002337674490193339,nan,nan,nan,nan,nan,18.33011555671692,19.53011555671692,0.0003638267517089844,-0.36240924453735346,-0.3464101615137755,0.0,-5.0,0.7288148494147412,-0.005502385208219667,-0.014719730316277822,-0.002161576023665926,0.0,0.0,0.0,0.0
28.430756092071533,-0.25676665,-0.28473312,-4.9481764,0.00201803220761791,nan,nan,nan,nan,nan,18.429732084274292,19.62973208427429,0.00035309791564941406,-0.37037856674194336,-0.3464101615137755,0.0,-5.0,0.7286351577040302,0.0008625995260842789,-0.012378829171301797,-0.0018632205892161948,0.0,0.0,0.0,0.0
28.53079080581665,-0.26975483,-0.28554067,-4.9526544,0.0015334905513652718,nan,nan,nan,nan,nan,18.529797792434692,19.72979779243469,0.000354766845703125,-0.3783838233947754,-0.3464101615137755,0.0,-5.0,0.728405171840491,0.007180839432834912,-0.00960002164932871,-0.0014411375104357793,0.0,0.0,0.0,0.0
28.63054656982422,-0.28480387,-0.28718096,-4.9547844,0.0009357608864371727,nan,nan,nan,nan,nan,18.62950038909912,19.82950038909912,0.0003917217254638672,-0.38636003112792966,-0.3464101615137755,0.0,-5.0,0.7283295423341564,0.011811477148541695,-0.008713599953461236,-0.0009103981095382864,0.0,0.0,0.0,0.0
28.73134136199951,-0.3023346,-0.2896567,-4.9532056,0.0007048008543137779,nan,nan,nan,nan,nan,18.730276584625244,19.930276584625243,0.0004227161407470703,-0.39442212677001953,-0.3464101615137755,0.0,-5.0,0.7285375650651328,0.015247522327618163,-0.008436412741455042,-0.0006057361371978906,0.0,0.0,0.0,0.0
28.83102297782898,-0.31816715,-0.29289865,-4.9468966,0.0009384483820150222,nan,nan,nan,nan,nan,18.830018281936646,20.030018281936645,0.0003643035888671875,-0.39879926872253424,-0.3443304339349677,0.0,-5.0,0.7289743658903559,0.01878109970938722,-0.009393528488383778,-0.000659001876718843,0.0,0.0,0.0,0.0
28.931002855300903,-0.33127788,-0.29888555,-4.945255,0.001181985176103214,nan,nan,nan,nan,nan,18.93035864830017,20.13035864830017,0.00039315223693847656,-0.3947856540679932,-0.33737864943129964,0.0,-5.0,0.7291874120766186,0.022996377513424815,-0.011979323779920887,-0.0008312576438656221,0.0,0.0,0.0,0.0
29.030781507492065,-0.34360656,-0.30766988,-4.9417763,0.0012338748929502036,nan,nan,nan,nan,nan,19.029778957366943,20.229778957366943,0.00040149688720703125,-0.3908088417053223,-0.3304906083669856,0.0,-5.0,0.7293283759336788,0.025907405206361447,-0.01223911890809749,-0.000866408307108783,0.0,0.0,0.0,0.0
29.130861282348633,-0.35775477,-0.3199026,-4.9387374,0.0012281234899873092,nan,nan,nan,nan,nan,19.129849433898926,20.329849433898925,0.00035858154296875,-0.386806022644043,-0.3235575223793447,0.0,-5.0,0.729660680721041,0.028222460486352907,-0.012317196344670862,-0.0007848650654593056,0.0,0.0,0.0,0.0
29.230957746505737,-0.3702123,-0.33206785,-4.9423146,0.0013706746371066362,nan,nan,nan,nan,nan,19.22996711730957,20.42996711730957,0.00036025047302246094,-0.38280131530761724,-0.3166211658032114,0.0,-5.0,0.7294896203716721,0.029441718413023354,-0.011813538322662286,-0.0008602809422262735,0.0,0.0,0.0,0.0
29.330885887145996,-0.38068074,-0.3413863,-4.951362,0.001811018576609317,nan,nan,nan,nan,nan,19.329916954040527,20.529916954040527,0.00035953521728515625,-0.37880332183837895,-0.30969643798616214,0.0,-5.0,0.7289687736467616,0.0270947537045132,-0.00983106597906167,-0.0011661307835851484,0.0,0.0,0.0,0.0
29.430771589279175,-0.3907,-0.35022467,-4.9574294,0.0020999725107104577,nan,nan,nan,nan,nan,19.430150032043457,20.630150032043456,0.0008425712585449219,-0.37479399871826174,-0.3027520866381586,0.0,-5.0,0.7284855184464181,0.023137305057334787,-0.007288379859483755,-0.0015319323532344564,0.0,0.0,0.0,0.0
29.53061604499817,-0.39930704,-0.3592686,-4.965198,0.0022502469735585446,nan,nan,nan,nan,nan,19.52957582473755,20.729575824737548,0.0003693103790283203,-0.3708169670104981,-0.2958636656569995,0.0,-5.0,0.7281178633759917,0.018754000774820666,-0.005275501789331536,-0.0017392839244253792,0.0,0.0,0.0,0.0
