time,x,y,z,yaw,platform,trajectory,traj_double,traj_short,traj_spin,traj_time,ref_time,comptime,x_ref,y_ref,yaw_ref,z_ref,throttle_input,p_input,q_input,r_input,cbf_term_pitch_cbf,cbf_term_roll_cbf,cbf_term_thrust_cbf,cbf_term_yaw_cbf
10.05966067314148,-0.026503362,-0.021251446,-2.992351,-0.0007126675316402331,SIM,HELIX,DblSpd,Not Short,NoSpin,0.05947470664978027,1.2594747066497802,0.0003516674041748047,-0.5998298969905407,-0.014286170806670984,0.0,-2.503789882659912,0.7346188610907101,0.0017590089758096979,0.031523192,0.0006292110938954256,-3.3829833868109462,0.0,33.21842302387046,0.0
10.15979290008545,-0.03129334,-0.025185218,-2.999944,-0.00030351262124820536,nan,nan,nan,nan,nan,0.15958094596862793,1.3595809459686279,0.00034332275390625,-0.5773887661909081,-0.1631631474216554,0.0,-2.5438323783874512,0.7278642096047775,-0.05284841684867079,0.09798318160082561,0.004950328466839483,-1.698544994833266,0.0,18.635030572956975,0.0
10.25962519645691,-0.036434446,-0.02581186,-3.00142,0.00015853208060086612,nan,nan,nan,nan,nan,0.25938963890075684,1.4593896389007568,0.00035190582275390625,-0.5188169764782965,-0.30137840818134054,0.0,-2.5837558555603026,0.7209785755667298,-0.10338990262285834,0.15043123276888845,0.00999417571453311,0.0,0.0,3.673577611979802,0.0
10.359652042388916,-0.04118466,-0.026081977,-3.0054,0.0005226565167931619,nan,nan,nan,nan,nan,0.35941433906555176,1.5594143390655517,0.00034165382385253906,-0.4275414930789218,-0.420961128485572,0.0,-2.6237657356262205,0.7194136496394017,-0.1305818431666633,0.0925166158008401,0.00789967119102076,0.0,0.0,0.0,0.0
10.459725379943848,-0.048078176,-0.025691237,-3.0105233,0.0007883150601223944,nan,nan,nan,nan,nan,0.4595024585723877,1.6595024585723877,0.00034999847412109375,-0.3093068594189298,-0.5141296205397996,0.0,-2.663800983428955,0.7221545276315782,-0.13103412623036195,0.0030547161660745936,-0.0003203046133001162,0.0,0.0,0.0,0.0
10.55961275100708,-0.05776634,-0.028701913,-3.012756,0.001182282904778273,nan,nan,nan,nan,nan,0.559380054473877,1.759380054473877,0.0003452301025390625,-0.17190742922274635,-0.5748459235117063,0.0,-2.7037520217895508,0.7249513198474616,-0.10567256779933328,-0.07464744612068756,-0.009006742369186879,0.19548768239698067,0.0,0.0,0.0
10.659703493118286,-0.07038609,-0.03579596,-3.0101886,0.0018907559842285433,nan,nan,nan,nan,nan,0.6594882011413574,1.8594882011413574,0.0003342628479003906,-0.023385316810901176,-0.599544099260141,0.0,-2.743795280456543,0.7278903905831577,-0.059854023273102436,-0.14400415220969173,-0.014091759969092616,0.014277473212214176,0.0,0.0,0.0
10.759672403335571,-0.09098423,-0.041311927,-3.0050066,0.002430121593770332,nan,nan,nan,nan,nan,0.7594516277313232,1.9594516277313232,0.0003414154052734375,0.126396017077057,-0.5865356313703851,0.0,-2.7837806510925294,0.7309585898962695,-0.007803564234012,-0.19497617689981722,-0.014522722061963384,0.0,0.0,0.0,0.0
10.859638690948486,-0.11944259,-0.056592483,-3.0006716,0.0032027061984952337,nan,nan,nan,nan,nan,0.8594155311584473,2.0594155311584474,0.00035381317138671875,0.2682418451743081,-0.5366994619873234,0.0,-2.823766212463379,0.7336933819419458,0.051125224170709485,-0.21919362339154816,-0.009852252611449522,0.0,0.0,0.0,0.0
10.961262226104736,-0.14894593,-0.07824836,-2.9909835,0.004285599511407407,nan,nan,nan,nan,nan,0.9612996578216553,2.1612996578216555,0.0010132789611816406,0.39542755960707493,-0.4512616149233094,0.0,-2.8645198631286624,0.736369540495174,0.11043280902279873,-0.2201688821165486,-0.0026075964194387045,0.0,0.0,0.0,0.0
11.060173273086548,-0.1820455,-0.10824774,-2.975978,0.005639962507869741,nan,nan,nan,nan,nan,1.0600028038024902,2.2600028038024904,0.00034046173095703125,0.4941219569975024,-0.34035788754333046,0.0,-2.9040011215209964,0.7391529852590142,0.1637783322906787,-0.19886270181161916,0.004127546957715432,0.0,0.0,0.0,0.0
11.15969181060791,-0.20868587,-0.13925305,-2.9641662,0.005780698577831769,nan,nan,nan,nan,nan,1.1594598293304443,2.3594598293304445,0.0003533363342285156,0.5629590639210533,-0.20755021645166094,0.0,-2.943783931732178,0.7415049284264199,0.20569570368226567,-0.1598863112857391,0.008116699520313169,0.0,0.0,0.0,0.0
11.259676456451416,-0.22296046,-0.17238504,-2.9503067,0.005552546754274315,nan,nan,nan,nan,nan,1.2594456672668457,2.459445667266846,0.000396728515625,0.5968861370930411,-0.06104866375398652,0.0,-2.9837782669067385,0.7433327258243773,0.23082899513943544,-0.1010071463316484,0.006982572495170421,0.0,0.0,0.0,0.0
11.359775066375732,-0.22480509,-0.1992622,-2.945218,0.004369881885047392,nan,nan,nan,nan,nan,1.359574317932129,2.559574317932129,0.00034546852111816406,0.593287139167742,0.08950067317152591,0.0,-3.023829727172852,0.7443340493349561,0.2365747863862863,-0.029763646731460317,8.945964562890463e-05,0.0,0.0,0.0,0.0
11.460399150848389,-0.21124022,-0.22694908,-2.9508073,0.00341092679692475,nan,nan,nan,nan,nan,1.4603898525238037,2.660389852523804,0.0007257461547851562,0.5519087612027634,0.23536507665248668,0.0,-3.064155941009522,0.7444552154775994,0.22337312451008967,0.046147286172079735,-0.010619148758702417,-0.06756927935490797,0.0,0.0,0.0
11.55977177619934,-0.18616323,-0.24997051,-2.962173,0.003795062215808484,nan,nan,nan,nan,nan,1.5595524311065674,2.7595524311065676,0.0003464221954345703,0.4768042408023161,0.36422206955774517,0.0,-3.103820972442627,0.7439512714340657,0.19419850511432107,0.118229118417287,-0.023861927232977028,-0.14009339194338055,0.0,0.0,0.0
11.659643411636353,-0.14894477,-0.26922756,-2.9759958,0.004656183615878155,nan,nan,nan,nan,nan,1.6594109535217285,2.8594109535217287,0.0003478527069091797,0.3714137908292644,0.4712237217944735,0.0,-3.1437643814086917,0.74354257900942,0.15066219219569968,0.18341863543364414,-0.03518835980789145,-0.18597193103923704,0.0,0.0,0.0
11.759716272354126,-0.10167652,-0.27565822,-2.9933305,0.006617947972781438,nan,nan,nan,nan,nan,1.7595000267028809,2.959500026702881,0.0003757476806640625,0.24243370912630385,0.5488405020397662,0.0,-3.1838000106811526,0.7431326665486129,0.09428419022143439,0.24237486610171893,-0.042220329618526425,-0.0891045414668018,0.0,0.0,0.0
11.859647274017334,-0.04223241,-0.27041337,-3.0102081,0.009657510887939022,nan,nan,nan,nan,nan,1.8594260215759277,3.059426021575928,0.0003437995910644531,0.09843621252333933,0.5918701817662889,0.0,-3.2237704086303713,0.7429727045753668,0.026667790196770836,0.28793309338865725,-0.042504290944351826,0.0,0.0,0.0,0.0
11.960161685943604,0.016217522,-0.2515459,-3.0292928,0.01263511045687759,nan,nan,nan,nan,nan,1.959930181503296,3.159930181503296,0.0003268718719482422,-0.05260584037521409,0.5976894055932541,0.0,-3.2639720726013186,0.7430897408761868,-0.04330465096517505,0.3083170128986975,-0.03616949113983208,0.0,0.0,0.0,0.0
12.059733629226685,0.08052765,-0.21585834,-3.053961,0.015223920196058567,nan,nan,nan,nan,nan,2.059504747390747,3.2595047473907472,0.00033664703369140625,-0.19898732486340617,0.5660424405852491,0.0,-3.303801898956299,0.7432020981891245,-0.11101548945096082,0.3098558042198339,-0.024925997605786492,0.0,0.0,0.0,0.0
12.15979552268982,0.13800222,-0.17097399,-3.078555,0.018771685037148857,nan,nan,nan,nan,nan,2.159571409225464,3.359571409225464,0.0003383159637451172,-0.33358836230739647,0.4987171588516573,0.0,-3.343828563690186,0.7430597617463945,-0.1768947587007344,0.28723543615650704,-0.012161528353099213,0.0,0.2088869026339718,0.0,0.0
12.259708166122437,0.18729186,-0.11620614,-3.1121187,0.023949424243894592,nan,nan,nan,nan,nan,2.2594761848449707,3.459476184844971,0.00036406517028808594,-0.44703822035112434,0.40019598891705505,0.0,-3.3837904739379883,0.7426603889146864,-0.2364747889249084,0.24704581964501782,-0.0036530836386923834,0.0,0.232805942987515,0.0,0.0
12.35972785949707,0.2253386,-0.05450399,-3.1476412,0.027191235977232598,nan,nan,nan,nan,nan,2.359504222869873,3.5595042228698732,0.0003418922424316406,-0.5325378672320638,0.2764116856500911,0.0,-3.4238016891479495,0.741765514092992,-0.29035790028813413,0.18449085194268358,-0.001524162598738011,0.0,0.02471349110973864,0.0,0.0
12.459970712661743,0.25228354,0.018294532,-3.187973,0.0300031949038621,nan,nan,nan,nan,nan,2.459789276123047,3.659789276123047,0.0003452301025390625,-0.5846447764726446,0.1348721073582357,0.0,-3.463915710449219,0.7409674613620806,-0.3247378162095903,0.11142208790009292,-0.006703605841415384,0.0,0.0,0.0,0.0
12.559817552566528,0.26386696,0.08964199,-3.22649,0.032891224714661084,nan,nan,nan,nan,nan,2.559678077697754,3.759678077697754,0.00067901611328125,-0.5998225165874062,-0.014592758298238761,0.0,-3.503871231079102,0.7399178915588325,-0.33300246511365716,0.025921475975516015,-0.022345881424836365,0.0,0.0,0.0,0.0
12.659713983535767,0.26414242,0.17224006,-3.2700415,0.036494651531428925,nan,nan,nan,nan,nan,2.659482717514038,3.8594827175140383,0.0003581047058105469,-0.5774290295027733,-0.16302059958019208,0.0,-3.5437930870056156,0.7390490170792341,-0.32352092957600104,-0.054732546698781845,-0.04404565883380353,0.11315275233433209,0.0,0.0,0.0
12.759716987609863,0.24633946,0.23651844,-3.305033,0.04230498407205162,nan,nan,nan,nan,nan,2.7594850063323975,3.9594850063323976,0.0003497600555419922,-0.518744725843813,-0.30150275190987436,0.0,-3.5837940025329593,0.7381877289555295,-0.2860712019619874,-0.12599347414691703,-0.06930811590493223,0.44025693091639884,0.0,0.0,0.0
12.859882593154907,0.20983231,0.29973927,-3.3494174,0.04919562198147429,nan,nan,nan,nan,nan,2.8597004413604736,4.059700441360474,0.00034046173095703125,-0.4272386890070154,-0.42126844483721626,0.0,-3.6238801765441897,0.7372595913604922,-0.23021244372785918,-0.19044057957951335,-0.09257475088379133,0.6480780285300229,0.0,0.0,0.0
12.959911584854126,0.16333103,0.34481117,-3.3902855,0.055742045132785766,nan,nan,nan,nan,nan,2.9597387313842773,4.1597387313842775,0.00034236907958984375,-0.30900150530304543,-0.514313201969823,0.0,-3.6638954925537113,0.7361748900313427,-0.15823410835530324,-0.2487253865189561,-0.10956041431058215,0.7427684327241925,0.0,0.0,0.0
13.059905767440796,0.10034556,0.37333918,-3.431895,0.06322504538280671,nan,nan,nan,nan,nan,3.059739351272583,4.259739351272583,0.0003421306610107422,-0.17138826681261593,-0.5750009234766215,0.0,-3.7038957405090334,0.7356568941301298,-0.07690597871478796,-0.30143712116033694,-0.1169258266421424,0.5728949639980839,0.0,0.0,0.0
13.159681797027588,0.030636733,0.37888038,-3.4700098,0.07184593302058664,nan,nan,nan,nan,nan,3.15946102142334,4.35946102142334,0.0003402233123779297,-0.023426271662867936,-0.5995425004084177,0.0,-3.743784408569336,0.7353075270791106,0.0161356868928836,-0.3491086691126224,-0.11465677103968996,0.06586521759542868,-0.037472947807745904,0.0,0.0
13.259633541107178,-0.037254166,0.36677024,-3.5019696,0.08081581204679239,nan,nan,nan,nan,nan,3.2594008445739746,4.459400844573975,0.0004405975341796875,0.1263211553348569,-0.5865517587688804,0.0,-3.78376033782959,0.73573081548841,0.09108716598683485,-0.3697755322213444,-0.10524342063064177,0.0,-0.40901594361488713,0.0,0.0
13.359671831130981,-0.11583239,0.33666918,-3.543745,0.08835007531390512,nan,nan,nan,nan,nan,3.3594436645507812,4.559443664550781,0.00034809112548828125,0.26827979287339043,-0.5366804940891841,0.0,-3.8237774658203127,0.7357456503838222,0.15887194017480152,-0.35237113518137003,-0.0895156552098888,0.0,-0.8758558715891716,0.0,0.0
13.459921598434448,-0.18301974,0.29333225,-3.5852358,0.09226850896326624,nan,nan,nan,nan,nan,3.4597442150115967,4.659744215011597,0.0003497600555419922,0.39366044624190755,-0.45280398967392305,0.0,-3.863897686004639,0.7355760631870131,0.22017527490891806,-0.3134525235646692,-0.072846589518291,0.0,-1.0681184387855622,0.0,0.0
13.559718132019043,-0.24553674,0.2290076,-3.6309302,0.0949545009614908,nan,nan,nan,nan,nan,3.5595083236694336,4.759508323669434,0.0003440380096435547,0.4936985909584633,-0.3409717015906569,0.0,-3.9038033294677734,0.7352109950658944,0.2756169119807177,-0.2521271724665397,-0.061186179036527226,0.0,-1.2888085919613999,0.0,0.0
13.659733533859253,-0.29362392,0.15456428,-3.6734538,0.09439737823522298,nan,nan,nan,nan,nan,3.6595067977905273,4.8595067977905275,0.00037860870361328125,0.5629835601841713,-0.20748376071961752,0.0,-3.9438027191162113,0.7350932276591812,0.3257573347575969,-0.1791489705698527,-0.056685016619514764,0.0,-1.2280198960609066,0.0,0.0
13.759686470031738,-0.32733148,0.071204804,-3.7182531,0.0896432513034828,nan,nan,nan,nan,nan,3.7594587802886963,4.9594587802886965,0.00034165382385253906,0.5968881487264109,-0.06102899237213375,0.0,-3.9837835121154788,0.7349923470265638,0.3711034343503696,-0.09298837020199699,-0.06102061517203942,0.0,-0.496454429214746,0.0,0.0
13.859771490097046,-0.3425849,-0.007895955,-3.7622032,0.08394874980877422,nan,nan,nan,nan,nan,3.8595657348632812,5.059565734863281,0.0003402233123779297,0.5932890697028571,0.08948787499498687,0.0,-4.023826293945313,0.7346805920622279,0.3949596767429077,0.0005199203616707646,-0.07396683569691181,0.0,0.0,0.0,0.0
13.959765672683716,-0.33602393,-0.09073798,-3.809292,0.07834420756373081,nan,nan,nan,nan,nan,3.9595584869384766,5.159558486938477,0.0003376007080078125,0.5523993395519652,0.23421137816628937,0.0,-4.063823394775391,0.7340389660934685,0.36839102091656767,0.07696454664848354,-0.0918988461342631,-0.5818255405338347,0.0,0.0,0.0
14.059613466262817,-0.30463982,-0.15949926,-3.8489969,0.07428088602283657,nan,nan,nan,nan,nan,4.059384107589722,5.259384107589722,0.0003371238708496094,0.476958279779624,0.36402032820937613,0.0,-4.103753643035889,0.7335254886821847,0.31371586736632945,0.1460996963930239,-0.11151304105213736,-1.0910521497104033,0.0,0.0,0.0
14.159616708755493,-0.2514751,-0.22408669,-3.888553,0.0694489078406045,nan,nan,nan,nan,nan,4.159384727478027,5.3593847274780275,0.00035119056701660156,0.3714448499032733,0.4711992396856501,0.0,-4.143753890991211,0.7332793998591702,0.2400933570631699,0.2086242865750357,-0.12625287409681074,-1.6477619392022325,0.0,0.0,0.0
14.259685277938843,-0.18417698,-0.2697117,-3.925191,0.06551525199752539,nan,nan,nan,nan,nan,4.259463310241699,5.459463310241699,0.00034999847412109375,0.24248435428973583,0.5488181282762896,0.0,-4.18378532409668,0.7333423945019734,0.15305553370082528,0.2651704051829187,-0.131582348505246,-1.9479543409494104,0.0,0.0,0.0
14.359729051589966,-0.11396931,-0.2953151,-3.9578815,0.06272710069167448,nan,nan,nan,nan,nan,4.359503984451294,5.559503984451294,0.0003447532653808594,0.09832023836158606,0.5918894582001953,0.0,-4.223801593780518,0.7337505193307258,0.05561435911066053,0.3163097012632099,-0.12537483695441876,-1.9393305967439294,0.0,0.0,0.0
14.459834575653076,-0.03872062,-0.30488348,-3.9883668,0.06035861180651741,nan,nan,nan,nan,nan,4.45961856842041,5.65961856842041,0.00033473968505859375,-0.05213773241766693,0.5977304215600405,0.0,-4.263847427368164,0.7349183841378218,-0.029465592359378352,0.3625591639667933,-0.11072738592148376,-1.5943357673122898,0.1342210604785089,0.0,0.0
14.559898376464844,0.045860864,-0.29704002,-4.0193405,0.0576130267747295,nan,nan,nan,nan,nan,4.559700965881348,5.759700965881348,0.00034165382385253906,-0.19926644496891513,0.5659442409897377,0.0,-4.30388038635254,0.7365784429116276,-0.10314249355229459,0.40438634901470233,-0.086850330131357,-0.7266640650920022,0.6532032494678771,0.0,0.0
14.659805536270142,0.128987,-0.26912943,-4.052933,0.05711956613918313,nan,nan,nan,nan,nan,4.659587144851685,5.859587144851685,0.00033664703369140625,-0.33360808528388525,0.49870396572838677,0.0,-4.343834857940674,0.737967811187924,-0.16977456233336288,0.4221720764232369,-0.057431976763980035,0.0,1.4267907782213574,0.0,0.0
14.7597975730896,0.20511915,-0.2261557,-4.0874977,0.05717780110548361,nan,nan,nan,nan,nan,4.759588956832886,5.959588956832886,0.00040531158447265625,-0.4471516287102723,0.4000692701792413,0.0,-4.3838355827331545,0.7386790839246689,-0.23003541095971475,0.3774624429646948,-0.031787185878754426,0.0,2.0332432113594425,0.0,0.0
14.860032796859741,0.26946858,-0.16832514,-4.121268,0.05705810620457352,nan,nan,nan,nan,nan,4.859888792037964,6.059888792037964,0.0003337860107421875,-0.5328047780099335,0.27589684400113273,0.0,-4.423955516815186,0.7387400234295434,-0.2845342422822063,0.29311499406505703,-0.01553096596676836,0.0,2.5795726554087888,0.0,0.0
14.959982633590698,0.3255123,-0.09215827,-4.15775,0.056501682436777834,nan,nan,nan,nan,nan,4.959774732589722,6.159774732589722,0.0003383159637451172,-0.5846398462522034,0.13489347713733196,0.0,-4.463909893035889,0.7388808152012089,-0.33382200843919607,0.19118365595507486,-0.014330494842385704,0.0,2.694769512974892,0.0,0.0
15.059923648834229,0.36774746,-0.013811232,-4.1930943,0.05366853618380238,nan,nan,nan,nan,nan,5.05972146987915,6.259721469879151,0.00033164024353027344,-0.5998209215861056,-0.014658172723602115,0.0,-4.503888587951661,0.7391519566103962,-0.37839698066880323,0.08496907128485377,-0.026430677019159722,0.0,2.236772591584446,0.0,0.0
15.159845113754272,0.39366177,0.07925453,-4.230291,0.050193451181177864,nan,nan,nan,nan,nan,5.159637928009033,6.359637928009033,0.0003407001495361328,-0.5773653934329349,-0.1632458344523137,0.0,-4.543855171203614,0.7394454404843229,-0.4187097865472752,-0.0175773361235232,-0.04961823534451604,0.28662197400147726,1.090076369147296,0.0,0.0
15.259754180908203,0.39493123,0.16364956,-4.2682796,0.046965425718477165,nan,nan,nan,nan,nan,5.259526014328003,6.459526014328003,0.0003631114959716797,-0.5187136489083676,-0.3015562143882409,0.0,-4.583810405731201,0.7390564183027113,-0.42944606854131484,-0.09239096770947555,-0.07799389099615975,1.0531978557384778,0.0,0.0,0.0
15.359738111495972,0.37178668,0.24690408,-4.312378,0.04412357221425846,nan,nan,nan,nan,nan,5.359510183334351,6.559510183334351,0.00034809112548828125,-0.4274400783298578,-0.4210641037150578,0.0,-4.623804073333741,0.7380190012422845,-0.36953605660893724,-0.16005107508212335,-0.10403606396159254,1.6851790955182882,0.0,0.0,0.0
15.459908485412598,0.3300512,0.31263527,-4.355284,0.04272179599299887,nan,nan,nan,nan,nan,5.459704875946045,6.659704875946045,0.0003368854522705078,-0.3090452660645101,-0.5142869077889463,0.0,-4.663881950378419,0.7363481495930206,-0.27307936835814856,-0.22124166338311707,-0.12429162122225931,2.3513616552693803,0.0,0.0,0.0
15.55992841720581,0.26879838,0.3700847,-4.403666,0.041338455742386454,nan,nan,nan,nan,nan,5.559731483459473,6.759731483459473,0.0003311634063720703,-0.1713996368307486,-0.5749975343375722,0.0,-4.703892593383789,0.7349761120666545,-0.1664192546576319,-0.27658133460177925,-0.13275002373953868,2.7483746596280354,0.0,0.0,0.0
15.659833431243896,0.20499861,0.3997942,-4.4465203,0.041368589281576204,nan,nan,nan,nan,nan,5.659632205963135,6.859632205963135,0.00036263465881347656,-0.02316832612998031,-0.5995525236910731,0.0,-4.743852882385254,0.7340039195218913,-0.04871005574978866,-0.32662954128881805,-0.1262759701919087,2.772635446044852,0.0,0.0,0.0
15.759761095046997,0.13816565,0.41462985,-4.4874,0.041173706501668836,nan,nan,nan,nan,nan,5.759535074234009,6.959535074234009,0.0003490447998046875,0.12651902485757013,-0.5865091102012734,0.0,-4.783814029693604,0.7339008398640966,0.04679954545849057,-0.37189224230291157,-0.10827540014856722,2.398632134897324,-0.6142675423708365,0.0,0.0
15.859765768051147,0.05532683,0.413564,-4.5347033,0.04048749812842592,nan,nan,nan,nan,nan,5.859590291976929,7.059590291976929,0.0003399848937988281,0.2684775494193941,-0.5365815925446538,0.0,-4.823836116790772,0.7343803308649637,0.118819010024175,-0.4128270177665406,-0.08183660838843923,1.3975483884576645,-1.588226037951448,0.0,0.0
15.960289478302002,-0.021226807,0.39440295,-4.576029,0.03987863612011995,nan,nan,nan,nan,nan,5.960062742233276,7.1600627422332765,0.00033020973205566406,0.39402281058377253,-0.45248870122873175,0.0,-4.864025096893311,0.7352589989557641,0.18395212282911172,-0.44793382571351076,-0.048085618464144074,0.0,-2.3014108963698563,0.0,0.0
16.059969425201416,-0.107257865,0.35700834,-4.613057,0.039256623444270784,nan,nan,nan,nan,nan,6.059782981872559,7.259782981872559,0.0003352165222167969,0.49393384313330746,-0.34063082451175963,0.0,-4.903913192749024,0.7362418985753962,0.24285734253942293,-0.40893979480777987,-0.01711092008624193,0.0,-2.8782791756607686,0.0,0.0
16.15999960899353,-0.18290521,0.30530983,-4.6507,0.03851911705929093,nan,nan,nan,nan,nan,6.159797191619873,7.359797191619873,0.00033783912658691406,0.5631348400318109,-0.20707281797074842,0.0,-4.94391887664795,0.7364316933664191,0.2961301673698836,-0.32328869612481453,0.0017700210198693185,0.0,-3.2953148792285076,0.0,0.0
16.259934663772583,-0.25216714,0.23781484,-4.6903696,0.03640720821326359,nan,nan,nan,nan,nan,6.2597362995147705,7.459736299514771,0.0003638267517089844,0.5969305701525112,-0.060612658887380245,0.0,-4.983894519805909,0.7363444441958251,0.3443091552316364,-0.21353769280871998,0.005248436246018255,0.0,-3.226041122383495,0.0,0.0
16.35981273651123,-0.30048048,0.16790828,-4.7244544,0.032943614536784335,nan,nan,nan,nan,nan,6.3596107959747314,7.559610795974732,0.0003495216369628906,0.5932789313135323,-0.08955506495711472,0.0,-4.976155681610107,0.7316822044236593,0.3779792101165858,-0.09405768088488473,-0.012580404803524552,0.0,0.0,0.0,0.0
16.45988655090332,-0.33397272,0.08686144,-4.758308,0.027689461078640377,nan,nan,nan,nan,nan,6.459691524505615,7.659691524505615,0.0003476142883300781,0.5523209977881666,-0.23439606524488443,0.0,-4.9361233901977535,0.7245696598530527,0.2837207199943221,0.016366389270250387,-0.02835726884684725,-0.47044574842640696,0.0,0.004063047925291663,0.0
16.559854984283447,-0.34937197,0.008638939,-4.791067,0.022207939856388234,nan,nan,nan,nan,nan,6.5596466064453125,7.759646606445313,0.0003695487976074219,0.47671802029335264,-0.3643349134074123,0.0,-4.896141357421875,0.7189182225435641,0.171426977025446,0.09129580908158728,-0.034024411480793396,-1.0707534968252057,0.0,0.0,0.0
16.659733533859253,-0.34734458,-0.077100575,-4.825106,0.018024289918781862,nan,nan,nan,nan,nan,6.6595118045806885,7.859511804580689,0.00038170814514160156,0.37129433953979063,-0.47131784755694395,0.0,-4.856195278167725,0.7149740749364656,0.08016855858138287,0.15906063324977,-0.034314350981958355,-1.8054439060359209,0.0,0.0,0.0
16.759740114212036,-0.32568818,-0.14824568,-4.8509703,0.016065683146668897,nan,nan,nan,nan,nan,6.759525775909424,7.959525775909424,0.00042128562927246094,0.24239819050739725,-0.5488561899429937,0.0,-4.81618968963623,0.712791343009566,0.018531348178925065,0.22034592554359783,-0.03259858206920842,-2.447988118945978,0.0,0.0,0.0
16.859994173049927,-0.2833972,-0.21481414,-4.8781962,0.015217654677836628,nan,nan,nan,nan,nan,6.8597869873046875,8.059786987304687,0.00035834312438964844,0.09789922401265098,-0.5919592400982696,0.0,-4.776085205078125,0.7121340114542578,-0.015693599772392892,0.27577124535581093,-0.030396552592248525,-2.975211285323658,0.0,0.0,0.0
16.960405826568604,-0.2298236,-0.2669198,-4.9038897,0.015789468358192546,nan,nan,nan,nan,nan,6.960175514221191,8.16017551422119,0.00036072731018066406,-0.052974358689173294,-0.5976568558307273,0.0,-4.735929794311524,0.712194736273315,-0.0260571033295371,0.3258969110956068,-0.03024567072271705,-3.180246514017912,0.0,0.0,0.0
17.060136795043945,-0.16015285,-0.31408063,-4.9260244,0.017483856151355878,nan,nan,nan,nan,nan,7.060026407241821,8.26002640724182,0.00036644935607910156,-0.1997292772722036,-0.565781067021797,0.0,-4.695989437103272,0.7131407048549193,-0.01714724746596795,0.3712296646885611,-0.03364770171388614,-3.007301069789424,0.0,0.0,0.0
17.15996742248535,-0.08216207,-0.3518613,-4.9433827,0.01873859453015677,nan,nan,nan,nan,nan,7.159870862960815,8.359870862960815,0.0003516674041748047,-0.33396360698009325,-0.49846595592161136,0.0,-4.656051654815674,0.7148628030065578,0.006263330902362359,0.4122277944488201,-0.040189542378216155,-2.1868176214803916,0.0,0.0,0.0
17.259915828704834,0.0019174204,-0.39017722,-4.958309,0.01841953232854062,nan,nan,nan,nan,nan,7.259722709655762,8.459722709655761,0.00036716461181640625,-0.44728608973238393,-0.3999189342003124,0.0,-4.616110916137695,0.7166117999310164,0.0396914817235095,0.4493057681128832,-0.04865748198182877,-0.7015964465345503,0.0,0.0,0.0
17.359870433807373,0.06903064,-0.41913563,-4.96926,0.016404550657379384,nan,nan,nan,nan,nan,7.359658718109131,8.55965871810913,0.0004372596740722656,-0.5326451546702198,-0.2762048862825161,0.0,-4.576136512756348,0.717575544017218,0.07740366206371702,0.43582289085845266,-0.05450758171677179,0.0,0.0,0.0,0.0
17.46004343032837,0.14034145,-0.44743973,-4.98067,0.012739899297939204,nan,nan,nan,nan,nan,7.459887266159058,8.659887266159057,0.00037217140197753906,-0.5846779744815135,-0.1347281193967861,0.0,-4.536045093536377,0.7166174802214246,0.11121608634668101,0.340573431803201,-0.051303781000697796,0.0,0.0,0.0,0.0
17.560030221939087,0.19956534,-0.46960697,-4.980973,0.008940932400775661,nan,nan,nan,nan,nan,7.559908390045166,8.759908390045165,0.0003437995910644531,-0.5998139692576169,0.01493995593777479,0.0,-4.496036643981934,0.715453402912687,0.13324374406049097,0.21519483414543975,-0.03809228805124814,0.0,0.0,0.0,0.0
17.65991759300232,0.2472179,-0.48995918,-4.9756956,0.004467990302437087,nan,nan,nan,nan,nan,7.659729480743408,8.859729480743407,0.0003445148468017578,-0.5773278157529895,0.16337868024280955,0.0,-4.456108207702637,0.7144780931493366,0.14005316578644053,0.08300153460358757,-0.0176793777280863,0.0,0.0,0.0,0.0
17.759976863861084,0.26979196,-0.49835575,-4.96624,0.00039582632279835245,nan,nan,nan,nan,nan,7.759833812713623,8.959833812713622,0.00034809112548828125,-0.5184802153507898,0.3019573915137675,0.0,-4.416066474914551,0.7138539727957371,0.1299479891284162,-0.02896694124415322,0.005506984180221643,0.7068975519717627,0.0,0.0,0.0
17.860113859176636,0.27053323,-0.4950654,-4.956975,-0.0032129055881729846,nan,nan,nan,nan,nan,7.859927654266357,9.059927654266357,0.0003788471221923828,-0.42699805472332003,0.4215123500711463,0.0,-4.376028938293457,0.7136650633640711,0.09566462998933725,-0.10269152242200183,0.025751727719440426,1.78227593090674,0.0,0.0,0.0
17.959970951080322,0.25107485,-0.4812958,-4.9526005,-0.005772266275348631,nan,nan,nan,nan,nan,7.959764242172241,9.15976424217224,0.00033855438232421875,-0.30896852916674516,0.5143330127306025,0.0,-4.3360943031311034,0.7131159820732029,0.050864059764564526,-0.16936671212677962,0.039718544736907314,2.7014152845941806,0.0,0.0,0.0
18.0601065158844,0.2059119,-0.45369664,-4.9400616,-0.00790894374488458,nan,nan,nan,nan,nan,8.059929847717285,9.259929847717284,0.0003490447998046875,-0.17111295411179112,0.5750829130961344,0.0,-4.296028060913086,0.7134748524819563,-0.007276707029981822,-0.2296665585435922,0.045243680597350004,3.5860287584392214,0.0,0.0,0.0
18.159874439239502,0.14574847,-0.4036798,-4.9221754,-0.009741866034701861,nan,nan,nan,nan,nan,8.159687280654907,9.359687280654907,0.00035119056701660156,-0.023085337168389685,0.5995557248561819,0.0,-4.256125087738037,0.7150390040403046,-0.0765612014743114,-0.28420065876874134,0.0392299273293033,4.243063687256509,0.04661369520912262,0.0,0.0
18.259829998016357,0.07475759,-0.3417901,-4.899418,-0.011104678052004047,nan,nan,nan,nan,nan,8.259612321853638,9.459612321853637,0.0004241466522216797,0.1266328899572604,0.5864845361823893,0.0,-4.216155071258545,0.7176766069142302,-0.1457349182474613,-0.3335203214890999,0.022154433337975826,4.488433115236734,0.12843389660232574,0.0,0.0
18.359885692596436,0.0025444534,-0.27435592,-4.8738027,-0.012285956228364849,nan,nan,nan,nan,nan,8.359684944152832,9.559684944152831,0.00042939186096191406,0.26860518753412466,0.5365177100802523,0.0,-4.176126022338868,0.7213263036078458,-0.20829438775883394,-0.37812414039887204,-0.0027445594453469925,4.200553318367809,0.3728717136838724,0.0,0.0
18.460311889648438,-0.07557222,-0.18873355,-4.8397884,-0.014974232211439856,nan,nan,nan,nan,nan,8.460085153579712,9.660085153579711,0.0003459453582763672,0.39404829677262554,0.452466506838454,0.0,-4.135965938568115,0.7259287968907298,-0.26487205060697916,-0.4184630346978088,-0.03128677675252977,3.205697281929577,0.38936101729830086,0.0,0.0
18.560758352279663,-0.16052717,-0.08536936,-4.796842,-0.019523189929340372,nan,nan,nan,nan,nan,8.560548782348633,9.760548782348632,0.00035119056701660156,0.49458852862263347,0.33967953626160413,0.0,-4.095780487060547,0.7307092922454238,-0.3160398747327333,-0.45494480762744216,-0.05659069707158116,1.2465579235239996,0.12010403756652288,0.0,0.0
18.66026997566223,-0.2313537,0.017435828,-4.762203,-0.02493837208650262,nan,nan,nan,nan,nan,8.660061597824097,9.860061597824096,0.0003528594970703125,0.5632723208037299,0.2066985549450695,0.0,-4.055975360870361,0.7340521944345008,-0.35232905255198377,-0.4619508960812459,-0.07045952477545515,0.0,0.0,0.0,0.0
18.759879112243652,-0.2957281,0.13122602,-4.725196,-0.030889160406456857,nan,nan,nan,nan,nan,8.759661436080933,9.959661436080932,0.0003457069396972656,0.596919155173461,0.060724971692060634,0.0,-4.016135425567628,0.7346671788152895,-0.36462884407413026,-0.35378638011420355,-0.059456839383862356,0.0,0.0,0.0,0.0
18.860108852386475,-0.34039313,0.23335041,-4.6883044,-0.0354456838294491,nan,nan,nan,nan,nan,8.859941959381104,10.059941959381103,0.0004477500915527344,0.5932041887545327,-0.09004882255796987,0.0,-3.976023216247559,0.7339153967436143,-0.355564196886593,-0.20811637698359628,-0.027120931006762033,0.0,0.0,0.0,0.0
18.9599449634552,-0.36801097,0.33897626,-4.6404605,-0.04116417520789738,nan,nan,nan,nan,nan,8.959746837615967,10.159746837615966,0.00035572052001953125,0.5522884074113804,-0.23447284499276475,0.0,-3.9361012649536136,0.7332954594033748,-0.32464172424516896,-0.05616686421754304,0.01814401759883779,0.0,0.0,0.0,0.0
19.06003189086914,-0.3706864,0.4216913,-4.599781,-0.046655237535622944,nan,nan,nan,nan,nan,9.059831142425537,10.259831142425536,0.0003445148468017578,0.4765489943195023,-0.36455597102923837,0.0,-3.896067543029785,0.7324605598274229,-0.27146277573679684,0.0485781970809355,0.0635791393297917,-1.2403602923089634,0.0,0.0,0.0
19.160606861114502,-0.349795,0.49024823,-4.557492,-0.05202020036343634,nan,nan,nan,nan,nan,9.160645008087158,10.360645008087157,0.0006887912750244141,0.369950498207998,-0.4723733998392099,0.0,-3.855741996765137,0.7313860146192411,-0.19781250796090102,0.12042759066919952,0.09933242708072082,-2.4712843838789595,0.0,0.0,0.0
19.259920358657837,-0.3114621,0.5306434,-4.517437,-0.05553862928194454,nan,nan,nan,nan,nan,9.259717464447021,10.45971746444702,0.0003573894500732422,0.24213374222347714,-0.5489729054123297,0.0,-3.816113014221192,0.7303328617810037,-0.10985791737420338,0.18540689433067803,0.12258579261281519,-3.4366344175994845,0.0,0.0,0.0
19.359853506088257,-0.25202665,0.54845726,-4.4729586,-0.057933659590950703,nan,nan,nan,nan,nan,9.359660625457764,10.559660625457763,0.0004162788391113281,0.09808721464822108,-0.5919281192193473,0.0,-3.776135749816895,0.7298789415607215,-0.011489574338843973,0.24417301180867312,0.1297362699134698,-4.308291135910865,0.0,0.0,0.0
19.46005654335022,-0.17626326,0.54208916,-4.432126,-0.05925350653495243,nan,nan,nan,nan,nan,9.45992374420166,10.65992374420166,0.00034928321838378906,-0.05259617052857898,-0.5976902566093315,0.0,-3.736030502319336,0.730116407194451,0.06929687896250915,0.2973200350736335,0.1203393295267357,-4.862275746415814,-0.9228429774977422,0.0,0.0
19.56012988090515,-0.083400846,0.50531745,-4.3908796,-0.06070547054053187,nan,nan,nan,nan,nan,9.559980392456055,10.759980392456054,0.00034356117248535156,-0.19966384461781955,-0.5658041614838398,0.0,-3.6960078430175782,0.7310474272479454,0.1391651951807044,0.3453852502545396,0.09958888590530034,-5.0366985914631,-1.5287496494164274,0.0,0.0
19.660089254379272,0.0036362954,0.44617388,-4.345944,-0.06271726332289987,nan,nan,nan,nan,nan,9.65992021560669,10.859920215606689,0.00035834312438964844,-0.33402543249697875,-0.4984245283342366,0.0,-3.6560319137573245,0.7332898935810648,0.20235284797948716,0.3888545692955922,0.06766533753065682,-4.5925653416985135,-2.703729971671601,0.0,0.0
19.759979009628296,0.09605944,0.36028478,-4.2977643,-0.06554879684597179,nan,nan,nan,nan,nan,9.75978422164917,10.95978422164917,0.0003638267517089844,-0.44734791045507377,-0.39984978055699777,0.0,-3.6160863113403323,0.7364645457961341,0.2594986285325862,0.428167442249159,0.029778378923047875,-3.4760937947828756,-3.6452654711305046,0.0,0.0
19.85998296737671,0.16894336,0.27295157,-4.25998,-0.06869731161620546,nan,nan,nan,nan,nan,9.859797477722168,11.059797477722167,0.0003948211669921875,-0.5327414462310361,-0.27601911431577336,0.0,-3.576081008911133,0.7397908520891722,0.3111802481271957,0.46372129986546334,-0.009067773904143596,-1.398536519260511,-4.456206216909058,0.0,0.0
19.959972620010376,0.24075875,0.15188406,-4.220752,-0.0744929465086554,nan,nan,nan,nan,nan,9.959763288497925,11.159763288497924,0.00035881996154785156,-0.5846359661853355,-0.1349102925745073,0.0,-3.5360946846008305,0.7419911530047103,0.3579201784959843,0.46291942460241864,-0.03908068591987515,0.0,-4.993844246238848,0.0,0.0
20.06003999710083,0.30208853,0.03229257,-4.1826167,-0.07994666855168468,nan,nan,nan,nan,nan,10.05985403060913,11.25985403060913,0.0003566741943359375,-0.599816004759055,0.01485800911579955,0.0,-3.4960583877563476,0.7422767358762012,0.4001909337086764,0.343632495129996,-0.0345925808837798,0.0,-5.1075924010451095,0.0,0.0
20.16028356552124,0.3451294,-0.09876287,-4.141354,-0.08507895773933075,nan,nan,nan,nan,nan,10.160086154937744,11.360086154937743,0.000354766845703125,-0.5771811278910053,0.1638961427443214,0.0,-3.455965538024903,0.7416851921524321,0.4384198470201201,0.19048275975252477,0.003684883459468824,0.0,-4.495860795985002,0.0,0.0
20.260037183761597,0.36362228,-0.21748377,-4.1021905,-0.08866643301839941,nan,nan,nan,nan,nan,10.25991702079773,11.459917020797729,0.00037670135498046875,-0.5184170572575226,0.3020658119424481,0.0,-3.416033191680908,0.7408634219894231,0.47299339096605525,0.027061326104771386,0.0646185738267755,0.0,-2.584244174308027,0.0,0.0
20.360013008117676,0.36005184,-0.337591,-4.058407,-0.09113861983792076,nan,nan,nan,nan,nan,10.359816789627075,11.559816789627074,0.0003788471221923828,-0.42711548549367295,0.42139335786353355,0.0,-3.37607328414917,0.7397923474826141,0.49806793375577685,-0.064921871774419,0.12467873845733389,1.7312188453654445,0.0,0.0,0.0
20.459981441497803,0.3301293,-0.43321863,-4.017745,-0.09267195208329732,nan,nan,nan,nan,nan,10.459813594818115,11.659813594818115,0.0003941059112548828,-0.30890473060626705,0.5143713322193116,0.0,-3.336074562072754,0.7375262841808897,0.39928025673658957,-0.135208517101761,0.16998215796115868,3.068857764560929,0.0,0.0,0.0
20.559964895248413,0.26818368,-0.5116259,-3.9696424,-0.09259245019619272,nan,nan,nan,nan,nan,10.559771537780762,11.759771537780761,0.00036406517028808594,-0.1713417524042889,0.5750147857951371,0.0,-3.2960913848876956,0.7351455469651481,0.2507505421341899,-0.19877449924831045,0.19424200544604345,4.208557944469687,0.0,0.0,0.0
20.66016697883606,0.1940027,-0.5580334,-3.9275548,-0.09086844028705261,nan,nan,nan,nan,nan,10.660009622573853,11.860009622573852,0.00038170814514160156,-0.02259960940594083,0.5995742303123933,0.0,-3.255996150970459,0.7335488720695976,0.10118861893473927,-0.25626243408197946,0.1955427102983635,5.0034178842444685,0.0,0.0,0.0
20.76012086868286,0.10416602,-0.57831115,-3.8844454,-0.08776625007511195,nan,nan,nan,nan,nan,10.759984254837036,11.959984254837035,0.00037670135498046875,0.12718106243352897,0.5863659073976579,0.0,-3.216006298065186,0.7330084174500977,-0.026394736111684657,-0.308253491874824,0.17636138827125997,5.464491015777991,0.9202044238628893,0.0,0.0
20.859977960586548,0.02448114,-0.570971,-3.8478315,-0.08468570238492289,nan,nan,nan,nan,nan,10.859797239303589,12.059797239303588,0.0003635883331298828,0.26875659742119473,0.5364418806754202,0.0,-3.1760811042785644,0.7335049969916353,-0.1003652662069516,-0.35527327260341934,0.14458140886583187,5.433162721818935,2.9655338064651824,0.0,0.0
20.959762573242188,-0.069830224,-0.53021336,-3.7976763,-0.0820840746969001,nan,nan,nan,nan,nan,10.959686517715454,12.159686517715453,0.0008275508880615234,0.3935947813945728,0.452861069268444,0.0,-3.1361253929138186,0.7354858309300988,-0.16726288770401035,-0.39779711946520546,0.10347707399124954,4.838086817623859,4.799183784151667,0.0,0.0
21.060473918914795,-0.16697791,-0.45640203,-3.7412918,-0.08007873798235743,nan,nan,nan,nan,nan,11.06025218963623,12.26025218963623,0.00036835670471191406,0.49433518772862856,0.34004811743825536,0.0,-3.0958991241455083,0.7387435099067611,-0.22776389744667394,-0.43625492432742424,0.0523335403745936,3.3660610863326883,6.726056554247332,0.0,0.0
21.1602840423584,-0.25497714,-0.36445525,-3.687932,-0.07996077775115537,nan,nan,nan,nan,nan,11.160112857818604,12.360112857818603,0.00041556358337402344,0.5632989451904412,0.20662598662156775,0.0,-3.0559548568725585,0.7424075550436989,-0.28247992617787193,-0.47103547368900134,0.0006697710791422194,1.445786325945225,8.02905154537828,0.0,0.0
21.26011824607849,-0.3438802,-0.24423322,-3.6313741,-0.08208044429404229,nan,nan,nan,nan,nan,11.259951829910278,12.459951829910278,0.00043201446533203125,0.5969633156610775,0.060289300501272285,0.0,-3.0160192680358886,0.7459488795463928,-0.33196412177803414,-0.46684466376036055,-0.045491939586402075,0.0,9.206391434906337,0.0,0.0
21.36028552055359,-0.4194148,-0.10728125,-3.5782135,-0.0858958761362564,nan,nan,nan,nan,nan,11.360107421875,12.560107421875,0.0005092620849609375,0.5931666904258401,-0.0902955002713617,0.0,-2.97595703125,0.7474546902145696,-0.3767167412750504,-0.3425854299382606,-0.04837549048389599,0.0,9.938353048231622,0.0,0.0
21.460111141204834,-0.47136468,0.029542241,-3.5344565,-0.08953102512491329,nan,nan,nan,nan,nan,11.459967851638794,12.659967851638793,0.0004787445068359375,0.5521580798594437,-0.23477958779658054,0.0,-2.9360128593444825,0.7478973149753588,-0.4171902081578414,-0.18398008585502604,-0.006714351039031449,0.0,10.003453083431719,0.0,0.0
21.560128450393677,-0.4892672,0.18057223,-3.4870067,-0.09280222050343648,nan,nan,nan,nan,nan,11.560001850128174,12.760001850128173,0.0003581047058105469,0.4763925431020605,-0.3647603937885135,0.0,-2.8959992599487308,0.7485140516000183,-0.4537936861201001,-0.010151577078578692,0.06384918500183126,0.0,8.969709226101163,0.0,-0.20497153847740468
21.659847736358643,-0.47519776,0.3208928,-3.4468148,-0.09504010389853432,nan,nan,nan,nan,nan,11.659741401672363,12.859741401672363,0.00035762786865234375,0.3710223082858572,-0.47153202092141555,0.0,-2.8561034393310547,0.7491750681534144,-0.4868972154721467,0.07647204733982277,0.13423839841253363,-2.402445981476893,6.902731422501031,0.0,-0.2916985913135217
21.760149478912354,-0.43545812,0.45526615,-3.4103613,-0.09603541297057958,nan,nan,nan,nan,nan,11.76004147529602,12.96004147529602,0.0003795623779296875,0.2416866179364784,-0.5491698996762538,0.0,-2.815983409881592,0.7488465399023847,-0.5168354540376654,0.14565428884631687,0.19789714129514216,-4.059300655785794,3.6535548828171334,0.0,-0.43961656377933456
21.860068798065186,-0.36863396,0.5851026,-3.3753703,-0.09450650282823646,nan,nan,nan,nan,nan,11.859951496124268,13.059951496124267,0.00045680999755859375,0.09765446669484915,-0.5919996664986769,0.0,-2.7760194015502933,0.7463638722714666,-0.5260860200689353,0.20822146797372024,0.2554689672757676,-5.647111787249721,0.0,0.0,-0.4673378769242502
21.959771394729614,-0.28729293,0.67861915,-3.349425,-0.09131384778459828,nan,nan,nan,nan,nan,11.959571361541748,13.159571361541747,0.00036978721618652344,-0.05206681502641033,-0.5977366031731749,0.0,-2.736171455383301,0.7415806005438921,-0.37476843179266156,0.2648061032604089,0.2887461492094261,-6.448332578393044,0.0,0.0,0.0
22.060019731521606,-0.18233709,0.75342464,-3.3151522,-0.08529123616602652,nan,nan,nan,nan,nan,12.059892654418945,13.259892654418945,0.0003581047058105469,-0.19953907443699345,-0.5658481755496151,0.0,-2.6960429382324222,0.7375985258459093,-0.18491797932028617,0.31598023313460066,0.2695557680494057,-6.8797044204624465,0.0,0.0,0.0
22.160358905792236,-0.07805367,0.79408115,-3.2858975,-0.07843895112137021,nan,nan,nan,nan,nan,12.160210609436035,13.360210609436034,0.0003676414489746094,-0.3343891133100291,-0.498180610722389,0.0,-2.655915756225586,0.7354538886953833,-0.0068509705249017476,0.3622611988969923,0.22674689007320442,-6.815236111695425,0.0,0.0,0.0
22.26008152961731,0.03880822,0.803223,-3.2542667,-0.07094748740590452,nan,nan,nan,nan,nan,12.259966373443604,13.459966373443603,0.00035858154296875,-0.4475309137579232,-0.39964494395775646,0.0,-2.616013450622559,0.7344668828649238,0.07964270762651823,0.40411687474659547,0.17554023603892324,-6.194921402506291,-2.893682423104757,0.0,0.0
22.360008239746094,0.13869445,0.78074193,-3.2244613,-0.06598947190228216,nan,nan,nan,nan,nan,12.359883785247803,13.559883785247802,0.000522613525390625,-0.5328013062374303,-0.275903548494194,0.0,-2.576046485900879,0.7346011283330408,0.1485217771755465,0.4419703977223555,0.11643612112400034,-4.747289248819158,-5.871759180157542,0.0,0.0
22.459925413131714,0.24418204,0.72183627,-3.1836715,-0.06239061633713926,nan,nan,nan,nan,nan,12.459811687469482,13.659811687469482,0.00040459632873535156,-0.5846523723322575,-0.13483917652619806,0.0,-2.5360753250122072,0.7357355854800957,0.21081477301897245,0.47620444537756695,0.051314542607786555,-2.491528537336739,-8.449939149030376,0.0,0.0
22.560341835021973,0.33779168,0.64061093,-3.145145,-0.062097648003791306,nan,nan,nan,nan,nan,12.560197353363037,13.760197353363036,0.0004069805145263672,-0.5998029610247224,0.015375563273432199,0.0,-2.495921058654785,0.7372884372245792,0.2671514418583648,0.4949846474749462,-0.017123337855263154,0.0,-11.005297254233367,0.0,0.0
22.6599760055542,0.42176577,0.52828413,-3.103712,-0.0652279179654739,nan,nan,nan,nan,nan,12.65984582901001,13.859845829010009,0.0003924369812011719,-0.5772800166798963,0.1635474926192961,0.0,-2.4560616683959964,0.7372163483750868,0.31810131532241837,0.37962898993204064,-0.04988345715666455,0.0,-13.151493712293545,0.0,0.0
22.759922981262207,0.47604147,0.405699,-3.0666337,-0.06933716853190672,nan,nan,nan,nan,nan,12.759907484054565,13.959907484054565,0.00051116943359375,-0.5184242971578629,0.3020533862024656,0.0,-2.4160370063781738,0.7368407483083015,0.36417946760727515,0.19942186515867172,-0.02797876258157741,0.0,-14.90197347014266,0.0,0.0
22.85982036590576,0.5078518,0.25870812,-3.0293028,-0.0722602193054035,nan,nan,nan,nan,nan,12.859603881835938,14.059603881835937,0.0004153251647949219,-0.427340910084863,0.42116474991129177,0.0,-2.376158447265625,0.7377774894259761,0.4058517225832257,0.00377104313048534,0.039030538379552115,0.0,-15.485439655478826,0.0,-0.1012351960135035
22.959856510162354,0.51151496,0.11150296,-2.9905596,-0.07227970248802872,nan,nan,nan,nan,nan,12.959660291671753,14.159660291671752,0.00048351287841796875,-0.3091028912594481,0.5142522752648254,0.0,-2.336135883331299,0.7407682194563338,0.4435393630086717,-0.08387303714472383,0.11165419840579616,2.8304524077660336,-14.675786061680613,0.0,0.0
23.05996537208557,0.48846036,-0.045459274,-2.943306,-0.069380223839609,nan,nan,nan,nan,nan,13.059892177581787,14.259892177581786,0.00040602684020996094,-0.1711673995362922,0.5750667103354039,0.0,-2.2960431289672854,0.7443375281697145,0.4776233894588224,-0.15234761136319225,0.17650118653692962,4.690541399323907,-12.391639952691296,0.0,-0.04025648035448759
23.160067796707153,0.43934536,-0.18512434,-2.8997319,-0.06423005229756021,nan,nan,nan,nan,nan,13.159962892532349,14.359962892532348,0.00042557716369628906,-0.022670026487666032,0.5995715719570505,0.0,-2.2560148429870606,0.747083217537508,0.5084483720244646,-0.21427478888023516,0.23611884931474086,6.515257502804163,-8.33878826904053,0.0,-0.18807982600960338
23.259843587875366,0.36191902,-0.3270112,-2.8570628,-0.05604241384891413,nan,nan,nan,nan,nan,13.259674310684204,14.459674310684203,0.0004956722259521484,0.1267242597336777,0.586464800303438,0.0,-2.2161302757263184,0.7472950089187265,0.5363259337192902,-0.270280618182537,0.290035994884913,7.909433387941453,-2.673093557894102,0.0,-0.0023499281865488886
23.35988140106201,0.27682072,-0.44576925,-2.8229885,-0.04664840950257978,nan,nan,nan,nan,nan,13.359694957733154,14.559694957733154,0.0004782676696777344,0.26861868992175725,0.5365109499578912,0.0,-2.1761220169067386,0.7440692115363625,0.4790114633414214,-0.32093128629954165,0.3108240344176839,8.44006670665353,0.0,0.0,0.0
23.460312366485596,0.18273632,-0.5378438,-2.7921789,-0.03699770155521044,nan,nan,nan,nan,nan,13.46030592918396,14.66030592918396,0.00039505958557128906,0.3942992960154908,0.45224779177093655,0.0,-2.135877628326416,0.7401144606668462,0.27807300206906915,-0.3667388426317805,0.27330138360018075,8.233799743858446,0.0,0.0,0.0
23.55986452102661,0.06358553,-0.6220417,-2.7535958,-0.02583591690112104,nan,nan,nan,nan,nan,13.559998512268066,14.759998512268066,0.0007817745208740234,0.49411828593583584,0.34036321702532946,0.0,-2.0960005950927734,0.7378778335335616,0.06319756820625366,-0.4081663754786135,0.20881863738946557,7.378776084178602,0.0,0.0,0.0
23.660608768463135,-0.049533512,-0.6710225,-2.717633,-0.01716087085220591,nan,nan,nan,nan,nan,13.660398721694946,14.860398721694946,0.00040149688720703125,0.5634472511219044,0.2062212287888168,0.0,-2.0558405113220215,0.7373999804561382,-0.06247116075152157,-0.44563269359712765,0.13878318552882055,5.8782176967373445,2.807855539768426,0.0,0.0
23.75986337661743,-0.1696743,-0.68950224,-2.6799555,-0.010441878767880372,nan,nan,nan,nan,nan,13.75969672203064,14.959696722030639,0.0003991127014160156,0.5969245381148667,0.06067203471413353,0.0,-2.016121311187744,0.7371381426840494,-0.13299213798162607,-0.4795165601200895,0.07490237722723081,3.555382411839697,5.274535210577129,0.0,0.0
23.85986089706421,-0.27113786,-0.6764976,-2.646186,-0.007550191409081877,nan,nan,nan,nan,nan,13.859703302383423,15.059703302383422,0.00043010711669921875,0.5932580942673624,0.08969299630549359,0.0,-2.023881320953369,0.7413687729141206,-0.19677004570063664,-0.5095410667493383,0.027221228488390592,0.0,4.204964124577799,0.0,0.0
23.960359573364258,-0.36956656,-0.62448585,-2.6109061,-0.007987558723100488,nan,nan,nan,nan,nan,13.960261106491089,15.160261106491088,0.00042891502380371094,0.5519848903453256,0.23518648096873873,0.0,-2.0641044425964354,0.7439062428999438,-0.25444964222327554,-0.39544070870094133,0.0035990084704944528,0.0,2.850726910406326,0.0,0.0
24.060099124908447,-0.44437024,-0.5516329,-2.578575,-0.009001008047939019,nan,nan,nan,nan,nan,14.05992078781128,15.259920787811279,0.0003521442413330078,0.47646684651494353,0.36466332989773625,0.0,-2.1039683151245114,0.7433120961562076,-0.30661403541209026,-0.20900257006372625,-0.00040404100856228337,0.0,1.1258681745583239,0.0,0.0
24.16031551361084,-0.50572556,-0.45131567,-2.5461998,-0.008443913094551711,nan,nan,nan,nan,nan,14.160242080688477,15.360242080688476,0.0004513263702392578,0.3704286653909838,0.4719985210322746,0.0,-2.14409683227539,0.7425715657535461,-0.33838808482107086,-0.023911211861521123,0.005854108572222242,0.0,0.0,0.0,0.0
24.260522842407227,-0.54235536,-0.34492993,-2.5197039,-0.006101486005435634,nan,nan,nan,nan,nan,14.26034665107727,15.46034665107727,0.00046825408935546875,0.24126533885107776,0.5493551094411289,0.0,-2.184138660430908,0.7425858210026589,-0.31559630419418344,0.07104796908583397,0.015320400217856496,-1.9510425147235122,0.0,0.0,0.0
24.359805583953857,-0.5534128,-0.21693759,-2.4930594,-0.0034807518600625253,nan,nan,nan,nan,nan,14.359628677368164,15.559628677368163,0.0004324913024902344,0.09813474279002571,0.5919202414663106,0.0,-2.2238514709472654,0.7434108955696422,-0.28910005949268636,0.14074884969996435,0.02772358468635429,-3.354339177189145,0.0,0.0,0.0
24.460136890411377,-0.53790504,-0.07883836,-2.4624605,-0.0015172159727859878,nan,nan,nan,nan,nan,14.460043668746948,15.660043668746948,0.00038170814514160156,-0.052776313926471134,0.5976743768042382,0.0,-2.264017467498779,0.7453496518186833,-0.26841985959011133,0.20378507673971255,0.0442930425504908,-4.419437611164457,0.0,0.0,0.0
24.560271501541138,-0.49671772,0.049411893,-2.4357145,-0.0002511820459740865,nan,nan,nan,nan,nan,14.560070991516113,15.760070991516113,0.0006797313690185547,-0.19979267320282684,0.5657586833045237,0.0,-2.304028396606445,0.7482835288387906,-0.2536718070438269,0.2607939105506461,0.06429886956963206,-5.2571086547439165,0.0,0.0,0.0
24.660313367843628,-0.43652335,0.17434058,-2.4094288,0.000979502559455267,nan,nan,nan,nan,nan,14.66015625,15.86015625,0.0004162788391113281,-0.3343210486728425,0.49822629036843374,0.0,-2.3440624999999997,0.7518513894224845,-0.24403237296628735,0.31235167796641017,0.08453000518334036,-5.544360381319332,0.0,0.0,0.0
24.759844064712524,-0.35546517,0.30343777,-2.381119,0.002532462254281387,nan,nan,nan,nan,nan,14.759664297103882,15.959664297103881,0.0004153251647949219,-0.4472273741115595,0.39998459450993756,0.0,-2.3838657188415526,0.7560672721739758,-0.23367003893286203,0.3589795986447003,0.1028497310885934,-5.309887659696932,0.0,0.0,0.0
24.859926223754883,-0.27741542,0.40354785,-2.3621898,0.003926683879825116,nan,nan,nan,nan,nan,14.859760999679565,16.059760999679565,0.0003783702850341797,-0.5327161387473464,0.27606795452952876,0.0,-2.4239043998718257,0.7599037209268223,-0.21894911901247555,0.40114905430107833,0.11540246478996888,-4.347682597653832,0.0,0.0,0.0
24.960065603256226,-0.17125775,0.5072837,-2.347562,0.00560597318747786,nan,nan,nan,nan,nan,14.9600830078125,16.1600830078125,0.0004482269287109375,-0.5847441835538248,0.1344404693534308,0.0,-2.4640332031249996,0.7627887843667384,-0.20137390523087006,0.43928635410958516,0.12029796106756734,-2.6309774240980253,0.0,0.0,0.0
25.059995889663696,-0.06972617,0.58999056,-2.3400514,0.007189974999052107,nan,nan,nan,nan,nan,15.059932470321655,16.259932470321655,0.0005774497985839844,-0.599813063987995,-0.014976256853211342,0.0,-2.5039729881286616,0.7641576835301068,-0.17744816355921672,0.47377704444563545,0.11472013774327079,-0.19148862171907038,0.0,0.0,0.0
25.16004729270935,0.036965672,0.66202694,-2.3355973,0.0086817685556001,nan,nan,nan,nan,nan,15.159964323043823,16.359964323043823,0.0008254051208496094,-0.5772312853313838,-0.1637194039650724,0.0,-2.543985729217529,0.7629345583348198,-0.14844857235374245,0.4129398482066681,0.09348371794032252,0.0,0.0,0.0,0.0
25.26051163673401,0.12608369,0.708179,-2.334046,0.010317683427637572,nan,nan,nan,nan,nan,15.26054859161377,16.46054859161377,0.00037980079650878906,-0.5179369321070985,-0.30288831994563087,0.0,-2.5842194366455074,0.7594903685111525,-0.1116317945228031,0.2809234336062052,0.05802859820947337,0.0,0.0,0.0,0.0
25.36070156097412,0.2044397,0.7349037,-2.335625,0.013106570577090873,nan,nan,nan,nan,nan,15.360685348510742,16.56068534851074,0.0003941059112548828,-0.4261945978301962,-0.4223247148585521,0.0,-2.6242741394042968,0.7553748556268504,-0.06363793544361206,0.13797032910806029,0.019897851696068548,0.0,0.0,0.0,0.0
25.460171937942505,0.26042166,0.7376664,-2.3414338,0.01640424984970175,nan,nan,nan,nan,nan,15.460067987442017,16.660067987442016,0.0005736351013183594,-0.308575799860462,-0.5145687279076295,0.0,-2.664027194976806,0.7512727180365731,-0.00233467843515902,0.0012537492072413512,-0.012994403469115833,0.0,0.0,0.0,0.0
25.559961557388306,0.30008146,0.71915555,-2.351444,0.020404901992774935,nan,nan,nan,nan,nan,15.559786319732666,16.759786319732665,0.0008542537689208984,-0.171320389855848,-0.5750211509324159,0.0,-2.7039145278930663,0.7481062735130655,0.06348189550767984,-0.07954477858195129,-0.03335332601790451,1.1230217800653404,0.0,0.0,0.0
25.65989637374878,0.31688854,0.68443173,-2.3647673,0.023871490196565093,nan,nan,nan,nan,nan,15.659786701202393,16.859786701202392,0.00048422813415527344,-0.022935524807225927,-0.5995614744976674,0.0,-2.7439146804809567,0.74568043857705,0.1311800223033466,-0.14843321190301745,-0.04156088858636121,1.8676164117166687,-0.027012303112328717,0.0,0.0
25.75990867614746,0.31416395,0.62884027,-2.3840187,0.02681881574308491,nan,nan,nan,nan,nan,15.75984525680542,16.95984525680542,0.0009052753448486328,0.1269762135196405,-0.5864103010693235,0.0,-2.7839381027221677,0.7442058477633849,0.1938565634747995,-0.21073467617402894,-0.038277288149442354,2.3556308434846156,0.0,0.0,0.0
25.859819173812866,0.29515874,0.56392205,-2.4000897,0.0286895986813639,nan,nan,nan,nan,nan,15.859652042388916,17.059652042388915,0.00054168701171875,0.26856082134840475,-0.5365399195182686,0.0,-2.823860816955566,0.7439489245836213,0.2509856256008975,-0.2670790037075332,-0.024593496298809088,2.573462747694091,-0.05698028570204894,0.0,0.0
25.960004568099976,0.26797923,0.4775087,-2.4140444,0.030598453129535366,nan,nan,nan,nan,nan,15.959894180297852,17.15989418029785,0.0004811286926269531,0.3938310818543898,-0.4526555853686121,0.0,-2.8639576721191404,0.7449189512827773,0.30144032617951794,-0.31803580355725936,-0.003688374751462765,2.214053067465224,0.0,0.0,0.0
26.06105375289917,0.23020057,0.3708712,-2.4337177,0.03257617468928289,nan,nan,nan,nan,nan,16.061296701431274,17.261296701431274,0.0007836818695068359,0.4952261588111453,-0.3387492459462578,0.0,-2.9045186805725094,0.7465357353128838,0.33921191917517973,-0.3641202199411631,0.0194372082961624,1.146742087765282,0.0,0.0,0.0
26.16018533706665,0.18796146,0.2637937,-2.4597492,0.034210671479539385,nan,nan,nan,nan,nan,16.160038232803345,17.360038232803344,0.0005533695220947266,0.5632601819349013,-0.20673163146132653,0.0,-2.9440152931213377,0.7478364208222246,0.3614919591589607,-0.39795998217196904,0.037985609533213165,0.0,0.0,0.0,0.0
26.259937524795532,0.13539757,0.14002997,-2.4934435,0.03588618176444374,nan,nan,nan,nan,nan,16.25977325439453,17.45977325439453,0.0005710124969482422,0.596936197144815,-0.06055721706193563,0.0,-2.983909301757812,0.7479204867849376,0.36930111078385297,-0.3494935102574801,0.04360664271618595,0.0,0.0,0.0,0.0
26.359923362731934,0.09003976,0.031451818,-2.5246563,0.03685921536993275,nan,nan,nan,nan,nan,16.359843969345093,17.559843969345092,0.0005221366882324219,0.5932263476126416,0.08990272797955175,0.0,-3.023937587738037,0.7468747072421178,0.3572833067224521,-0.25894025337785836,0.031987745566912876,0.0,0.0,0.0,0.0
26.460423231124878,0.05199714,-0.078157336,-2.5658739,0.037681341777468194,nan,nan,nan,nan,nan,16.460578203201294,17.660578203201293,0.00046563148498535156,0.5517972829829709,0.23562631112125637,0.0,-3.0642312812805175,0.7448867789967716,0.32344347276576446,-0.1526833012733219,0.007980139279479052,0.0,0.0,0.0,0.0
26.56001615524292,0.028838461,-0.1661653,-2.606726,0.03841379975754863,nan,nan,nan,nan,nan,16.559878826141357,17.759878826141357,0.000690460205078125,0.47650530168999594,0.3646130791144579,0.0,-3.1039515304565426,0.742283598422497,0.27014270354057535,-0.04322419864085663,-0.021857238079808786,0.0,0.0,0.0,0.0
26.66070532798767,0.01830767,-0.24267754,-2.6521676,0.03911426448525626,nan,nan,nan,nan,nan,16.660934686660767,17.860934686660766,0.00092315673828125,0.3696064926776635,0.4726426140018653,0.0,-3.1443738746643066,0.7397441778764393,0.1999227295976875,0.0471486747841492,-0.049111633974394435,-0.44919164935413713,0.0,0.0,0.0
26.759825706481934,0.028706286,-0.295101,-2.6974773,0.04017422396655561,nan,nan,nan,nan,nan,16.75966238975525,17.95966238975525,0.0005245208740234375,0.24220972752419714,0.5489393845340796,0.0,-3.1838649559020995,0.7372338566764763,0.11778685295528069,0.11913475632816055,-0.06917684170797277,-0.8639112938423555,0.0,0.0,0.0
26.859830856323242,0.055495124,-0.33556315,-2.7415822,0.04126760133948462,nan,nan,nan,nan,nan,16.85967254638672,18.059672546386718,0.0005435943603515625,0.09806948010493026,0.5919310577017806,0.0,-3.223869018554687,0.7354617918802874,0.02990615785459042,0.18423767812668654,-0.07956191680117627,-1.2083692220565019,0.0,0.0,0.0
26.960756063461304,0.088193685,-0.35079622,-2.7806225,0.04185075682227972,nan,nan,nan,nan,nan,16.960840463638306,18.160840463638305,0.0008847713470458984,-0.053973088482866534,0.5975674905143523,0.0,-3.264336185455322,0.7345693720595969,-0.052003450767212724,0.24311559363197338,-0.07830450195780785,-1.2321686215687042,0.32403146369106584,0.0,0.0
27.06015157699585,0.12763777,-0.34043977,-2.8205633,0.04196946116188584,nan,nan,nan,nan,nan,17.060003995895386,18.260003995895385,0.0005128383636474609,-0.19969740885188317,0.5657923160470136,0.0,-3.304001598358154,0.7344523074967539,-0.12352532870542646,0.2963637250288378,-0.06562055460399809,-0.772391109265399,1.0504709630010054,0.0,0.0
27.159857988357544,0.16453461,-0.30566728,-2.8563883,0.041970440715885106,nan,nan,nan,nan,nan,17.15973448753357,18.35973448753357,0.000885009765625,-0.33379273874262616,0.49858039227660855,0.0,-3.3438937950134275,0.735369575326588,-0.18820843308371463,0.3424300779708345,-0.0449325645204993,0.0,1.620772460599573,0.0,0.0
27.25994873046875,0.20346594,-0.24377647,-2.8994215,0.042173134677474994,nan,nan,nan,nan,nan,17.259777784347534,18.459777784347533,0.0007522106170654297,-0.44734144134543297,0.39985701801392776,0.0,-3.3839111137390137,0.7360946987597747,-0.246706673239362,0.33434504181611346,-0.020255049136444075,0.0,2.5058658351953715,0.0,0.0
27.35983920097351,0.23310703,-0.17315893,-2.9379535,0.0421796587745467,nan,nan,nan,nan,nan,17.359635591506958,18.559635591506957,0.0007162094116210938,-0.5326290997783357,0.276235845011685,0.0,-3.423854236602783,0.736605510796648,-0.2996114330556897,0.28450891831221414,-0.001514250087668095,0.0,3.3634198552792327,0.0,0.0
27.459811210632324,0.26243067,-0.07401932,-2.985445,0.041747815915922,nan,nan,nan,nan,nan,17.459609985351562,18.659609985351562,0.0006880760192871094,-0.5845839428233345,0.13513553860152563,0.0,-3.4638439941406247,0.7372647511286669,-0.34745754951622265,0.21240969487458197,0.005580682873756535,0.0,3.878975144662529,0.0,0.0
27.55975890159607,0.27687308,0.026412535,-3.0309196,0.04085893618943795,nan,nan,nan,nan,nan,17.559537410736084,18.759537410736083,0.0004210472106933594,-0.5998276381478437,-0.014380699356411725,0.0,-3.5038149642944334,0.7381134730281784,-0.3907287196019123,0.12506929188545124,-0.0020868255913976974,0.0,3.8420547796056894,0.0,0.0
27.65971088409424,0.2725694,0.1358376,-3.0824008,0.03946110999781855,nan,nan,nan,nan,nan,17.65954899787903,18.859548997879028,0.0004379749298095703,-0.577401865401459,-0.16311678586496078,0.0,-3.543819599151611,0.7387514065088002,-0.42986239019206723,0.024152758774108805,-0.02592187040194976,0.0,2.9767588357212746,0.0,0.0
27.7597017288208,0.2566483,0.23764075,-3.129858,0.037674213465593534,nan,nan,nan,nan,nan,17.759474277496338,18.959474277496337,0.0004038810729980469,-0.5187528555280012,-0.301488764104974,0.0,-3.583789710998535,0.7390829648433325,-0.46525418040310257,-0.06084932189708709,-0.058491208584393516,0.555514435262515,0.90148028388551,0.0,0.0
27.859686851501465,0.22059448,0.34127048,-3.1817365,0.035474409540922,nan,nan,nan,nan,nan,17.859459400177002,19.059459400177,0.0004565715789794922,-0.42749381609990966,-0.42100954525561124,0.0,-3.6237837600708005,0.7385996340006599,-0.4487252995831771,-0.13152537599312272,-0.09047050865840371,1.0361768479542164,0.0,0.0,0.0
27.959686279296875,0.17030923,0.42447466,-3.2317529,0.03355690580655762,nan,nan,nan,nan,nan,17.95945692062378,19.15945692062378,0.0004413127899169922,-0.3093656991928303,-0.5140942172043284,0.0,-3.6637827682495114,0.7369525729844755,-0.3478696817775495,-0.19544353244992993,-0.11423230704510506,1.4874844307954924,0.0,0.0,0.0
28.059653759002686,0.10315122,0.49573308,-3.286915,0.03185452907653763,nan,nan,nan,nan,nan,18.059415578842163,19.259415578842162,0.000492095947265625,-0.17185610487053998,-0.574861269541379,0.0,-3.703766231536865,0.7352204189931472,-0.2265346650006661,-0.2532499674170747,-0.12560729087101738,1.684227440496385,0.0,0.0,0.0
