time,x,y,z,yaw,platform,trajectory,traj_double,traj_short,traj_spin,traj_time,ref_time,comptime,x_ref,y_ref,yaw_ref,z_ref,throttle_input,p_input,q_input,r_input,cbf_term_pitch_cbf,cbf_term_roll_cbf,cbf_term_thrust_cbf,cbf_term_yaw_cbf
10.096760749816895,0.052997034,-0.009699548,-3.1988893,0.0004327509454838535,SIM,CIRCLE_HORIZONTAL,DblSpd,Not Short,Spin,0.08987569808959961,1.2898756980895996,0.0003867149353027344,0.19098579124352127,0.5687920776022518,0.4052264017162292,-5.0,0.7991294349129489,0.054347721674408,-0.05534960433672396,0.05434772167440802,0.0,-2.781867247774381,-72.3456730431186,-8.811455528330647
10.196857690811157,0.059627034,-0.008900153,-3.2171648,0.0011901156861468757,nan,nan,nan,nan,nan,0.1896669864654541,1.389666986465454,0.0005896091461181641,0.135315780256357,0.5845422479287646,0.4365767595616137,-5.0,0.8063076683759862,0.11883378312409949,-0.052467572847845576,0.11883378312409952,0.0,-0.4101380573092249,-44.06154932462228,-7.67301080317492
10.297354698181152,0.06504021,-0.0029408652,-3.2539823,0.004763053103828952,nan,nan,nan,nan,nan,0.2901625633239746,1.4901625633239746,0.00060272216796875,0.07798263165366635,0.5949106732614305,0.4681483761593133,-5.0,0.8134942591930607,0.12524955483465752,-0.028110390527883743,0.1839654833558758,0.0,0.0,-8.776895639645485,-6.373706970769364
10.39653730392456,0.06561889,0.0063599204,-3.3139467,0.011876233370430969,nan,nan,nan,nan,nan,0.38924551010131836,1.5892455101013183,0.00039315223693847656,0.0207329873496036,0.5996416790347058,0.4992762019284865,-5.0,0.8091829012545718,0.09090827144322788,0.0031770402623876883,0.24286942556034102,0.0,0.0,0.0,-5.163426936727672
10.496480941772461,0.067369014,0.01514051,-3.3989305,0.024555988895184976,nan,nan,nan,nan,nan,0.48917579650878906,1.689175796508789,0.0003719329833984375,-0.03719721632479408,0.5988458625537013,0.5306702272933699,-5.0,0.7944639711058971,0.04991073252838163,0.033608774541904037,0.2961410950374141,0.0,0.0,0.0,-4.020040702866909
10.596547365188599,0.06846114,0.024733447,-3.480893,0.03948324360090586,nan,nan,nan,nan,nan,0.5892603397369385,1.7892603397369384,0.001178741455078125,-0.09486894577242776,0.5924524311098978,0.5621127138677143,-5.0,0.7800186439619716,0.011192425983332602,0.058470141825152054,0.3443190380182725,0.0,0.0,0.0,-2.9025443831209854
10.696542024612427,0.06843452,0.041254774,-3.5855513,0.062095764680322484,nan,nan,nan,nan,nan,0.6892902851104736,1.8892902851104736,0.0005273818969726562,-0.15162277423041268,0.5805260841122243,0.593538048020163,-5.0,0.767651611874461,-0.023383964904669804,0.07575026570845336,0.38789030606095715,0.0,0.0,0.8971098923527352,-1.8619569378173528
10.796515226364136,0.06862283,0.06509854,-3.6903749,0.08766695238103338,nan,nan,nan,nan,nan,0.7892358303070068,1.9892358303070068,0.0005054473876953125,-0.20691414700400368,0.5631931602652909,0.6249368670750085,-5.0,0.7573737707831397,-0.0559051640657618,0.08744060689575793,0.42729537986416505,0.0,0.0,4.113534917061278,-0.7945379699810746
10.89667010307312,0.06318962,0.09909007,-3.8138337,0.1203513464003477,nan,nan,nan,nan,nan,0.8893895149230957,2.089389514923096,0.0004591941833496094,-0.260384483144898,0.5405551969386331,0.656401075056994,-5.0,0.7479586703680945,-0.08419719871589484,0.09288358198972838,0.45994413794933425,0.0,0.0,5.708212425838354,0.0
10.996585369110107,0.05757672,0.13462003,-3.9326887,0.15461941245902652,nan,nan,nan,nan,nan,0.9892966747283936,2.1892966747283937,0.0004105567932128906,-0.3112939840575208,0.5129288990587252,0.6877878349855284,-5.0,0.7393419593379079,-0.10761844974932105,0.09221003188201345,0.46155698938221545,0.0,0.0,8.229167191899437,0.0
11.096573829650879,0.048779625,0.17386842,-4.0636153,0.19526452908934439,nan,nan,nan,nan,nan,1.089285135269165,2.289285135269165,0.001068115234375,-0.3593401695554914,0.4804941649425419,0.7192001362933925,-5.0,0.7314629331144251,-0.12291212509437395,0.08774600116112534,0.4576761778608207,0.0,0.0,8.928371263535805,0.0
11.196599960327148,0.03656968,0.20835002,-4.1848626,0.23507268108216767,nan,nan,nan,nan,nan,1.1893091201782227,2.389309120178223,0.0005633831024169922,-0.4040472982142654,0.4435603462954646,0.7506235979106997,-5.0,0.7242644803978756,-0.12725805145347907,0.07647867455329814,0.45002357536012333,0.0,0.0,10.148964255708888,0.0
11.296498775482178,0.02330899,0.25096408,-4.317987,0.27976579952776426,nan,nan,nan,nan,nan,1.289201021194458,2.489201021194458,0.00038552284240722656,-0.4449287457505991,0.402539949824609,0.782005564149272,-5.0,0.7176930108121593,-0.1280619830580499,0.06583396000809154,0.44187161498805866,0.0,0.0,10.09037511261947,0.0
11.396754741668701,0.0045904773,0.29182303,-4.4359193,0.32184425992089716,nan,nan,nan,nan,nan,1.3894777297973633,2.5894777297973635,0.0006401538848876953,-0.48179802967758006,0.35759007060991177,0.8135084212565772,-5.0,0.7116983651106509,-0.12542691432099218,0.05230948579065513,0.4313394744077626,0.0,0.0,9.65205274813016,0.0
11.496541023254395,-0.013847611,0.33171552,-4.555831,0.3642849922719469,nan,nan,nan,nan,nan,1.4892501831054688,2.689250183105469,0.0004584789276123047,-0.5139931687567912,0.3095335562929367,0.8448528618909147,-5.0,0.706233709871768,-0.12036532523212487,0.038722022860529136,0.4213665683080324,0.0,0.0,8.832816148974185,0.0
11.596508979797363,-0.034076285,0.36861017,-4.672478,0.4065163506051308,nan,nan,nan,nan,nan,1.5892226696014404,2.7892226696014406,0.0003783702850341797,-0.5414610833733531,0.25849544520581924,0.8762601448045997,-5.0,0.7012554189124197,-0.1117256679778006,0.026793620897409182,0.41145547291765255,0.0,0.0,6.797782774506045,0.0
11.696787118911743,-0.059525985,0.40080142,-4.7812605,0.44840932750835505,nan,nan,nan,nan,nan,1.68949294090271,2.88949294090271,0.0005567073822021484,-0.563935300342005,0.2048828373197048,0.9077609795739521,-5.0,0.6967229438090322,-0.10047577046412,0.01157867080632966,0.4005709876392491,0.0,0.0,3.7130706061456307,0.0
11.796637296676636,-0.08569541,0.42485216,-4.8957686,0.4933397553700869,nan,nan,nan,nan,nan,1.7893528938293457,2.989352893829346,0.0003597736358642578,-0.5810564465058271,0.14957742468040036,0.9391329090241661,-5.0,0.6925986759583607,-0.08652264216844835,-0.003620749431054105,0.3911905112573635,0.0,0.0,0.2964675113580726,0.0
11.896633863449097,-0.11584294,0.44361204,-4.9887824,0.5376319484464405,nan,nan,nan,nan,nan,1.8893511295318604,3.0893511295318605,0.0004119873046875,-0.5927800082352175,0.09280011765431921,0.9705482812896622,-5.0,0.6914917106394644,-0.0700749803950647,-0.020601589415141747,0.3804428311122459,0.0,0.0,0.0,0.0
11.99659252166748,-0.14851953,0.4536599,-5.0688405,0.577881568837054,nan,nan,nan,nan,nan,1.9893062114715576,3.189306211471558,0.00043129920959472656,-0.5989676708382036,0.03518137704322344,1.0019500964007342,-5.0,0.6922214837999648,-0.055958064038695195,-0.03698993705877526,0.37059324116294473,0.0,0.0,0.0,0.0
12.096576929092407,-0.18501039,0.4551457,-5.144184,0.6173935782733955,nan,nan,nan,nan,nan,2.0893020629882812,3.2893020629882814,0.0003807544708251953,-0.59956705499186,-0.022789176562303132,1.0333647196521736,-5.0,0.6928994335315788,-0.04437416072604932,-0.05371110462381064,0.3612931325723157,0.0,0.0,0.0,0.0
12.196546077728271,-0.227537,0.4445371,-5.216067,0.6595138616113893,nan,nan,nan,nan,nan,2.1892497539520264,3.3892497539520265,0.00033855438232421875,-0.5945726563379472,-0.08051929169607328,1.0647642128196702,-5.0,0.6940088417187346,-0.0325073814681537,-0.07148883061840358,0.3517207823561183,0.0,0.0,0.0,0.0
12.296554803848267,-0.26265988,0.42755157,-5.273478,0.6973836664044677,nan,nan,nan,nan,nan,2.2892675399780273,3.4892675399780275,0.000659942626953125,-0.584023376870198,-0.1375379775521316,1.09618572700043,-5.0,0.6955494027576216,-0.0228689657616039,-0.08406659774361579,0.3446798636368041,0.0,0.0,0.0,0.0
12.39656400680542,-0.29914382,0.40346643,-5.329418,0.7372105585726729,nan,nan,nan,nan,nan,2.389273166656494,3.5892731666564943,0.0003662109375,-0.5680215617644372,-0.19326537550914183,1.1276034212095016,-5.0,0.6973547123856593,-0.013958258453887915,-0.09232240951698566,0.33822053396432983,0.0,0.0,0.0,0.0
12.49650502204895,-0.3347454,0.3743627,-5.376366,0.7730279074947861,nan,nan,nan,nan,nan,2.4892144203186035,3.6892144203186037,0.0003421306610107422,-0.5467310664267288,-0.24715408352663698,1.1590008920390453,-5.0,0.6991477910527375,-0.007261157610466291,-0.09677470357368533,0.33293624895087826,0.0,0.0,0.0,0.0
12.596775531768799,-0.37417784,0.3359099,-5.421672,0.8109015943135358,nan,nan,nan,nan,nan,2.589479684829712,3.789479684829712,0.00035643577575683594,-0.5202482904749385,-0.2989008468671576,1.1905001538788789,-5.0,0.7009685558548383,-0.0040088125728264205,-0.10092023024642513,0.3282157106732849,0.0,0.0,0.0,0.0
12.696698904037476,-0.4070649,0.29593742,-5.459382,0.8449628249846579,nan,nan,nan,nan,nan,2.6894094944000244,3.8894094944000246,0.0003390312194824219,-0.48899507987679613,-0.3476834937932569,1.2218940294409508,-5.0,0.7025972224628144,-0.003476619203238368,-0.10113744514399199,0.3255394940964962,0.0,0.0,0.0,0.0
12.796728134155273,-0.4420449,0.2432608,-5.489558,0.8810827052128805,nan,nan,nan,nan,nan,2.7894601821899414,3.9894601821899416,0.00036215782165527344,-0.45313670611306633,-0.3932774155389558,1.253325880015692,-5.0,0.7045685784681862,-0.0032757280043233194,-0.10105966965214036,0.32375775200488666,0.0,0.0,0.0,0.0
12.896653175354004,-0.47000405,0.19152622,-5.5055437,0.9112200793887103,nan,nan,nan,nan,nan,2.8893556594848633,4.0893556594848635,0.0003380775451660156,-0.4131085194460431,-0.43513371641496384,1.284708969775349,-5.0,0.7070798109655696,-0.0006300801161389731,-0.1018206272288679,0.3207806611048633,0.0,0.0,0.0,0.0
12.996650695800781,-0.50128263,0.12564445,-5.5184994,0.9463988353368478,nan,nan,nan,nan,nan,2.9893624782562256,4.189362478256226,0.00033974647521972656,-0.3691803993560389,-0.47297550965278906,1.3161270384914487,-5.0,0.7096548365114226,0.0012499358618218853,-0.1023346835283127,0.3198640173665729,0.0,0.0,0.0,0.0
13.096750497817993,-0.52808446,0.06193723,-5.5277877,0.9784435162788676,nan,nan,nan,nan,nan,3.0894806385040283,4.2894806385040285,0.0003428459167480469,-0.321750367090094,-0.5064352883413533,1.347580086163991,-5.0,0.7121363046219693,0.0031748183767101954,-0.10257530920559038,0.31766998464648794,0.0,0.0,0.0,0.0
13.19672417640686,-0.5547016,-0.009874457,-5.541651,1.0125957231032314,nan,nan,nan,nan,nan,3.189448595046997,4.389448595046997,0.0003376007080078125,-0.2713868386216412,-0.535116047061711,1.3789859459509686,-5.0,0.7140195479172353,0.003686562888999754,-0.1007296260410968,0.3166541214899738,0.0,0.0,0.0,0.0
13.29661250114441,-0.5750363,-0.075826734,-5.552851,1.0436297094564515,nan,nan,nan,nan,nan,3.2893357276916504,4.489335727691651,0.00033855438232421875,-0.2185347242284676,-0.558786698397866,1.4103664141614278,-5.0,0.7157239992231048,0.004416210797803425,-0.0959803639346539,0.3154569520459053,0.0,0.0,0.0,0.0
13.396752834320068,-0.59180593,-0.14865428,-5.561257,1.0769062846741977,nan,nan,nan,nan,nan,3.3894736766815186,4.589473676681519,0.00033664703369140625,-0.16350685013525718,-0.5772915294362516,1.4418256786506396,-5.0,0.7173099906398441,0.005434156549717834,-0.08978839677578054,0.3154684158276499,0.0,0.0,0.0,0.0
13.49668025970459,-0.60251737,-0.21677044,-5.567389,1.107440553066668,nan,nan,nan,nan,nan,3.489396572113037,4.689396572113037,0.0003666877746582031,-0.10707087350266124,-0.5903692302681238,1.4732173820719476,-5.0,0.7188260996663729,0.008295251244781615,-0.08361444737103,0.3150739781543255,0.0,0.0,0.0,0.0
13.596646547317505,-0.6068565,-0.28818882,-5.572337,1.140385977179529,nan,nan,nan,nan,nan,3.5893664360046387,4.789366436004639,0.0003299713134765625,-0.04960959705795562,-0.5979455559494922,1.5046238410701704,-5.0,0.720133897896828,0.011235582468476873,-0.07746064147318084,0.31561378732415224,0.0,0.0,0.0,0.0
13.696707725524902,-0.5996615,-0.34715515,-5.5777726,1.1709323365095807,nan,nan,nan,nan,nan,3.689422369003296,4.889422369003296,0.00034236907958984375,0.008364505995381528,-0.5999416930331257,1.5360573394758357,-5.0,0.7210865290028285,0.01738179264898357,-0.06570996638119918,0.3151927881277413,0.0,0.0,0.0,0.0
13.796610355377197,-0.5870239,-0.40305254,-5.577213,1.203920510085184,nan,nan,nan,nan,nan,3.7893266677856445,4.989326667785645,0.0003387928009033203,0.06617301602873872,-0.5963397789428945,1.5674432005875023,-5.0,0.7221580615964165,0.02245506056610264,-0.05272617772935426,0.3167282170765009,0.0,0.0,0.0,0.0
13.896549940109253,-0.5678229,-0.45128933,-5.5742736,1.2316563625060852,nan,nan,nan,nan,nan,3.8892557621002197,5.08925576210022,0.0003612041473388672,0.12337894129061204,-0.5871776876261628,1.5988368514453575,-5.0,0.7233635593958901,0.029374544148247115,-0.04127334667756234,0.31787717371793034,0.0,0.0,0.0,0.0
13.996569633483887,-0.53783095,-0.50698686,-5.5658717,1.2643724349281347,nan,nan,nan,nan,nan,3.9892771244049072,5.189277124404907,0.00035309791564941406,0.17948560676303027,-0.5725250361031444,1.6302594891472024,-5.0,0.7246512387558489,0.039301318209480185,-0.03359233695483709,0.3182563402033952,0.0,0.0,0.0,0.0
14.096531391143799,-0.50558794,-0.5550342,-5.5525327,1.2944393402276946,nan,nan,nan,nan,nan,4.0892417430877686,5.289241743087769,0.0003523826599121094,0.23388544117414536,-0.5525374199154075,1.6616643003145006,-5.0,0.726182530117586,0.049004186648953715,-0.029414277267582094,0.3189929474537618,0.0,0.0,0.0,0.0
14.19676685333252,-0.47078714,-0.60021305,-5.535948,1.3271521698732,nan,nan,nan,nan,nan,4.1895012855529785,5.389501285552979,0.0003368854522705078,0.2862534353444257,-0.5273129722977755,1.6931617645205983,-5.0,0.7276078361018729,0.053769866668130155,-0.02576289883396462,0.3205070513201363,0.0,0.0,0.0,0.0
14.29688286781311,-0.4254973,-0.6363952,-5.5205755,1.3574084786153067,nan,nan,nan,nan,nan,4.289599895477295,5.489599895477295,0.00034737586975097656,0.3358575364400398,-0.4971918293942764,1.7246086702778767,-5.0,0.7289121383737571,0.058821919781995455,-0.02088292197737325,0.3208694749609226,0.0,0.0,0.0,0.0
14.396618604660034,-0.37039724,-0.6691234,-5.504822,1.3901783022934238,nan,nan,nan,nan,nan,4.3893208503723145,5.589320850372315,0.00034809112548828125,0.38215080821134817,-0.46255892574180574,1.7559369322085918,-5.0,0.7299957555684332,0.06542359025725186,-0.015805152372699898,0.3210696308450715,0.0,0.0,0.0,0.0
14.496686458587646,-0.31512716,-0.6928701,-5.4912257,1.4204459217093701,nan,nan,nan,nan,nan,4.489389896392822,5.689389896392822,0.00037360191345214844,0.42503843001234515,-0.4234882914705444,1.7873745501915685,-5.0,0.7308103765554469,0.07113564682075153,-0.01133266916571181,0.3211160419872646,0.0,0.0,0.0,0.0
14.596696615219116,-0.25577042,-0.7092424,-5.476932,1.451036374499488,nan,nan,nan,nan,nan,4.589409351348877,5.789409351348877,0.0003428459167480469,0.46393386623598176,-0.3804804433336018,1.8187965886821682,-5.0,0.7314728092760314,0.07510770630203331,-0.005739545498809429,0.321022096170619,0.0,0.0,0.0,0.0
14.696704149246216,-0.1936288,-0.72125477,-5.4642777,1.4843154615646612,nan,nan,nan,nan,nan,4.68941855430603,5.8894185543060305,0.0003333091735839844,0.4984926834981126,-0.33392371059697235,1.8502154064123246,-5.0,0.7319362785720627,0.07537018223032059,-0.000694573048729708,0.3205582295736464,0.0,0.0,0.0,0.0
14.796668291091919,-0.12490722,-0.7269472,-5.4507356,1.517510749095094,nan,nan,nan,nan,nan,4.789413690567017,5.989413690567017,0.00034880638122558594,0.5283924877330118,-0.28425583355019973,1.881629804959547,-5.0,0.7323710657573337,0.07463795587696127,0.0027454796679556304,0.32013766021238277,0.0,0.0,0.0,0.0
14.896569728851318,-0.05840608,-0.72556883,-5.4383965,1.5480388250219417,nan,nan,nan,nan,nan,4.8892810344696045,6.089281034469605,0.00034427642822265625,0.5533306582091831,-0.23200254887779168,1.9130040563533366,-5.0,0.7327531953039309,0.07453998665809962,0.005522040522419591,0.3191695326885164,0.0,0.0,0.0,0.0
14.996662139892578,0.008916757,-0.7187073,-5.427301,1.5784821340928628,nan,nan,nan,nan,nan,4.989375591278076,6.189375591278076,0.00034809112548828125,0.5731552072294924,-0.17746297761989,1.9444496887867186,-5.0,0.7330925562245887,0.07348383030745499,0.0077212193401569465,0.3194536125445801,0.0,0.0,0.0,0.0
15.096778392791748,0.081219226,-0.70713323,-5.4192357,1.611434563853871,nan,nan,nan,nan,nan,5.089483976364136,6.289483976364136,0.0003445148468017578,0.5876198642827063,-0.1212554951347514,1.975899665501629,-5.0,0.7330724735832603,0.0722288171470315,0.008939922352922042,0.31918234474608626,0.0,0.0,0.0,0.0
15.196635961532593,0.14450149,-0.68655074,-5.4191937,1.6419177805609713,nan,nan,nan,nan,nan,5.189337253570557,6.389337253570557,0.0003743171691894531,0.5965704037538377,-0.06406054452611983,2.0072694977124845,-5.0,0.7327622512959426,0.06946179387361762,0.010561907205765352,0.32038821438215315,0.0,0.0,0.0,0.0
15.296712160110474,0.20051877,-0.6596417,-5.415839,1.6751620782544139,nan,nan,nan,nan,nan,5.289422035217285,6.489422035217285,0.0003490447998046875,0.5999686343185235,-0.006134968130787156,2.0387120591882346,-5.0,0.7324416494622676,0.06292952845111041,0.013702050352249143,0.3205570581866615,0.0,0.0,0.0,0.0
15.396795272827148,0.2490931,-0.6331016,-5.4093738,1.7058985016271997,nan,nan,nan,nan,nan,5.3895180225372314,6.589518022537232,0.00034236907958984375,0.5977550626326461,0.051854460724621965,2.070158141030051,-5.0,0.732332221121199,0.05248139766258471,0.01754477694802903,0.3193928012983015,0.0,0.0,0.0,0.0
15.496788740158081,0.29570162,-0.604166,-5.40062,1.7365489999732713,nan,nan,nan,nan,nan,5.489499568939209,6.689499568939209,0.000347137451171875,0.5899617960079222,0.10929354624636703,2.1015682701971508,-5.0,0.7324727889076069,0.044306055570979254,0.01734161240958162,0.3201438220361293,0.0,0.0,0.0,0.0
15.596786499023438,0.3383739,-0.5701036,-5.390812,1.767340076861977,nan,nan,nan,nan,nan,5.58954930305481,6.78954930305481,0.00034308433532714844,0.5766513223405358,0.1657505729791343,2.132999821166269,-5.0,0.7326673846638341,0.037677578735853985,0.01909887375589027,0.3194086199715978,0.0,0.0,0.0,0.0
15.697197198867798,0.3804651,-0.5285554,-5.3890467,1.8006795024203566,nan,nan,nan,nan,nan,5.6899189949035645,6.889918994903565,0.0003387928009033203,0.5578831849948692,0.22083104831517786,2.164531889821781,-5.0,0.7324579377759743,0.033397999568482696,0.021072178001613262,0.31923436619660756,0.0,0.0,0.0,0.0
15.79688024520874,0.4191931,-0.48841843,-5.38851,1.831264088179537,nan,nan,nan,nan,nan,5.789587736129761,6.989587736129761,0.0003342628479003906,0.5340531080182116,0.2734726271788246,2.195843748344657,-5.0,0.7320797180776185,0.03199696017982312,0.0232104383263429,0.31830234295312226,0.0,0.0,0.0,0.0
15.896700620651245,0.4590805,-0.44312412,-5.3897595,1.8641749950192827,nan,nan,nan,nan,nan,5.889421463012695,7.0894214630126955,0.0003437995910644531,0.5052180646394588,0.32365831854281074,2.227207438640249,-5.0,0.7316955928902249,0.03370747780697776,0.022906463815778044,0.3184432998251516,0.0,0.0,0.0,0.0
15.996793508529663,0.49145654,-0.39737797,-5.393618,1.8944423292571178,nan,nan,nan,nan,nan,5.989497900009155,7.1894979000091555,0.00034999847412109375,0.47159458211304006,0.370942785509608,2.258647378566801,-5.0,0.7311775469820639,0.03690523170527517,0.023344674351917366,0.3179254392346733,0.0,0.0,0.0,0.0
16.09663438796997,0.5174164,-0.3388459,-5.4079304,1.9275010378030637,nan,nan,nan,nan,nan,6.0893394947052,7.2893394947052,0.0003502368927001953,0.43365536214753814,0.4146601341830289,2.290013540608779,-5.0,0.7299248714399188,0.03891234358685281,0.029152562446341297,0.31666809908636895,0.0,0.0,0.0,0.0
16.196762561798096,0.5307477,-0.28291947,-5.4165196,1.9581914588071774,nan,nan,nan,nan,nan,6.189502716064453,7.389502716064453,0.00034046173095703125,0.39153869829779403,0.45463990996751374,2.321480744646991,-5.0,0.7290702992719504,0.03828582073304605,0.0351590088656454,0.3165710567746745,0.0,0.0,0.0,0.0
16.296772956848145,0.54018193,-0.22264352,-5.4232006,1.9916314112835194,nan,nan,nan,nan,nan,6.289528131484985,7.4895281314849855,0.0003459453582763672,0.34581972653047677,0.49031491588813225,2.352904655672732,-5.0,0.7286025934182259,0.03524691173633516,0.04030031634037952,0.3162586412187663,0.0,0.0,0.0,0.0
16.39662790298462,0.54346657,-0.16211863,-5.4277525,2.0226203092982953,nan,nan,nan,nan,nan,6.3893444538116455,7.589344453811646,0.0003516674041748047,0.2969756694897006,0.5213496444145177,2.384262878165711,-5.0,0.728378112451143,0.03127982057720651,0.04535067216756707,0.31483602933660837,0.0,0.0,0.0,0.0
16.496606826782227,0.5420731,-0.10182757,-5.430855,2.050995853235118,nan,nan,nan,nan,nan,6.489320993423462,7.689320993423462,0.0004611015319824219,0.2452841980602697,0.5475725177379982,2.4156714344032917,-5.0,0.7282133270840605,0.028928019184245018,0.05294660270747749,0.31456911895054435,0.0,0.0,0.0,0.0
16.596521377563477,0.541441,-0.03270038,-5.434605,2.0843764016810864,nan,nan,nan,nan,nan,6.589228868484497,7.789228868484497,0.0003733634948730469,0.19134139334602554,0.5686725518190601,2.4470584190360434,-5.0,0.72810051555585,0.029397480049948174,0.05640161758997975,0.3142578610935543,0.0,0.0,0.0,0.0
16.696762800216675,0.5405325,0.03157044,-5.4354553,2.115030078921011,nan,nan,nan,nan,nan,6.689466953277588,7.889466953277588,0.00035572052001953125,0.1354288053175228,0.584516072225793,2.478549142115632,-5.0,0.7281907982234306,0.032253602640647624,0.057034473108709335,0.3144035127317995,0.0,0.0,0.0,0.0
16.796868085861206,0.5307397,0.09912045,-5.4328957,2.1482183850430885,nan,nan,nan,nan,nan,6.78959584236145,7.98959584236145,0.0003323554992675781,0.0783085223290113,0.5948678637568571,2.510005560351429,-5.0,0.7285153795149465,0.034686793388180565,0.056071921836373044,0.31446461407947907,0.0,0.0,0.0,0.0
16.89674401283264,0.51383466,0.15713567,-5.428967,2.178917325047256,nan,nan,nan,nan,nan,6.889469861984253,8.089469861984252,0.0003612041473388672,0.020602943544985944,0.5996461612628585,2.5413819089845764,-5.0,0.7289102916558362,0.03207290099388873,0.055171781758452436,0.314095436186807,0.0,0.0,0.0,0.0
16.99671459197998,0.4906714,0.21432327,-5.423541,2.212222563971132,nan,nan,nan,nan,nan,6.989426374435425,8.189426374435424,0.00033926963806152344,-0.03734226745101556,0.5988368350908424,2.572784173504082,-5.0,0.7293009051242526,0.025515356698345683,0.05311053721541514,0.3136721933991002,0.0,0.0,0.0,0.0
17.097946882247925,0.47095516,0.2643922,-5.416792,2.242712912061334,nan,nan,nan,nan,nan,7.090745210647583,8.290745210647582,0.0005202293395996094,-0.0957192192566026,0.5923156515447708,2.6046144246555207,-5.0,0.7297438278240914,0.021819925860057994,0.04926232950507523,0.31450973159413387,0.0,0.0,0.0,0.0
17.196902990341187,0.44214112,0.3137084,-5.4123845,2.2757142482345047,nan,nan,nan,nan,nan,7.189693450927734,8.389693450927734,0.0003466606140136719,-0.15184900404445226,0.5804669499383301,2.635699931130497,-5.0,0.7300557691856281,0.01727085945793529,0.04548797177278822,0.31361510713117313,0.0,0.0,0.0,0.0
17.296759366989136,0.4094203,0.35249943,-5.4099483,2.306176542314277,nan,nan,nan,nan,nan,7.289507150650024,8.489507150650024,0.00035500526428222656,-0.20706184864211202,0.5631388734911763,2.667057329708013,-5.0,0.7301658648547595,0.01082490810625282,0.04244529986924841,0.3136097369388843,0.0,0.0,0.0,0.0
17.396713495254517,0.36887184,0.38739347,-5.4087367,2.3393362508546467,nan,nan,nan,nan,nan,7.38946008682251,8.589460086822509,0.00043320655822753906,-0.2604213580769945,0.5405374327993703,2.6984584707064343,-5.0,0.7301732026937346,0.0022647933427081125,0.04032150626193953,0.3134027317196832,0.0,0.0,0.0,0.0
17.497057676315308,0.3278426,0.41277155,-5.4101214,2.3702147465113317,nan,nan,nan,nan,nan,7.489760875701904,8.689760875701904,0.0003695487976074219,-0.3115241126461941,0.5127891645111091,2.7299688928557106,-5.0,0.7298836078083293,-0.006590354215212206,0.03848006991846339,0.3131226755076385,0.0,0.0,0.0,0.0
17.59690761566162,0.2790966,0.43145528,-5.415201,2.4038439506148874,nan,nan,nan,nan,nan,7.589664459228516,8.789664459228515,0.00033736228942871094,-0.3595163287620364,0.48036237295761136,2.7613545292631603,-5.0,0.7294033850107327,-0.01483886299394933,0.03707544941812202,0.3144651606274162,0.0,0.0,0.0,0.0
17.69685935974121,0.23285648,0.44665107,-5.4167924,2.434747978685884,nan,nan,nan,nan,nan,7.689687490463257,8.889687490463256,0.0003714561462402344,-0.4042095030828918,0.4434125366038738,2.792777691274845,-5.0,0.72914112134461,-0.023344538399020592,0.037003702572008385,0.3131415958775094,0.0,0.0,0.0,0.0
17.796915769577026,0.1865961,0.45807335,-5.4150662,2.4654895413528957,nan,nan,nan,nan,nan,7.789637327194214,8.989637327194213,0.0003390312194824219,-0.4450984784170666,0.402352264204903,2.824177858554992,-5.0,0.7292183538980967,-0.026799637550609837,0.03746036316618056,0.3135624488940594,0.0,0.0,0.0,0.0
17.8968186378479,0.13932447,0.46681222,-5.411466,2.4960595441932636,nan,nan,nan,nan,nan,7.8895580768585205,9.08955807685852,0.0004909038543701172,-0.4818258011710007,0.3575526497257757,2.8555688878636496,-5.0,0.7294626802193191,-0.027548396322107305,0.037227891566215365,0.31363721893626484,0.0,0.0,0.0,0.0
17.996871948242188,0.084298804,0.4760988,-5.4067197,2.528833527539498,nan,nan,nan,nan,nan,7.989611864089966,9.189611864089965,0.00035572052001953125,-0.514101355446561,0.3093538367759623,2.887001712156664,-5.0,0.7296820746605148,-0.025360206683633774,0.040173047507322306,0.3137730114782674,0.0,0.0,0.0,0.0
18.096847772598267,0.030321693,0.48733103,-5.4056954,2.5587902646151277,nan,nan,nan,nan,nan,8.089583396911621,9.28958339691162,0.00034999847412109375,-0.5415511864848126,0.2583066248025622,2.918408695464726,-5.0,0.729800502082784,-0.020244869010818654,0.045752389389614116,0.3131666932745772,0.0,0.0,0.0,0.0
18.19684934616089,-0.028167779,0.49565506,-5.4090004,2.591379520467848,nan,nan,nan,nan,nan,8.189587116241455,9.389587116241454,0.0003457069396972656,-0.5639539493127717,0.20483149917560944,2.9498257904625524,-5.0,0.729711435190124,-0.013488220488838356,0.050926173490159016,0.3133166572897726,0.0,0.0,0.0,0.0
18.29686665534973,-0.08153788,0.50142664,-5.413521,2.6215756165449347,nan,nan,nan,nan,nan,8.28963828086853,9.48963828086853,0.0003497600555419922,-0.5810976879661951,0.14941712432095114,2.981257790840105,-5.0,0.729370076242204,-0.007687129991961612,0.05398232829563381,0.31232220501852753,0.0,0.0,0.0,0.0
18.396904468536377,-0.13599129,0.5018584,-5.4172654,2.654407564035563,nan,nan,nan,nan,nan,8.389671325683594,9.589671325683593,0.00036334991455078125,-0.5928087029297924,0.09261663851974507,3.0126840987108268,-5.0,0.7291589159775119,-0.002911534658536668,0.05540913163036627,0.31274053509567235,0.0,0.0,0.0,0.0
18.496833086013794,-0.17924203,0.4908213,-5.41995,2.6852306415445826,nan,nan,nan,nan,nan,8.48958945274353,9.68958945274353,0.00035381317138671875,-0.5989772808183739,0.0350173823040343,3.0440743041040217,-5.0,0.7288960848601852,-0.005029675871762715,0.0487840211226588,0.3118173537382964,0.0,0.0,0.0,0.0
18.59702181816101,-0.23045951,0.47845507,-5.428189,2.7183017797755977,nan,nan,nan,nan,nan,8.589824438095093,9.789824438095092,0.0003447532653808594,-0.5995554711441622,-0.023091925452452828,3.0755640534653366,-5.0,0.7285326140193855,-0.006452535386772211,0.044431845682213006,0.31236598546135885,0.0,0.0,0.0,0.0
18.69687557220459,-0.27766588,0.46089885,-5.4352827,2.7487280977441513,nan,nan,nan,nan,nan,8.689717769622803,9.889717769622802,0.00036334991455078125,-0.5945361682045417,-0.08078827078642607,3.106946469112343,-5.0,0.7282158362841772,-0.0106688012328582,0.04175954655849288,0.31187467415669523,0.0,0.0,0.0,0.0
18.796703815460205,-0.31960136,0.4418654,-5.4403863,2.776504646578614,nan,nan,nan,nan,nan,8.789473056793213,9.989473056793212,0.00047588348388671875,-0.5839960418345624,-0.13765399784083285,3.138285516845473,-5.0,0.728028802822823,-0.015553469638520992,0.04077449704366099,0.3126087498697668,0.0,0.0,0.0,0.0
18.89672040939331,-0.36596414,0.41510275,-5.444982,2.809228594466134,nan,nan,nan,nan,nan,8.889425992965698,10.089425992965698,0.0004038810729980469,-0.567993004739426,-0.19334928644057195,3.169686657843894,-5.0,0.7279190357441796,-0.02056982604103612,0.040672249240515254,0.3131790432677576,0.0,0.0,0.0,0.0
18.997364282608032,-0.4014688,0.38004413,-5.444538,2.8396940019115346,nan,nan,nan,nan,nan,8.990087032318115,10.190087032318115,0.00039696693420410156,-0.5465223962314564,-0.24761516596813493,3.2013102560171207,-5.0,0.7280508977893495,-0.029144530227013826,0.03665586343210136,0.3134178134637832,0.0,0.0,0.0,0.0
19.09745478630066,-0.44225886,0.33590648,-5.454673,2.8726582164893912,nan,nan,nan,nan,nan,9.090375900268555,10.290375900268554,0.00037860870361328125,-0.519989151146246,-0.29935143675988346,3.2328169330961143,-5.0,0.727763530167675,-0.038002817475993524,0.03413300125921704,0.31452399617195137,0.0,0.0,0.0,0.0
19.19688868522644,-0.47315818,0.2887495,-5.461529,2.9031963163143795,nan,nan,nan,nan,nan,9.18964409828186,10.38964409828186,0.0003502368927001953,-0.4889162201935261,-0.3477943783784831,3.264002957257484,-5.0,0.7274495706192067,-0.04846457832484691,0.031181302012406185,0.31455137195405214,0.0,0.0,0.0,0.0
19.296753883361816,-0.4970357,0.23191571,-5.4684043,2.9363837169853526,nan,nan,nan,nan,nan,9.289464950561523,10.489464950561523,0.0004291534423828125,-0.4531348933678695,-0.39327950418562313,3.2953626028771703,-5.0,0.7273557445161347,-0.05892857354400579,0.024896531220148295,0.31439234940185595,0.0,0.0,0.0,0.0
19.396835803985596,-0.5111094,0.17673028,-5.4746757,2.967005465890896,nan,nan,nan,nan,nan,9.38957691192627,10.589576911926269,0.00035309791564941406,-0.41301544694063425,-0.435222058940523,3.3268137031131655,-5.0,0.7270721453925544,-0.0671710623947268,0.01701477044222828,0.31424957945878285,0.0,0.0,0.0,0.0
19.49685287475586,-0.51542103,0.117978655,-5.4805226,3.000432258143067,nan,nan,nan,nan,nan,9.489633798599243,10.689633798599242,0.0003597736358642578,-0.3690563393011505,-0.4730723183844454,3.3582475011244535,-5.0,0.7269081366600065,-0.06975010912117828,0.007329195491047094,0.3136110076395964,0.0,0.0,0.0,0.0
19.59732747077942,-0.5172751,0.06319945,-5.4861584,3.031104877118743,nan,nan,nan,nan,nan,9.590129137039185,10.790129137039184,0.00036263465881347656,-0.321432836247684,-0.5066368835584018,3.3898190428207475,-5.0,0.7268760088906278,-0.06848722065804985,-7.408621259595897e-05,0.3130454530786184,0.0,0.0,0.0,0.0
19.696836233139038,-0.5093344,0.0045065284,-5.485855,3.0643838622497874,nan,nan,nan,nan,nan,9.689593076705933,10.889593076705932,0.00034618377685546875,-0.27131210043008086,-0.5351539443564045,3.421066561036163,-5.0,0.7271551689799464,-0.06451257713760898,-0.0057972230602241085,0.31284458776386276,0.0,0.0,0.0,0.0
19.796642303466797,-0.49761558,-0.048548132,-5.482616,3.0950590469788537,nan,nan,nan,nan,nan,9.78940486907959,10.98940486907959,0.0004830360412597656,-0.2184973771752979,-0.5588013029400661,3.452423360402434,-5.0,0.727667086954867,-0.059255635917981005,-0.013089814955337488,0.3122887671078756,0.0,0.0,0.0,0.0
19.89806842803955,-0.48391622,-0.10481104,-5.481087,3.128063295513721,nan,nan,nan,nan,nan,9.890842199325562,11.09084219932556,0.00035572052001953125,-0.16274302330233456,-0.5775073232145336,3.4842908375524844,-5.0,0.7280409568078807,-0.053809418742761,-0.015280600227473991,0.31198017795643457,0.0,0.0,0.0,0.0
19.997478246688843,-0.46275517,-0.16072834,-5.4866834,3.1609693737628857,nan,nan,nan,nan,nan,9.990498065948486,11.190498065948486,0.0007574558258056641,-0.10644221593877558,-0.5904828995542911,3.515598651399455,-5.0,0.7278064388122515,-0.050275969404819196,-0.016280166081057215,0.3125063854779864,0.0,0.0,0.0,0.0
20.097021341323853,-0.44204143,-0.21204703,-5.4867415,3.191189675419273,nan,nan,nan,nan,nan,10.089853048324585,11.289853048324584,0.00038552284240722656,-0.04932832945463687,-0.597968825201795,3.5468119396724846,-5.0,0.7278437579478417,-0.048614314498751844,-0.01577465288855673,0.31364330618178154,0.0,0.0,0.0,0.0
20.197104692459106,-0.4216123,-0.2561927,-5.48379,3.2187823960967537,nan,nan,nan,nan,nan,10.189881801605225,11.389881801605224,0.00035953521728515625,0.0086309438986289,-0.59993791912782,3.578236899317905,-5.0,0.7282127075313417,-0.04740391558983125,-0.014689410390086331,0.31341210586711654,0.0,0.0,0.0,0.0
20.29744029045105,-0.39291343,-0.3039899,-5.479371,3.2515233521028106,nan,nan,nan,nan,nan,10.290467262268066,11.490467262268066,0.0006229877471923828,0.06683046931796154,-0.5962664575261138,3.6098367537455376,-5.0,0.7286523221556226,-0.045661614286812396,-0.012267753217083295,0.31474952271068407,0.0,0.0,0.0,0.0
20.397770404815674,-0.36047688,-0.34349087,-5.474901,3.281988272206225,nan,nan,nan,nan,nan,10.390651941299438,11.590651941299438,0.00037026405334472656,0.12417128844788243,-0.5870106397035685,3.641310698910259,-5.0,0.7289031286481976,-0.042459503538815245,-0.013955599338663317,0.3141103743499808,0.0,0.0,0.0,0.0
20.496893405914307,-0.3268601,-0.38409102,-5.4737024,3.314889725930638,nan,nan,nan,nan,nan,10.489697217941284,11.689697217941283,0.0003497600555419922,0.1797180834121261,-0.5724521032319403,3.6724266902573377,-5.0,0.7290655211927102,-0.039889973178139304,-0.013930322834644612,0.31418835803700407,0.0,0.0,0.0,0.0
20.597111225128174,-0.29570138,-0.41684845,-5.4747305,3.345022743930067,nan,nan,nan,nan,nan,10.58986783027649,11.789867830276489,0.0003504753112792969,0.23421979582279212,-0.5523957704804858,3.703896216239125,-5.0,0.7290950175391875,-0.036534641384148775,-0.012694783258789718,0.3137628898008618,0.0,0.0,0.0,0.0
20.69689130783081,-0.2596031,-0.44802836,-5.4757423,3.377613084858649,nan,nan,nan,nan,nan,10.6896231174469,11.889623117446899,0.00045228004455566406,0.2863155339830114,-0.5272792571304347,3.735235263972255,-5.0,0.7290662290749168,-0.033140989258954756,-0.010861166296667382,0.3143261776906709,0.0,0.0,0.0,0.0
20.796712160110474,-0.22538735,-0.47496453,-5.4760704,3.407736304287111,nan,nan,nan,nan,nan,10.789414405822754,11.989414405822753,0.000385284423828125,0.3357683833326338,-0.4972520414781517,3.7665856218176397,-5.0,0.7289976201907349,-0.029815121473969412,-0.010690123852749273,0.313627930551759,0.0,0.0,0.0,0.0
20.896939039230347,-0.18956174,-0.50550884,-5.4761333,3.440233929339753,nan,nan,nan,nan,nan,10.889683246612549,12.089683246612548,0.00036835670471191406,0.3823128229043186,-0.46242502683454656,3.798086007178558,-5.0,0.7289554183956422,-0.030339998283257147,-0.007806338128236776,0.31456978312425793,0.0,0.0,0.0,0.0
20.996806859970093,-0.15358968,-0.53068024,-5.473222,3.470162164107305,nan,nan,nan,nan,nan,10.989598512649536,12.189598512649535,0.00035881996154785156,0.4251238210149548,-0.42340257061766245,3.829475313754885,-5.0,0.7291273627188823,-0.03137075563919276,-0.006553198528422782,0.31441023372089494,0.0,0.0,0.0,0.0
21.096686363220215,-0.108656496,-0.551736,-5.4724727,3.502574298394969,nan,nan,nan,nan,nan,11.089396953582764,12.289396953582763,0.0003883838653564453,0.46392930643946045,-0.3804860031940744,3.860827918642439,-5.0,0.7292932677325125,-0.03259355066236277,-0.007821090316034134,0.3149330152104787,0.0,0.0,0.0,0.0
21.196776151657104,-0.06896286,-0.5638762,-5.4746914,3.5302196749164763,nan,nan,nan,nan,nan,11.18954849243164,12.38954849243164,0.000431060791015625,0.49853462168470536,-0.33386109534009456,3.8922914525117736,-5.0,0.7293097176512469,-0.03410164555283144,-0.011722549328867222,0.315683883231523,0.0,0.0,0.0,0.0
21.29661202430725,-0.024386432,-0.57111436,-5.4795,3.5605141395628888,nan,nan,nan,nan,nan,11.28931474685669,12.489314746856689,0.0005443096160888672,0.5283652981408257,-0.2843063694688467,3.923633945709564,-5.0,0.7289529111686079,-0.03374625489389972,-0.017558811692322467,0.31561113242785893,0.0,0.0,0.0,0.0
21.397692918777466,0.027593283,-0.57320225,-5.483879,3.5933369275691684,nan,nan,nan,nan,nan,11.390429973602295,12.590429973602294,0.0004973411560058594,0.5535879824090759,-0.23138786859351237,3.95540023106057,-5.0,0.7286162174117917,-0.0331895230757196,-0.025806221795868833,0.3150431451229903,0.0,0.0,0.0,0.0
21.497143507003784,0.072691366,-0.5669691,-5.490196,3.6234556424052147,nan,nan,nan,nan,nan,11.489912271499634,12.689912271499633,0.00036907196044921875,0.5732471941038934,-0.17716561306306913,3.986653516684221,-5.0,0.7283230981582006,-0.03224479364042815,-0.03190887104818867,0.3160792887190829,0.0,0.0,0.0,0.0
21.597182035446167,0.122005306,-0.5591892,-5.492323,3.6560760063938504,nan,nan,nan,nan,nan,11.589956045150757,12.789956045150756,0.00045299530029296875,0.5876751347004515,-0.12098733840698453,4.018083195118198,-5.0,0.7282486913510754,-0.030400503722620275,-0.0372257826686957,0.3159632736462609,0.0,0.0,0.0,0.0
21.696779012680054,0.16877389,-0.54906636,-5.490711,3.6862008782810705,nan,nan,nan,nan,nan,11.689491271972656,12.889491271972656,0.0003681182861328125,0.5965799345367406,-0.06397172584930234,4.049353108853905,-5.0,0.7284976581441683,-0.029929541150672267,-0.04110818584281452,0.315696310509006,0.0,0.0,0.0,0.0
21.796915531158447,0.22020961,-0.534234,-5.486653,3.7186695639672616,nan,nan,nan,nan,nan,11.789661645889282,12.989661645889282,0.0003719329833984375,0.5999700391954879,-0.005996004316602264,4.080822559934287,-5.0,0.7288283256178877,-0.030032227074498208,-0.045128313495912196,0.31545732298108464,0.0,0.0,0.0,0.0
21.896979570388794,0.269619,-0.517059,-5.4823084,3.7510439721497106,nan,nan,nan,nan,nan,11.889793395996094,13.089793395996093,0.00036787986755371094,0.5977412384165696,0.05201357415353981,4.1122798769869515,-5.0,0.7290919330971812,-0.030928024051356643,-0.04739551128453634,0.3156852875568767,0.0,0.0,0.0,0.0
21.997101068496704,0.31492698,-0.49820322,-5.479778,3.780935880259954,nan,nan,nan,nan,nan,11.989884376525879,13.189884376525878,0.0003650188446044922,0.5899211010659201,0.10951298789263546,4.143724385899249,-5.0,0.7293283086181095,-0.03184293102840425,-0.04899858726092666,0.3156728431467559,0.0,0.0,0.0,0.0
22.096721172332764,0.3556262,-0.47213203,-5.471079,3.8109426901132375,nan,nan,nan,nan,nan,12.08944821357727,13.28944821357727,0.0004017353057861328,0.5766675163233205,0.16569422324719965,4.175003287803635,-5.0,0.7297214191139303,-0.03024881078942565,-0.05010141829328581,0.3157895183137908,0.0,0.0,0.0,0.0
22.196570873260498,0.3966607,-0.43752483,-5.459649,3.843618120575324,nan,nan,nan,nan,nan,12.189281940460205,13.389281940460204,0.00043511390686035156,0.5580190680240615,0.22048745932945432,4.2063669780992266,-5.0,0.7303439153011819,-0.024525384553496805,-0.050803300486382805,0.31524125953693577,0.0,0.0,0.0,0.0
22.29667901992798,0.43320474,-0.4021886,-5.450052,3.873786827712082,nan,nan,nan,nan,nan,12.289397716522217,13.489397716522216,0.00042438507080078125,0.5341033308146014,0.2733745270005024,4.237819276757713,-5.0,0.7308185568061499,-0.019046848034663683,-0.05259900101209111,0.3156430168146626,0.0,0.0,0.0,0.0
22.397589683532715,0.4724607,-0.36639833,-5.4409633,3.9062700989605847,nan,nan,nan,nan,nan,12.390316486358643,13.590316486358642,0.0005135536193847656,0.504937856496377,0.3240952962892922,4.269523843350456,-5.0,0.7311008617583632,-0.016888062265742184,-0.0531032092675785,0.31577739942240385,0.0,0.0,0.0,0.0
22.496893882751465,0.5061079,-0.3191413,-5.433636,3.936281365890954,nan,nan,nan,nan,nan,12.489660501480103,13.689660501480102,0.0003535747528076172,0.47153627234705947,0.3710169050879484,4.300733686158825,-5.0,0.7313207857269612,-0.013824757605414724,-0.05600666939163114,0.3171348049286139,0.0,0.0,0.0,0.0
22.597421169281006,0.5399894,-0.2635548,-5.422391,3.9687927132571117,nan,nan,nan,nan,nan,12.590644598007202,13.790644598007201,0.0006706714630126953,0.4331318943499024,0.4152068907145749,4.332458775736719,-5.0,0.7316176808709283,-0.008508126951316837,-0.06169434550192852,0.31755059424367754,0.0,0.0,0.0,0.0
22.696813583374023,0.56373,-0.21283059,-5.4137645,3.9963105825405387,nan,nan,nan,nan,nan,12.689541578292847,13.889541578292846,0.0003974437713623047,0.3915216190478766,0.4546546181643043,4.363528178409479,-5.0,0.7319814618198551,-0.002810991222730773,-0.06686652250023381,0.31756954723975034,0.0,0.0,0.0,0.0
22.797178983688354,0.5848168,-0.1481192,-5.4070163,4.028827345725508,nan,nan,nan,nan,nan,12.789939403533936,13.989939403533935,0.0010631084442138672,0.3456247727402752,0.49045235901994916,4.395069085430858,-5.0,0.7319880516667976,0.003838352524359163,-0.07082586759401131,0.31813328998835966,0.0,0.0,0.0,0.0
22.896950483322144,0.6005239,-0.082476705,-5.4044614,4.059086946751666,nan,nan,nan,nan,nan,12.889709949493408,14.089709949493407,0.0003635883331298828,0.2967914559559151,0.5214545346159798,4.42641292685395,-5.0,0.7318107363866692,0.011979595696869,-0.07449162600921684,0.3173048329057244,0.0,0.0,0.0,0.0
22.996899604797363,0.6094649,-0.012150475,-5.404404,4.092151140970225,nan,nan,nan,nan,nan,12.989688634872437,14.189688634872436,0.0003459453582763672,0.24508958715121226,0.547659651855099,4.457822157204182,-5.0,0.7315049854267787,0.01853662431977186,-0.07492350687762867,0.31716050186029626,0.0,0.0,0.0,0.0
23.096765279769897,0.60829777,0.0519773,-5.404908,4.122813202390491,nan,nan,nan,nan,nan,13.089479684829712,14.289479684829711,0.00035858154296875,0.19120351301315944,0.5687189258424821,4.489172440148161,-5.0,0.7311708793397664,0.02553405276839879,-0.07195514536165842,0.3173370528156365,0.0,0.0,0.0,0.0
23.196816444396973,0.5995037,0.12103151,-5.4047856,4.156101489621156,nan,nan,nan,nan,nan,13.189581632614136,14.389581632614135,0.0003662109375,0.1353640084938888,0.5845310814699817,4.520620394525118,-5.0,0.730863454184321,0.03382430741208872,-0.06631903761130839,0.3177674667059708,0.0,0.0,0.0,0.0
23.29691243171692,0.58708566,0.18423617,-5.4045553,4.186860503864606,nan,nan,nan,nan,nan,13.289728164672852,14.48972816467285,0.0003802776336669922,0.07823243300019271,0.5948778752205114,4.552082355464934,-5.0,0.7306706549907515,0.04067176688813839,-0.06074283858655626,0.3173611013277673,0.0,0.0,0.0,0.0
23.397023677825928,0.56868213,0.24746862,-5.413172,4.219845070469383,nan,nan,nan,nan,nan,13.38977861404419,14.589778614044189,0.00037550926208496094,0.020423976258392353,0.599652283572569,4.58351413113827,-5.0,0.7300487801078431,0.04379352817072755,-0.054410017277189,0.31712535241767914,0.0,0.0,0.0,0.0
23.497015714645386,0.54794955,0.30131266,-5.4202347,4.25013679459396,nan,nan,nan,nan,nan,13.489821910858154,14.689821910858154,0.00035881996154785156,-0.03757122570876249,0.5988225137707677,4.614943659769435,-5.0,0.729512424294204,0.04465531514419204,-0.04767046668993397,0.31724662017723754,0.0,0.0,0.0,0.0
23.59681510925293,0.5249145,0.35578245,-5.428482,4.282867855019679,nan,nan,nan,nan,nan,13.58972954750061,14.78972954750061,0.0003571510314941406,-0.09513764684564495,0.5924093417162438,4.646330569500781,-5.0,0.7290774229038207,0.04307880974718725,-0.041200726031904604,0.318095783285998,0.0,0.0,0.0,0.0
23.696637392044067,0.5027744,0.39784685,-5.4334984,4.310599106474633,nan,nan,nan,nan,nan,13.689386367797852,14.88938636779785,0.0004000663757324219,-0.15167669152881927,0.5805119992272953,4.677638682953374,-5.0,0.7286882711535876,0.0403480940372485,-0.03496128936974689,0.3179123373281616,0.0,0.0,0.0,0.0
23.796711683273315,0.47446692,0.4381781,-5.4362383,4.34097266058398,nan,nan,nan,nan,nan,13.78943133354187,14.98943133354187,0.00036144256591796875,-0.2070205766828711,0.5631540471575175,4.7090687358943795,-5.0,0.7285380120970018,0.037326045889883086,-0.02857956752828885,0.31899566820076913,0.0,0.0,0.0,0.0
23.89780330657959,0.44401783,0.47833973,-5.4419227,4.373947350106982,nan,nan,nan,nan,nan,13.890541076660156,15.090541076660156,0.0005428791046142578,-0.2609860407819146,0.5402650150777679,4.7408332985130555,-5.0,0.728338755645727,0.03463243453760869,-0.022660736614644336,0.3193518011911937,0.0,0.0,0.0,0.0
23.996745109558105,0.41758215,0.5126194,-5.4443274,4.404515019392662,nan,nan,nan,nan,nan,13.989513874053955,15.189513874053954,0.0003676414489746094,-0.31140166887579734,0.5128635302118569,4.771926519832814,-5.0,0.7283205973322902,0.030979704118967014,-0.018686050833902897,0.32010541528392883,0.0,0.0,0.0,0.0
24.09842872619629,0.38298434,0.5431651,-5.4495907,4.437758600453412,nan,nan,nan,nan,nan,14.091421842575073,15.291421842575073,0.0004990100860595703,-0.36033183187245293,0.47975094678326824,4.803941852357634,-5.0,0.7283647881863807,0.0274327902379653,-0.014544938286860083,0.32021213784332797,0.0,0.0,0.0,0.0
24.196779489517212,0.34455687,0.5642524,-5.456879,4.46862906678424,nan,nan,nan,nan,nan,14.189517498016357,15.389517498016357,0.0003592967987060547,-0.40413663511992676,0.443478951196044,4.834759511405976,-5.0,0.7279692095416315,0.0274920057737029,-0.008288593405933846,0.3196127116609116,0.0,0.0,0.0,0.0
24.296796560287476,0.29866368,0.5799399,-5.4645634,4.5019566410989125,nan,nan,nan,nan,nan,14.289558410644531,15.48955841064453,0.0004506111145019531,-0.44506778400108876,0.40238621701589156,4.866188291023085,-5.0,0.7275258249822025,0.030565755345876074,-0.001974362878056399,0.3191463929489769,0.0,0.0,0.0,0.0
24.39682960510254,0.25837684,0.59351546,-5.4713993,4.532521922885397,nan,nan,nan,nan,nan,14.38960576057434,15.58960576057434,0.0003604888916015625,-0.4818422813951938,0.35753044046608784,4.897619092978147,-5.0,0.7272990497155282,0.03425875614378363,0.0005685066763550417,0.31885713045840747,0.0,0.0,0.0,0.0
24.49690818786621,0.21637402,0.60065484,-5.480897,4.565406881871756,nan,nan,nan,nan,nan,14.489718914031982,15.689718914031982,0.0003561973571777344,-0.5141333643731343,0.30930063633682026,4.92907056772117,-5.0,0.7270617217674864,0.03667021490449311,0.001726581184769878,0.31858280794407573,0.0,0.0,0.0,0.0
24.596907377243042,0.17345306,0.6007656,-5.488424,4.595867858221796,nan,nan,nan,nan,nan,14.589738368988037,15.789738368988036,0.0003619194030761719,-0.5415898754668017,0.2582254960143443,4.96049260621177,-5.0,0.7267525496051832,0.0383221903054968,0.0033723064457920554,0.3184573940743834,0.0,0.0,0.0,0.0
24.69667339324951,0.12143577,0.5950819,-5.494885,4.628963892662751,nan,nan,nan,nan,nan,14.689470052719116,15.889470052719116,0.00043773651123046875,-0.5639307672279779,0.20489531418181398,4.99182423870574,-5.0,0.7266652211062556,0.04261063828640275,0.006135618635533824,0.31794432229090547,0.0,0.0,0.0,0.0
24.797067403793335,0.07128457,0.5852182,-5.5037527,4.659628163751692,nan,nan,nan,nan,nan,14.789882183074951,15.98988218307495,0.0003638267517089844,-0.5811328993796151,0.1492801167558566,5.023369639811459,-5.0,0.7262339645742362,0.04757783400795677,0.008157200521765308,0.3173373210399834,0.0,0.0,0.0,0.0
24.897600889205933,0.01177221,0.5684809,-5.510687,4.692759033442561,nan,nan,nan,nan,nan,14.890660762786865,16.090660762786865,0.0009071826934814453,-0.5928970134164078,0.0920496142409299,5.055030164377675,-5.0,0.7261037520145258,0.053298841913986254,0.008060273743946102,0.31896155067036286,0.0,0.0,0.0,0.0
24.99721932411194,-0.03806701,0.5506349,-5.5147176,4.723477488662306,nan,nan,nan,nan,nan,14.990045309066772,16.19004530906677,0.00039887428283691406,-0.5989926531003623,0.03475343913613459,5.086252740425006,-5.0,0.7262151417104449,0.05882214475023838,0.009762797312886302,0.31855117666219984,0.0,0.0,0.0,0.0
25.09729528427124,-0.09432321,0.52599037,-5.518712,4.756927050435165,nan,nan,nan,nan,nan,15.090108871459961,16.29010887145996,0.0004715919494628906,-0.5995490994551456,-0.023256769821365774,5.117688635675653,-5.0,0.7264356209046189,0.06117377924854876,0.011303587147933974,0.3183258069457182,0.0,0.0,0.0,0.0
25.197047233581543,-0.14446473,0.5006041,-5.5211663,4.7851595314531234,nan,nan,nan,nan,nan,15.189841985702515,16.389841985702514,0.0004489421844482422,-0.5945264634517085,-0.08085965777570668,5.149020717578057,-5.0,0.7265232295735882,0.06464613131358107,0.01304251757245408,0.318000532349503,0.0,0.0,0.0,0.0
25.296868562698364,-0.20293044,0.46660006,-5.524122,4.818531846840854,nan,nan,nan,nan,nan,15.289643287658691,16.48964328765869,0.00036787986755371094,-0.5839733826011642,-0.13775009405933009,5.180374221282479,-5.0,0.7266192255109242,0.06728729722359948,0.01465308911729356,0.3179374789782977,0.0,0.0,0.0,0.0
25.397088527679443,-0.2611252,0.4204035,-5.524294,4.851950709338496,nan,nan,nan,nan,nan,15.389880180358887,16.589880180358886,0.0004069805145263672,-0.5679080624191577,-0.19359863800997662,5.211864569855039,-5.0,0.7269217819422924,0.07008891183061658,0.02000280197549226,0.3167624794319548,0.0,0.0,0.0,0.0
25.49738383293152,-0.31053507,0.37878552,-5.5243793,4.882699691778772,nan,nan,nan,nan,nan,15.490234613418579,16.69023461341858,0.00041675567626953125,-0.5464870662944732,-0.24769312944217906,5.2433918448205885,-5.0,0.7273513941089284,0.07157782009174044,0.024659522202015775,0.31563201661281637,0.0,0.0,0.0,0.0
25.5970356464386,-0.3543913,0.337465,-5.5254755,4.913336500119273,nan,nan,nan,nan,nan,15.5898756980896,16.7898756980896,0.0003974437713623047,-0.5201338319796485,-0.29909997798422977,5.274695014780408,-5.0,0.7276234362422009,0.06926627015931532,0.024788683758582526,0.315465643755395,0.0,0.0,0.0,0.0
25.697006225585938,-0.39663458,0.29156998,-5.5264287,4.946506452183717,nan,nan,nan,nan,nan,15.689801216125488,16.889801216125488,0.0004296302795410156,-0.48886339258667855,-0.34786862949775016,5.3060875421171785,-5.0,0.7277442917299112,0.0627914348521535,0.024366174330298626,0.31475435501294136,0.0,0.0,0.0,0.0
25.797511339187622,-0.434572,0.24804041,-5.5268397,4.97687892518076,nan,nan,nan,nan,nan,15.79056167602539,16.99056167602539,0.0007593631744384766,-0.4527177063035811,-0.3937596708643795,5.337742374176565,-5.0,0.7278493446721436,0.05651333735918173,0.02355450805590406,0.314444299945003,0.0,0.0,0.0,0.0
25.897261142730713,-0.47105893,0.20004657,-5.52062,5.009516281273963,nan,nan,nan,nan,nan,15.890033721923828,17.090033721923827,0.00043845176696777344,-0.41282322454690396,-0.4354043928059253,5.368992439039773,-5.0,0.7283419625032171,0.05056299088785601,0.02296998604543563,0.3143029440940715,0.0,0.0,0.0,0.0
25.996965646743774,-0.5001163,0.15738027,-5.5158095,5.039755541088342,nan,nan,nan,nan,nan,15.990207195281982,17.19020719528198,0.0004055500030517578,-0.3687940726406054,-0.4732768027118548,5.4004628638384276,-5.0,0.728910949171594,0.044801651912711515,0.021715898385212422,0.31459483499306756,0.0,0.0,0.0,0.0
26.097042322158813,-0.5237571,0.11350307,-5.512175,5.070196399501045,nan,nan,nan,nan,nan,16.08991551399231,17.28991551399231,0.0005400180816650391,-0.3215374485999694,-0.5065704977076951,5.431787155994643,-5.0,0.7292755798409657,0.039365088133249564,0.02040991036217087,0.31511655634705243,0.0,0.0,0.0,0.0
26.196922540664673,-0.54106754,0.06675034,-5.509714,5.100785416797104,nan,nan,nan,nan,nan,16.18981432914734,17.389814329147338,0.0007312297821044922,-0.27119763960948196,-0.5352119582653638,5.463171294373979,-5.0,0.7293070286445028,0.033889237974981425,0.0235129591775942,0.31471748895174684,0.0,0.0,0.0,0.0
26.29736828804016,-0.5525043,0.024637735,-5.511539,5.131420206327579,nan,nan,nan,nan,nan,16.29012680053711,17.49012680053711,0.0003936290740966797,-0.2181073641593052,-0.5589536453942135,5.494685386692133,-5.0,0.7291929101308987,0.028310694726250557,0.02532270083542529,0.3155999820181308,0.0,0.0,0.0,0.0
26.397011518478394,-0.5570678,-0.026572796,-5.5146704,5.164728737514185,nan,nan,nan,nan,nan,16.389842748641968,17.589842748641967,0.00035691261291503906,-0.16330088454032046,-0.5773498255896063,5.5260120756933295,-5.0,0.7290044459190292,0.02236449579833109,0.030979769196906964,0.3147513683673911,0.0,0.0,0.0,0.0
26.49714946746826,-0.54983824,-0.08114036,-5.516166,5.198263901164191,nan,nan,nan,nan,nan,16.49002480506897,17.69002480506897,0.0005090236663818359,-0.10671233580153512,-0.5904341431419599,5.557485196942588,-5.0,0.7289029149534269,0.01749707007067836,0.039170149123524255,0.3136385240402111,0.0,0.0,0.0,0.0
26.59717035293579,-0.534465,-0.13186023,-5.517309,5.229380067666005,nan,nan,nan,nan,nan,16.590003728866577,17.790003728866576,0.0003924369812011719,-0.049241232125824076,-0.597976003748253,5.5888945021942265,-5.0,0.728824070821141,0.012442949782553569,0.04856154339390361,0.31264555480757616,0.0,0.0,0.0,0.0
26.69698143005371,-0.5125822,-0.18444198,-5.5182643,5.262732354649106,nan,nan,nan,nan,nan,16.68988609313965,17.889886093139648,0.0004951953887939453,0.008633432672344668,-0.5999378833181749,5.620273472376573,-5.0,0.7286529992456524,0.008880285258329469,0.05701672323375848,0.31120972048617024,0.0,0.0,0.0,0.0
26.79740023612976,-0.48751488,-0.22573791,-5.519222,5.293608436367311,nan,nan,nan,nan,nan,16.79026770591736,17.990267705917358,0.0006339550018310547,0.06671544831867364,-0.596279338025089,5.651809286102367,-5.0,0.7284856603428894,0.004494176900445578,0.060688121483649694,0.3103759132915248,0.0,0.0,0.0,0.0
26.89700746536255,-0.45663074,-0.26993832,-5.5136023,5.327117846209133,nan,nan,nan,nan,nan,16.889854192733765,18.089854192733764,0.0009024143218994141,0.12371858490496036,-0.5871062184554973,5.683095303640291,-5.0,0.7286849679758892,0.0018976977160634783,0.0620825165589465,0.3097549116395341,0.0,0.0,0.0,0.0
26.9966299533844,-0.42791373,-0.3072724,-5.5066533,5.358192154061847,nan,nan,nan,nan,nan,16.989577770233154,18.189577770233154,0.0003762245178222656,0.17965198494946133,-0.5724728502765162,5.714424389486468,-5.0,0.7290877230952792,0.0012642901596586044,0.06133339462881893,0.3098279059112255,0.0,0.0,0.0,0.0
27.09701919555664,-0.39771226,-0.34483513,-5.4992695,5.391677329389439,nan,nan,nan,nan,nan,17.089887380599976,18.289887380599975,0.0004973411560058594,0.2342302350671639,-0.5523913440491091,5.745937582987755,-5.0,0.7295068251663416,0.0008704132259704758,0.057543269941166694,0.3083608518303517,0.0,0.0,0.0,0.0
27.196704626083374,-0.37080395,-0.37826347,-5.4933443,5.422300813363977,nan,nan,nan,nan,nan,17.18954563140869,18.38954563140869,0.0005323886871337891,0.28627603922236855,-0.5273007010872951,5.777246145848782,-5.0,0.7296620216062232,0.004691004547663579,0.052254462949279254,0.30819527608406033,0.0,0.0,0.0,0.0
27.29711675643921,-0.34531757,-0.4071204,-5.4942093,5.452755522182414,nan,nan,nan,nan,nan,17.28999638557434,18.48999638557434,0.0004630088806152344,0.33604806786080815,-0.49706307053231946,5.808803680982217,-5.0,0.7295539629868656,0.009630780736452552,0.0464222429847281,0.3098184342263615,0.0,0.0,0.0,0.0
27.397390127182007,-0.31548083,-0.43318546,-5.49042,5.485505118622787,nan,nan,nan,nan,nan,17.39027166366577,18.59027166366577,0.0003921985626220703,0.3825757836628736,-0.4622074964285392,5.840306088681088,-5.0,0.7295727348534814,0.012844080078544142,0.040734959465154645,0.3114820817548155,0.0,0.0,0.0,0.0
27.49794340133667,-0.28509867,-0.4498561,-5.486033,5.513178079674757,nan,nan,nan,nan,nan,17.49083137512207,18.69083137512207,0.0004031658172607422,0.42562810435408777,-0.42289563344156883,5.87189785375691,-5.0,0.729781022447394,0.011877638193638771,0.03578274148822514,0.31155875422632684,0.0,0.0,0.0,0.0
27.597257137298584,-0.24457258,-0.46406758,-5.482709,5.546077201229075,nan,nan,nan,nan,nan,17.590250492095947,18.790250492095947,0.0004260540008544922,0.46424307524333863,-0.3801031006037806,5.903131290508062,-5.0,0.7298106547282583,0.006140169689139565,0.03311349391467206,0.311616106812568,0.0,0.0,0.0,0.0
27.69676423072815,-0.20772201,-0.47569436,-5.482567,5.576303896085744,nan,nan,nan,nan,nan,17.68956446647644,18.88956446647644,0.0003714561462402344,0.4985397768455106,-0.3338533973210823,5.934331695739318,-5.0,0.7295163559232389,0.0010826719682258074,0.032509590356879066,0.3116078557587298,0.0,0.0,0.0,0.0
27.797111749649048,-0.15508482,-0.47863057,-5.4843736,5.6091702692507255,nan,nan,nan,nan,nan,17.790274620056152,18.99027462005615,0.0003631114959716797,0.5286288659114973,-0.2838160004741175,5.96597072360211,-5.0,0.729166299216931,-0.006001173121195325,0.03448236324837887,0.3124566151598111,0.0,0.0,0.0,0.0
27.897083044052124,-0.10413454,-0.4784935,-5.4854484,5.639404070959536,nan,nan,nan,nan,nan,17.890265941619873,19.090265941619872,0.0005891323089599609,0.5535512864708225,-0.231475642879542,5.997383923726843,-5.0,0.7288991172503066,-0.01605846390793531,0.03853674641347448,0.3118650039641531,0.0,0.0,0.0,0.0
27.996747255325317,-0.04735122,-0.47205752,-5.4886594,5.6722554447499345,nan,nan,nan,nan,nan,17.989524602890015,19.189524602890014,0.0004761219024658203,0.5731807632575248,-0.17738041783556965,6.028566951831986,-5.0,0.7286222254001508,-0.025206497134545588,0.04294308655995207,0.3113464155837231,0.0,0.0,0.0,0.0
28.097338914871216,0.0065942365,-0.46010658,-5.491549,5.702733194807777,nan,nan,nan,nan,nan,18.09023356437683,19.29023356437683,0.00045871734619140625,0.587707569891607,-0.12082968299264013,6.0602056051877495,-5.0,0.72821066665098,-0.03407142685876848,0.046787313584968446,0.3113710504389828,0.0,0.0,0.0,0.0
28.19671368598938,0.06750064,-0.44358927,-5.4923773,5.735798309803306,nan,nan,nan,nan,nan,18.189507722854614,19.389507722854614,0.0005178451538085938,0.5965809517489433,-0.06396223894083825,6.091393501884261,-5.0,0.7279760485692538,-0.04075842641733084,0.050555145094831576,0.31141812354116144,0.0,0.0,0.0,0.0
28.296716451644897,0.11755395,-0.42449957,-5.491454,5.76631374784556,nan,nan,nan,nan,nan,18.289478540420532,19.48947854042053,0.0008769035339355469,0.599968968518026,-0.006102197589061498,6.122800260488106,-5.0,0.7280359025982356,-0.044334063498616634,0.05169808232749716,0.3108057547653295,0.0,0.0,0.0,0.0
28.396710872650146,0.16966106,-0.39578342,-5.4937606,5.799465755850466,nan,nan,nan,nan,nan,18.389560222625732,19.58956022262573,0.0005218982696533203,0.5977529468644036,0.051878844579668855,6.154241848245583,-5.0,0.7280244682454743,-0.04598334903454834,0.04986862797559151,0.31076906966888207,0.0,0.0,0.0,0.0
28.496704816818237,0.21445578,-0.3665025,-5.49543,5.827585775879219,nan,nan,nan,nan,nan,18.4894540309906,19.6894540309906,0.0005362033843994141,0.589966606426765,0.10926757662402162,6.1856244136954,-5.0,0.727903826661117,-0.048710452018745035,0.04649369015789994,0.3104723170078151,0.0,0.0,0.0,0.0
28.596636295318604,0.26905167,-0.32721105,-5.4972754,5.8606993462165535,nan,nan,nan,nan,nan,18.58937907218933,19.78937907218933,0.0005447864532470703,0.5766785892253974,0.16565568124578564,6.2170167912293595,-5.0,0.7277561051767416,-0.052076284701661174,0.04485064769492573,0.31067168044227095,0.0,0.0,0.0,0.0
28.697503089904785,0.3180512,-0.29055408,-5.499383,5.891079717566971,nan,nan,nan,nan,nan,18.690317392349243,19.890317392349242,0.0005896091461181641,0.5577980997230576,0.22104587746742946,6.248727499737367,-5.0,0.7276420463945423,-0.05256740837631969,0.04429223633127223,0.3108363815818536,0.0,0.0,0.0,0.0
28.796873807907104,0.36363038,-0.25034374,-5.4974627,5.921539880777443,nan,nan,nan,nan,nan,18.789627075195312,19.989627075195312,0.0005426406860351562,0.5340427083247277,0.273492935347862,6.279926556743321,-5.0,0.7277944910934678,-0.05038517565833276,0.0437399958471419,0.3126497573908025,0.0,0.0,0.0,0.0
28.89674997329712,0.410799,-0.20370372,-5.4940414,5.954493822991537,nan,nan,nan,nan,nan,18.889509677886963,20.089509677886962,0.0006258487701416016,0.5051904636909413,0.32370139850753143,6.3113056018270735,-5.0,0.7281094204573122,-0.04949861616598294,0.0411909392930473,0.31247049186846265,0.0,0.0,0.0,0.0
28.997161626815796,0.45364332,-0.15954484,-5.491518,5.984761748225427,nan,nan,nan,nan,nan,18.990133047103882,20.19013304710388,0.0005867481231689453,0.4713667488180016,0.37123225628809114,6.342917365578206,-5.0,0.7283278413793411,-0.04902741024743583,0.03904415200547328,0.3125303492395759,0.0,0.0,0.0,0.0
29.096778392791748,0.49810252,-0.11253275,-5.4890847,6.017490615658621,nan,nan,nan,nan,nan,19.089606046676636,20.289606046676635,0.0009665489196777344,0.4335485060771178,0.4147718564202486,6.374167730047036,-5.0,0.7284547040463512,-0.04651612690455904,0.03833973557635928,0.3123305936655844,0.0,0.0,0.0,0.0
