time,x,y,z,yaw,platform,trajectory,traj_double,traj_short,traj_spin,traj_time,ref_time,comptime,x_ref,y_ref,yaw_ref,z_ref,throttle_input,p_input,q_input,r_input,cbf_term_pitch_cbf,cbf_term_roll_cbf,cbf_term_thrust_cbf,cbf_term_yaw_cbf
10.004214525222778,0.037417233,-0.054585297,-2.9112692,-0.0019473637934229087,SIM,CIRCLE_HORIZONTAL,NormSpd,Not Short,Spin,1.1920928955078125e-06,1.2000011920928955,0.011603832244873047,0.23961811627134333,0.5500755933092951,0.37699149293780343,-5.0,0.7725089267839392,0.007999999999999998,-0.021978126370311525,0.008000000000000007,0.0,-4.816155102301189,0.0,-9.389073238367667
10.10384488105774,0.05571863,-0.04897249,-2.9145038,-0.001330120390233956,nan,nan,nan,nan,nan,0.09962630271911621,1.2996263027191162,0.0004200935363769531,0.18561631586303215,0.570566896415692,0.408289644503444,-5.0,0.7988481871330803,0.0468158804792,-0.05313305856401452,0.0468158804792,0.0,-2.601430164677427,-75.8039578731655,-9.157093681308524
10.203968286514282,0.06816439,-0.041738052,-2.9209192,-0.000807868285484549,nan,nan,nan,nan,nan,0.19974303245544434,1.3997430324554443,0.00044846534729003906,0.1296160405630382,0.5858324692510315,0.4397422427675523,-5.0,0.8068103416094577,0.11674484711247866,-0.052064175666682755,0.1188337831240995,0.0,0.0,-45.873960774087905,-7.795153265370052
10.303948163986206,0.07565955,-0.03326024,-2.9463313,0.0020474428031906373,nan,nan,nan,nan,nan,0.29975366592407227,1.4997536659240722,0.0006844997406005859,0.07246383481361007,0.5956080864495593,0.47116150990614264,-5.0,0.8139449159484116,0.10692940775903387,-0.024772217777011683,0.18396548335587576,0.0,0.0,-13.49514681846243,-6.502983294135563
10.404029607772827,0.07871427,-0.021944307,-3.0053403,0.008963447226202181,nan,nan,nan,nan,nan,0.39981746673583984,1.5998174667358398,0.00043582916259765625,0.014604082802917712,0.5998222409726781,0.5025974800581947,-5.0,0.8110791244881146,0.07131975933490287,0.006956141499102785,0.24286942556034102,0.0,0.0,0.0,-5.290724142111326
10.504070520401001,0.08292734,-0.014197937,-3.082239,0.019681441112131014,nan,nan,nan,nan,nan,0.49986910820007324,1.6998691082000732,0.00043010711669921875,-0.04338516371246121,0.5984293839457108,0.5340296302385583,-5.0,0.7967197385142784,0.036063154634769536,0.03579615751547596,0.2961410950374141,0.0,0.0,0.0,-4.197442832754919
10.603859186172485,0.08594781,0.0028664805,-3.1847146,0.036702150947611076,nan,nan,nan,nan,nan,0.5997464656829834,1.7997464656829834,0.0004494190216064453,-0.10086927426545798,0.5914603871005731,0.5654070274913855,-5.0,0.7817981957579118,0.0008302799727055709,0.058767809186356317,0.3443190380182725,0.0,0.0,0.0,-3.066276690857674
10.704020261764526,0.086042516,0.023447752,-3.2815464,0.05606601451587349,nan,nan,nan,nan,nan,0.6997940540313721,1.899794054031372,0.0004360675811767578,-0.1575091734180135,0.5789566998396116,0.5968379043478529,-5.0,0.7692285241158332,-0.031875388666038174,0.0746109293803277,0.38789030606095715,0.0,0.0,0.868364074665398,-2.0652991219406593
10.803879261016846,0.08258784,0.053312022,-3.404191,0.0843222897186402,nan,nan,nan,nan,nan,0.799738883972168,1.999738883972168,0.0005049705505371094,-0.21262132310379792,0.5610634304261777,0.6282364986984814,-5.0,0.7588191070518319,-0.06132311884165999,0.08350866427353737,0.42729537986416505,0.0,0.0,6.43738644717034,-0.9255333322166046
10.90450406074524,0.074392945,0.08242532,-3.523475,0.11396458777010725,nan,nan,nan,nan,nan,0.9004402160644531,2.1004402160644533,0.0004417896270751953,-0.2661437783772012,0.5377429583277751,0.6598727552092645,-5.0,0.7492821342084351,-0.08432639559384093,0.08513829930777884,0.46285195609254115,0.0,0.0,6.936949584892851,0.0
11.004319429397583,0.057260342,0.12027998,-3.6547885,0.15102661586167015,nan,nan,nan,nan,nan,1.0001349449157715,2.2001349449157717,0.00037360191345214844,-0.3166506284035403,0.5096394603360723,0.6911927779853573,-5.0,0.7405527185329552,-0.1033406252495117,0.08067036893550636,0.46919145466966655,0.0,0.0,8.463558922336336,0.0
11.104068517684937,0.044607252,0.15693255,-3.7790983,0.18993349159376224,nan,nan,nan,nan,nan,1.0998804569244385,2.2998804569244387,0.0003616809844970703,-0.3642424115264166,0.47678870125603917,0.7225287547608553,-5.0,0.7325696258438075,-0.11730109096238096,0.07204571935166407,0.46373279228914555,0.0,0.0,10.624080945399877,0.0
11.204041004180908,0.02941478,0.19545063,-3.9184346,0.23518383028317802,nan,nan,nan,nan,nan,1.1998164653778076,2.399816465377808,0.00040602684020996094,-0.40853156061955676,0.43943368552916995,0.7539245777594745,-5.0,0.7252752242478789,-0.12327360726850779,0.06362968316102562,0.4555446269646306,0.0,0.0,11.35100182606026,0.0
11.303993225097656,0.010793438,0.22819152,-4.04776,0.280923243839186,nan,nan,nan,nan,nan,1.2997612953186035,2.4997612953186037,0.00041484832763671875,-0.4490146306306115,0.39797721226177707,0.785323172110103,-5.0,0.7186154144687432,-0.1203828473974309,0.05133260465016854,0.44279775626020534,0.0,0.0,12.778644493890075,0.0
11.403961896896362,-0.015972434,0.25736743,-4.180227,0.3344095828235891,nan,nan,nan,nan,nan,1.399751901626587,2.599751901626587,0.0004055500030517578,-0.4853256040914929,0.3527875536540759,0.8167361475306181,-5.0,0.7125395424875767,-0.11078836755755794,0.03441244769150195,0.4271218727812047,0.0,0.0,12.09024583104299,0.0
11.504196882247925,-0.05182773,0.28417706,-4.3025928,0.3855006284718915,nan,nan,nan,nan,nan,1.4999947547912598,2.69999475479126,0.0003764629364013672,-0.5171802578737672,0.30417853452474847,0.8482283686383197,-5.0,0.707000296370044,-0.0998672340020507,0.013360270433526292,0.40789127189930446,0.0,0.0,11.579425686262896,0.0
11.603942394256592,-0.09132798,0.31048232,-4.4304304,0.43975982790380086,nan,nan,nan,nan,nan,1.5997259616851807,2.799725961685181,0.0004830360412597656,-0.5440576205695576,0.2529847930216186,0.8795598513294782,-5.0,0.7019535894725649,-0.09132678669250652,-0.00500439048948972,0.3906456358756279,0.0,0.0,9.611105540393634,0.0
11.703644275665283,-0.12629987,0.32771838,-4.535183,0.4856267812310313,nan,nan,nan,nan,nan,1.6994473934173584,2.8994473934173586,0.0003581047058105469,-0.5658806293266432,0.19944701891199623,0.9108882630630049,-5.0,0.6973584324019704,-0.08057983573467821,-0.02149718973134799,0.37175288533620204,0.0,0.0,7.275654094685072,0.0
11.804039716720581,-0.17288622,0.3402058,-4.6633697,0.5424792157594854,nan,nan,nan,nan,nan,1.7998013496398926,2.9998013496398928,0.0004458427429199219,-0.5825375070819687,0.14370126249523774,0.9424153882257433,-5.0,0.6931767961611728,-0.0684929970928046,-0.03521470220094576,0.35521147816909443,0.0,0.0,3.884290364667274,0.0
11.904211282730103,-0.20889625,0.34210294,-4.7566714,0.5862143797861468,nan,nan,nan,nan,nan,1.9000146389007568,3.100014638900757,0.0004189014434814453,-0.5937050663755847,0.08668502846491143,0.9738983215591434,-5.0,0.6894680073934033,-0.05341372949679082,-0.04662340872864239,0.3398356767964079,0.0,0.0,0.0,0.0
12.004050254821777,-0.25997967,0.33460343,-4.8646617,0.6425701435057819,nan,nan,nan,nan,nan,1.999901294708252,3.199901294708252,0.0003800392150878906,-0.5992965675406569,0.0290452084514272,1.0052786399667912,-5.0,0.6889807897484287,-0.03819900647603475,-0.05703410776240662,0.32447119342587705,0.0,0.0,0.0,0.0
12.104045391082764,-0.30186042,0.3196367,-4.940547,0.6847558040621662,nan,nan,nan,nan,nan,2.099806308746338,3.299806308746338,0.00043320655822753906,-0.5993047530370536,-0.028875820112962237,1.0366647257826749,-5.0,0.6897636030477792,-0.02294019250520618,-0.06850178788103857,0.3083502864078718,0.0,0.0,0.0,0.0
12.203982830047607,-0.3475047,0.2936889,-5.0223913,0.7316531189427105,nan,nan,nan,nan,nan,2.1997485160827637,3.399748516082764,0.0004398822784423828,-0.5937248969012129,-0.0865491005132002,1.068062496217841,-5.0,0.6909708783298092,-0.011169073536927884,-0.07725348905301108,0.2964328471907447,0.0,0.0,0.0,0.0
12.304070949554443,-0.3835976,0.26431292,-5.090453,0.7717599914378328,nan,nan,nan,nan,nan,2.29984450340271,3.49984450340271,0.00044608116149902344,-0.5825866667735717,-0.1435018316874712,1.0995085780596572,-5.0,0.6923315729339317,-0.00042065293452965124,-0.08095777030784543,0.2873409655588662,0.0,0.0,0.0,0.0
12.403947353363037,-0.421559,0.22844665,-5.149585,0.8089130807737819,nan,nan,nan,nan,nan,2.3997130393981934,3.5997130393981935,0.0005846023559570312,-0.5660423066745466,-0.1989877057874644,1.130883203960475,-5.0,0.6945006932438501,0.007124440203362205,-0.08279196225628449,0.281116218317247,0.0,0.0,0.0,0.0
12.504120826721191,-0.44955176,0.19175877,-5.1962366,0.8406545108414621,nan,nan,nan,nan,nan,2.499905586242676,3.699905586242676,0.00040411949157714844,-0.5441476896165142,-0.2527910043593517,1.1623596208715827,-5.0,0.6968158222600369,0.009990635055473353,-0.08069791551214726,0.2803068011212959,0.0,0.0,0.0,0.0
12.603893518447876,-0.47727162,0.15116806,-5.2390947,0.872075168796008,nan,nan,nan,nan,nan,2.599677085876465,3.799677085876465,0.00048470497131347656,-0.5172767213024703,-0.3040144628115025,1.1937037619002977,-5.0,0.6991850822553536,0.012353099062847733,-0.07691865689441285,0.27971512762611445,0.0,0.0,0.0,0.0
12.703935146331787,-0.5040519,0.10238204,-5.280529,0.9060242245102066,nan,nan,nan,nan,nan,2.6996991634368896,3.89969916343689,0.00044655799865722656,-0.48551273351402124,-0.35252997829368066,1.2251266243063594,-5.0,0.7014911252106049,0.013383215879506877,-0.07315052128895506,0.2778078916482686,0.0,0.0,0.0,0.0
12.804453372955322,-0.52304745,0.052993312,-5.313146,0.9352776044934847,nan,nan,nan,nan,nan,2.80057954788208,4.00057954788208,0.0008087158203125,-0.44888348311855913,-0.3981251293040295,1.256819131772792,-5.0,0.7036457623589808,0.013395703307282071,-0.0697798176131863,0.27910265598466955,0.0,0.0,0.0,0.0
12.903871297836304,-0.54813915,0.0031863921,-5.344735,0.9643104260591007,nan,nan,nan,nan,nan,2.8996448516845703,4.0996448516845705,0.0006244182586669922,-0.4087603247473884,-0.4392208976271616,1.2879414148379464,-5.0,0.7058277176902534,0.00898417717532468,-0.06531723538598692,0.28148553385497815,0.0,0.0,0.0,0.0
13.00403094291687,-0.5611698,-0.044689663,-5.36803,0.9927388253036656,nan,nan,nan,nan,nan,2.999875068664551,4.199875068664551,0.00045371055603027344,-0.36435507591562005,-0.4767026102870874,1.3194296661711482,-5.0,0.7079415113853214,0.00489078611554794,-0.05908641767134163,0.2846366956746502,0.0,0.0,0.0,0.0
13.103655576705933,-0.56425506,-0.09923675,-5.3873525,1.0248587479410227,nan,nan,nan,nan,nan,3.0994298458099365,4.299429845809937,0.0004069805145263672,-0.31686500181772953,-0.5095062027326559,1.3507057218221195,-5.0,0.7101307255969053,0.0059694279164775365,-0.05156041524751623,0.2853673060415497,0.0,0.0,0.0,0.0
13.203725099563599,-0.56081986,-0.14625263,-5.400067,1.0517797886957978,nan,nan,nan,nan,nan,3.19950008392334,4.39950008392334,0.0003650188446044922,-0.26617481035539103,-0.5377275986336126,1.3821437143121242,-5.0,0.7121075225856189,0.009933350547610346,-0.045253136590069146,0.2874462638978626,0.0,0.0,0.0,0.0
13.303916931152344,-0.55420953,-0.20036699,-5.4117837,1.0810721268685382,nan,nan,nan,nan,nan,3.2996997833251953,4.4996997833251955,0.0004572868347167969,-0.21292572975949073,-0.5609479776292882,1.4136223782654018,-5.0,0.714018481407878,0.01417260901235927,-0.041076938226199844,0.2906598172325106,0.0,0.0,0.0,0.0
13.404075384140015,-0.5398481,-0.24470426,-5.41914,1.1084564198625664,nan,nan,nan,nan,nan,3.399840831756592,4.599840831756592,0.0004553794860839844,-0.15771349793185632,-0.5789010732155351,1.4450826164728874,-5.0,0.7159006159240825,0.018112668858931095,-0.03493655451350469,0.29360365311863856,0.0,0.0,0.0,0.0
13.504042387008667,-0.520384,-0.29047588,-5.428878,1.1378659948125835,nan,nan,nan,nan,nan,3.4998881816864014,4.6998881816864015,0.00040340423583984375,-0.10107815160421016,-0.5914247266290751,1.476513418427949,-5.0,0.7174839254381861,0.021519082919228192,-0.028519355794071315,0.2964540157307535,0.0,0.0,0.0,0.0
13.604478120803833,-0.49857965,-0.32785136,-5.4363837,1.1656114322343127,nan,nan,nan,nan,nan,3.6004638671875,4.8004638671875,0.0003788471221923828,-0.04319254582544575,-0.5984433172699957,1.50811020189795,-5.0,0.7187510381637988,0.02404345335304132,-0.023062998989220315,0.29913434252498955,0.0,0.0,0.0,0.0
13.704029083251953,-0.4701765,-0.36267257,-5.4405727,1.1975887245259864,nan,nan,nan,nan,nan,3.699798822402954,4.899798822402954,0.00046825408935546875,0.014381600679858119,-0.5998276165381893,1.5393171984529042,-5.0,0.7199683361275017,0.02526304402081817,-0.01622770173524481,0.3008339205253578,0.0,0.0,0.0,0.0
13.803892850875854,-0.43864578,-0.39031684,-5.441096,1.2291562872722341,nan,nan,nan,nan,nan,3.799661874771118,4.999661874771118,0.0003821849822998047,0.0721273261292108,-0.5956489308522684,1.5706901016213917,-5.0,0.7212015509989328,0.02736592965190282,-0.00787805268743744,0.2998327360689384,0.0,0.0,0.0,0.0
13.903879165649414,-0.40079865,-0.420792,-5.4423003,1.2616088248934527,nan,nan,nan,nan,nan,3.8996450901031494,5.09964509010315,0.0003871917724609375,0.1292695169911474,-0.5859090304619613,1.6021007550983313,-5.0,0.7222497291668271,0.029407781866168766,-0.0039770744429757044,0.2998925011774084,0.0,0.0,0.0,0.0
14.004372596740723,-0.36016905,-0.44931942,-5.4412813,1.288479605939579,nan,nan,nan,nan,nan,4.000410318374634,5.200410318374634,0.00037860870361328125,0.1856365135618958,-0.5705603253229092,1.6337570851858307,-5.0,0.7232688276942736,0.032587882496397234,-0.005376627374805411,0.3014379997792689,0.0,0.0,0.0,0.0
14.103926181793213,-0.31354964,-0.476747,-5.4348087,1.3164796340513423,nan,nan,nan,nan,nan,4.099702596664429,5.299702596664429,0.00044226646423339844,0.2394606028723286,-0.5501441808035606,1.664950674389172,-5.0,0.7243793939233111,0.036252493539689276,-0.009673406107836909,0.30556593824606565,0.0,0.0,0.0,0.0
14.204077959060669,-0.27477968,-0.4974169,-5.4257636,1.3411258955641325,nan,nan,nan,nan,nan,4.199841499328613,5.3998414993286135,0.0004794597625732422,0.2915097021946476,-0.52442548901287,1.6964102384840065,-5.0,0.7256949751519838,0.03732418976177614,-0.012430053526728255,0.3085074488200404,0.0,0.0,0.0,0.0
14.304203033447266,-0.23199579,-0.52679366,-5.4133434,1.368962640260147,nan,nan,nan,nan,nan,4.3000757694244385,5.500075769424439,0.00038433074951171875,0.34087501334044773,-0.49376535447533126,1.7278997631411046,-5.0,0.726882915699812,0.03467284806868735,-0.020627861738647144,0.31390676120955185,0.0,0.0,0.0,0.0
14.403974294662476,-0.19411051,-0.5455275,-5.400752,1.3915498453744979,nan,nan,nan,nan,nan,4.399772882461548,5.599772882461548,0.00041961669921875,0.3868046387773542,-0.45867436316009697,1.759220534931254,-5.0,0.7281002911626383,0.032096452537660754,-0.026479599029997084,0.31936757763540347,0.0,0.0,0.0,0.0
14.50391173362732,-0.14879933,-0.5698568,-5.3844533,1.42084020436946,nan,nan,nan,nan,nan,4.499849557876587,5.699849557876587,0.00045299530029296875,0.4292984237333482,-0.41916925385822684,1.7906605497592116,-5.0,0.7292497768422969,0.030227626986285387,-0.03059463648442979,0.3244524437724116,0.0,0.0,0.0,0.0
14.603757381439209,-0.11216491,-0.5857393,-5.371473,1.4451787331453618,nan,nan,nan,nan,nan,4.599543571472168,5.799543571472168,0.0005002021789550781,0.4676388017200108,-0.3759174791438573,1.8219803478310874,-5.0,0.7302502640054506,0.02758552724492718,-0.033889096450427605,0.32844889506418895,0.0,0.0,0.0,0.0
14.70375370979309,-0.070137225,-0.59747064,-5.3566923,1.473696325395717,nan,nan,nan,nan,nan,4.699542999267578,5.899542999267578,0.00039458274841308594,0.5017367808339447,-0.32902918222916056,1.8533960946036119,-5.0,0.7311220175160141,0.02627843928869667,-0.032674349933661286,0.3307125647095181,0.0,0.0,0.0,0.0
14.803928852081299,-0.030115848,-0.6043549,-5.3396306,1.507435005558936,nan,nan,nan,nan,nan,4.799806356430054,5.999806356430054,0.0004127025604248047,0.5312214127351176,-0.27893334446011614,1.8848947572322001,-5.0,0.7319613963454187,0.023230491238248097,-0.02821304030592761,0.33045493834384665,0.0,0.0,0.0,0.0
14.904136657714844,0.011247284,-0.61104757,-5.324586,1.5410845164327496,nan,nan,nan,nan,nan,4.9002463817596436,6.100246381759644,0.0003979206085205078,0.5557586597329315,-0.22612455004235088,1.9164489218023812,-5.0,0.7326636574582182,0.021205183094760414,-0.02375349763413804,0.328918188310426,0.0,0.0,0.0,0.0
15.003816843032837,0.050920393,-0.6123624,-5.313793,1.5716656407285328,nan,nan,nan,nan,nan,4.999691724777222,6.199691724777222,0.0004584789276123047,0.5748963461619511,-0.17173872938169207,1.9476905977081553,-5.0,0.7330853240943124,0.021470751488508077,-0.020805124358842294,0.3289213942543726,0.0,0.0,0.0,0.0
15.103865385055542,0.09013603,-0.6070583,-5.3058243,1.6022997969983088,nan,nan,nan,nan,nan,5.099722862243652,6.2997228622436525,0.000457763671875,0.5887911728535024,-0.11543376789222959,1.9791163063676322,-5.0,0.7332278280583899,0.024102824597314765,-0.015844551180855263,0.3288243484716656,0.0,0.0,0.0,0.0
15.2041015625,0.1301634,-0.5934297,-5.3009453,1.6368728923262972,nan,nan,nan,nan,nan,5.1999125480651855,6.399912548065186,0.0007793903350830078,0.5971940834211978,-0.05795883648517603,2.010591824461872,-5.0,0.7329785156131424,0.02613586866006286,-0.00803472912731322,0.32775851506426623,0.0,0.0,0.0,0.0
15.304054975509644,0.16773285,-0.5759502,-5.297338,1.6701871605400165,nan,nan,nan,nan,nan,5.299856901168823,6.499856901168823,0.0003979206085205078,0.5999999942598075,-8.299536652260589e-05,2.0419902690096894,-5.0,0.7326234368025661,0.028796499303861557,-0.0005349958067177256,0.32522070938753395,0.0,0.0,0.0,0.0
15.404128789901733,0.20966317,-0.55046,-5.2940097,1.706270423661376,nan,nan,nan,nan,nan,5.399905443191528,6.5999054431915285,0.0004930496215820312,0.5972042713192791,0.05785376667088138,2.073421445471779,-5.0,0.7322951279177164,0.0335676431507301,0.006208995532406251,0.32225097748340437,0.0,0.0,0.0,0.0
15.503973245620728,0.24454121,-0.524445,-5.291064,1.7397303096813235,nan,nan,nan,nan,nan,5.499832630157471,6.699832630157471,0.0003561973571777344,0.5888407181446524,0.11518076512547551,2.1048144971183893,-5.0,0.7320484986976009,0.03799256301313554,0.010379361278854868,0.32051932587750265,0.0,0.0,0.0,0.0
15.603930950164795,0.2770221,-0.49566916,-5.2875776,1.7733029634278412,nan,nan,nan,nan,nan,5.599735736846924,6.799735736846924,0.00039887428283691406,0.574991305319552,0.17142053204595317,2.1361999837230274,-5.0,0.7318287529463768,0.04001273641580458,0.013732886204664955,0.31700015259068065,0.0,0.0,0.0,0.0
15.70395541191101,0.30907893,-0.4628674,-5.28283,1.8071514844894483,nan,nan,nan,nan,nan,5.699748754501343,6.899748754501343,0.00040435791015625,0.5557597228521791,0.22612193713850276,2.1676199998756744,-5.0,0.7317335411132126,0.041235570082044835,0.015077033287548836,0.314998290825128,0.0,0.0,0.0,0.0
15.803860187530518,0.33845162,-0.42121556,-5.2817264,1.8432777177632194,nan,nan,nan,nan,nan,5.799648761749268,6.999648761749268,0.00041365623474121094,0.5313682550997049,0.27865350791313376,2.199004512762039,-5.0,0.7314765388043853,0.042475796527732666,0.017665050678285808,0.3130779208980137,0.0,0.0,0.0,0.0
15.904057264328003,0.36326367,-0.37718827,-5.2739697,1.8757804207318423,nan,nan,nan,nan,nan,5.89991307258606,7.09991307258606,0.00036525726318359375,0.5019097100232165,0.3287653311777424,2.23050347499625,-5.0,0.7315322830480394,0.04465328180181678,0.02242818012095121,0.31066362214303495,0.0,0.0,0.0,0.0
16.003833055496216,0.3905058,-0.32645032,-5.2615595,1.9107143162274087,nan,nan,nan,nan,nan,5.999647855758667,7.199647855758667,0.0003669261932373047,0.46793247667656646,0.3755518569669635,2.2618360812084934,-5.0,0.7319455466475523,0.047417481083352205,0.02675416338457001,0.30907112550793386,0.0,0.0,0.0,0.0
16.10427737236023,0.41230443,-0.27890405,-5.249263,1.94343145873189,nan,nan,nan,nan,nan,6.100219964981079,7.300219964981079,0.00044536590576171875,0.42927025297803034,0.4191981034167233,2.2934317411574097,-5.0,0.7324282508234595,0.04974851254432342,0.029204543122969984,0.3059684510961304,0.0,0.0,0.0,0.0
16.20378041267395,0.42560038,-0.22917275,-5.237948,1.9803882083854476,nan,nan,nan,nan,nan,6.199581623077393,7.399581623077393,0.00049591064453125,0.38709075942106497,0.45843292199712626,2.3246471266697974,-5.0,0.7327135421221046,0.04612440384984642,0.02830897560195794,0.3033502410298433,0.0,0.0,0.0,0.0
16.30375647544861,0.43322894,-0.1833096,-5.2370696,2.0144758359994768,nan,nan,nan,nan,nan,6.299633026123047,7.499633026123047,0.0004229545593261719,0.3410139903398638,0.49366938166396673,2.3560792019487553,-5.0,0.7323548488543431,0.04076430429822408,0.02732342856359526,0.2997282186296051,0.0,0.0,0.0,0.0
16.404112100601196,0.4396356,-0.1323043,-5.240222,2.0501183308638318,nan,nan,nan,nan,nan,6.399913549423218,7.599913549423218,0.00045037269592285156,0.29163386781847855,0.5243564504621204,2.387583257478551,-5.0,0.7317117193590653,0.03692183240468021,0.02643180483806894,0.2974806648244785,0.0,0.0,0.0,0.0
16.504011392593384,0.4461709,-0.08547179,-5.2448587,2.081728002640281,nan,nan,nan,nan,nan,6.499894857406616,7.699894857406616,0.0004398822784423828,0.23967465605182253,0.550050960590417,2.4189933117442455,-5.0,0.7309878871582891,0.03475285162544218,0.025548176329598094,0.29514241759719767,0.0,0.0,0.0,0.0
16.603986740112305,0.45140678,-0.036005516,-5.2504454,2.1149261992650716,nan,nan,nan,nan,nan,6.599883794784546,7.799883794784546,0.0004334449768066406,0.18547429422687237,0.5706130792236045,2.450405762854921,-5.0,0.7303317927291452,0.035269919944157374,0.023133995065566168,0.2947035179856989,0.0,0.0,0.0,0.0
16.703848361968994,0.4507835,0.005216352,-5.254484,2.14295745776914,nan,nan,nan,nan,nan,6.699723958969116,7.899723958969116,0.00045108795166015625,0.12962684169188204,0.585830079385642,2.481771475488465,-5.0,0.7297328302722457,0.03400253861376938,0.022294377775896344,0.294472646424253,0.0,0.0,0.0,0.0
16.804089784622192,0.44724825,0.052744213,-5.2667365,2.178879269320814,nan,nan,nan,nan,nan,6.8000640869140625,8.000064086914062,0.00035858154296875,0.07228510948772271,0.5956298036082043,2.5132942563696754,-5.0,0.7289274300343997,0.032089823995524194,0.020209737750998182,0.29511994009224596,0.0,0.0,0.0,0.0
16.903858423233032,0.4360732,0.09132037,-5.2767124,2.2072520394109807,nan,nan,nan,nan,nan,6.899656772613525,8.099656772613525,0.0004069805145263672,0.014697255409561528,0.5998199652257551,2.5445822213441462,-5.0,0.7281569611568763,0.02938348919554776,0.021274278588969204,0.2949062809219455,0.0,0.0,0.0,0.0
17.003828525543213,0.41815174,0.13928767,-5.287225,2.243824592525532,nan,nan,nan,nan,nan,6.999630451202393,8.199630451202392,0.0003879070281982422,-0.043247107096890315,0.598439376819198,2.5759898787648594,-5.0,0.7275756136039423,0.025865427510689744,0.02555677861404791,0.2947126783701705,0.0,0.0,0.0,0.0
17.10387372970581,0.40366894,0.17632337,-5.2939763,2.272714835486619,nan,nan,nan,nan,nan,7.099748373031616,8.299748373031616,0.00037288665771484375,-0.10087036475671675,0.5914602011241727,2.607442851535996,-5.0,0.7272274478062751,0.021861932120863948,0.029226963224622326,0.2925713532037422,0.0,0.0,0.0,0.0
17.204233407974243,0.39062703,0.21846935,-5.3034034,2.303437617769649,nan,nan,nan,nan,nan,7.200472831726074,8.400472831726074,0.0009815692901611328,-0.15788901400048558,0.5788532277339001,2.639086373483128,-5.0,0.7268537526686605,0.024109697320900507,0.03057363720287628,0.2931373248319892,0.0,0.0,0.0,0.0
17.303845643997192,0.37479138,0.25291464,-5.3114824,2.337706470987242,nan,nan,nan,nan,nan,7.299657106399536,8.499657106399535,0.0005412101745605469,-0.2125769704924949,0.5610802363443511,2.6702460323497057,-5.0,0.7265942196321277,0.024045493514019578,0.028655707221676326,0.29197735895486127,0.0,0.0,0.0,0.0
17.403838396072388,0.35114905,0.28065252,-5.317833,2.3720117644690033,nan,nan,nan,nan,nan,7.399632215499878,8.599632215499877,0.0007052421569824219,-0.2657236937425397,0.5379506655668538,2.701654139178853,-5.0,0.7264883676335208,0.020092436711843083,0.02623971523856444,0.2901784925881393,0.0,0.0,0.0,0.0
17.503838539123535,0.32640892,0.3041103,-5.320004,2.4030972214296975,nan,nan,nan,nan,nan,7.499650955200195,8.699650955200195,0.0005700588226318359,-0.31641216112644033,0.5097875481916909,2.733075952965236,-5.0,0.7265724130923341,0.014925481286293448,0.026184635383789578,0.289645821678779,0.0,0.0,0.0,0.0
17.603955030441284,0.30020243,0.3265396,-5.3195567,2.433446182819857,nan,nan,nan,nan,nan,7.599821329116821,8.79982132911682,0.0003619194030761719,-0.36421515981858177,0.4768095189468483,2.7645454040456174,-5.0,0.7269419449857687,0.012027148210885668,0.027400389553618242,0.28941520527352493,0.0,0.0,0.0,0.0
17.704290866851807,0.26670763,0.34779456,-5.321538,2.4661574616492787,nan,nan,nan,nan,nan,7.700278043746948,8.900278043746948,0.0006303787231445312,-0.40872758731011255,0.43925136240159157,2.7961048117141947,-5.0,0.7270817244540111,0.009135299038795001,0.030132513633567025,0.2897677473783248,0.0,0.0,0.0,0.0
17.80568242073059,0.2248295,0.36445844,-5.321821,2.4958939346544264,nan,nan,nan,nan,nan,7.801623344421387,9.001623344421386,0.0006492137908935547,-0.4497302373545639,0.3971683693460591,2.827943376921661,-5.0,0.7272517497606721,0.003639556470993273,0.03719426030219982,0.2893087250445966,0.0,0.0,0.0,0.0
17.90511918067932,0.17910093,0.37812638,-5.31879,2.525834845203284,nan,nan,nan,nan,nan,7.901168346405029,9.101168346405029,0.0007193088531494141,-0.48580818492556077,0.3521227164772704,2.859216361615,-5.0,0.7275333507078794,-0.0004158174895012838,0.04519253344524412,0.29094579759072353,0.0,0.0,0.0,0.0
18.009955406188965,0.12002079,0.38985002,-5.3154187,2.563982975436603,nan,nan,nan,nan,nan,8.005921840667725,9.205921840667724,0.000640869140625,-0.5189145147600991,0.30121043536253994,2.892125642416355,-5.0,0.7279378598224063,-0.004222277961979308,0.052672646335822894,0.29294656889181725,0.0,0.0,0.0,0.0
18.104418754577637,0.07975442,0.39514518,-5.3144836,2.589377566443144,nan,nan,nan,nan,nan,8.100403070449829,9.300403070449828,0.0009160041809082031,-0.544223088399451,0.25262864060308615,2.921807796154914,-5.0,0.7281614939615854,-0.009108588577046738,0.057141774103722884,0.29197970345357227,0.0,0.0,0.0,0.0
18.20430040359497,0.026070492,0.39982533,-5.3186164,2.618558411420281,nan,nan,nan,nan,nan,8.200242042541504,9.400242042541503,0.0007443428039550781,-0.5660336661408175,0.1990122830259115,2.9531731342814296,-5.0,0.7280786211820675,-0.011811950786200164,0.0625034883980197,0.2918182232256883,0.0,0.0,0.0,0.0
18.304335117340088,-0.04008843,0.4023675,-5.3249965,2.6479780386556486,nan,nan,nan,nan,nan,8.300291538238525,9.500291538238525,0.0006322860717773438,-0.5826055327754023,0.14342521807370448,2.9846046103491424,-5.0,0.7278574467623288,-0.013982585263116675,0.07046071936346394,0.2930515810716435,0.0,0.0,0.0,0.0
18.404160261154175,-0.09622579,0.40298307,-5.3328333,2.67255045589408,nan,nan,nan,nan,nan,8.400108575820923,9.600108575820922,0.0006353855133056641,-0.5937129352362779,0.08663111757978963,3.015963057546338,-5.0,0.7275702401093774,-0.015974354984453126,0.0785738883279507,0.29516412322459584,0.0,0.0,0.0,0.0
18.504437923431396,-0.16531587,0.40021417,-5.343129,2.704845387836071,nan,nan,nan,nan,nan,8.500367641448975,9.700367641448974,0.0006740093231201172,-0.5993095999730861,0.028775047873103882,3.0474603719496245,-5.0,0.7272391933365476,-0.013955603345387318,0.08293692862717261,0.2995716128134357,0.0,0.0,0.0,0.0
18.605231046676636,-0.21700644,0.39412174,-5.3488345,2.730950107792978,nan,nan,nan,nan,nan,8.601160764694214,9.801160764694213,0.000652313232421875,-0.5992664329475449,-0.029660450811235223,3.079125465501586,-5.0,0.7269195801617859,-0.01640633974424876,0.08075738230837051,0.2993270800601598,0.0,0.0,0.0,0.0
18.704188346862793,-0.27292043,0.38404605,-5.349671,2.7604010468314515,nan,nan,nan,nan,nan,8.700183868408203,9.900183868408202,0.0006389617919921875,-0.5936884218127235,-0.08679895048626844,3.110234491017939,-5.0,0.7270297769636811,-0.016446019688448485,0.07679480298509411,0.30136931361673747,0.0,0.0,0.0,0.0
18.782800674438477,-0.309032,0.3765317,-5.349391,2.780227097177499,nan,nan,nan,nan,nan,8.782186508178711,9.98218650817871,0.006272315979003906,-0.5849511132249092,-0.13353724250911958,3.1359963800857384,-5.0,0.7272310196785011,-0.015799079598931683,0.07338335129900006,0.3035672344190413,0.0,0.0,0.0,0.0
18.90077018737793,-0.39769584,0.34458253,-5.3395567,2.833027677289561,nan,nan,nan,nan,nan,8.900023460388184,10.100023460388183,0.0055768489837646484,-0.5659825716370005,-0.19915754719108072,3.1730159504240074,-5.0,0.7274628007429492,-0.012826227822848323,0.07268774479072594,0.30829004073991784,0.0,0.0,0.0,0.0
18.967926502227783,-0.4257108,0.32596323,-5.334542,2.853612589141988,nan,nan,nan,nan,nan,8.96735954284668,10.167359542846679,0.005953311920166016,-0.5518300272015766,-0.2355496148982359,3.1941702046213205,-5.0,0.7277586900501312,-0.014727259265865562,0.06969493787201479,0.30904466387671237,0.0,0.0,0.0,0.0
19.09327244758606,-0.46380892,0.2801025,-5.3349934,2.8971825830270754,nan,nan,nan,nan,nan,9.092919826507568,10.292919826507568,0.0059719085693359375,-0.5192514533278223,-0.30062922049751645,3.2336161310944904,-5.0,0.7283108086363435,-0.0228488217212597,0.05824368314973003,0.3097997147435704,0.0,0.0,0.0,0.0
19.20959711074829,-0.49674213,0.22757216,-5.3329654,2.9352472153685696,nan,nan,nan,nan,nan,9.208983182907104,10.408983182907104,0.005721330642700195,-0.48232950066599073,-0.3568728804312483,3.270078509876066,-5.0,0.728599505835691,-0.03011834858484401,0.045267675658487154,0.31357115097682253,0.0,0.0,0.0,0.0
19.276592254638672,-0.51204824,0.19640069,-5.330925,2.9566896360769803,nan,nan,nan,nan,nan,9.27625560760498,10.47625560760498,0.005953788757324219,-0.4581194978292667,-0.38746164417740825,3.291212765398068,-5.0,0.7286903924988145,-0.03781716509899557,0.0349633449240039,0.31229957581096146,0.0,0.2508384203218801,0.0,0.0
19.402270793914795,-0.53911203,0.124280885,-5.3330216,3.0009079912868613,nan,nan,nan,nan,nan,9.402113437652588,10.602113437652587,0.005992889404296875,-0.40771107393502914,-0.44019504789439096,3.3307521688254993,-5.0,0.7288908940760754,-0.05298460351352556,0.014188455984007453,0.31022338194421184,0.0,0.471688799066012,0.0,0.0
19.470461130142212,-0.53911203,0.124280885,-5.3330216,3.0009079912868613,nan,nan,nan,nan,nan,9.470012426376343,10.670012426376342,0.006509065628051758,-0.3779621264178363,-0.4659878013357297,3.3520832652415717,-5.0,0.7288598126184823,-0.060454757478390304,0.004028036391482792,0.3088549164187192,0.0,0.6641475885639261,0.0,0.0
19.602834701538086,-0.5586498,0.024768762,-5.347703,3.0567573725271187,nan,nan,nan,nan,nan,9.602720260620117,10.802720260620116,0.006571292877197266,-0.315242836069762,-0.5105114634429799,3.3937746609549775,-5.0,0.7283223847910945,-0.0966998329110668,-0.02609684112925021,0.3057887034630211,0.0,0.001668008276053068,0.0,0.0
19.690650701522827,-0.56631756,-0.042103276,-5.3595514,3.089043263342124,nan,nan,nan,nan,nan,9.690126895904541,10.89012689590454,0.005934476852416992,-0.27103591789231185,-0.5352938736920795,3.421234265283432,-5.0,0.7276957136797673,-0.11751466232859004,-0.038394955309246165,0.30296102610981146,0.0,0.0,0.0,0.0
19.804150819778442,-0.5579386,-0.09080526,-5.3648405,3.1148460509263938,nan,nan,nan,nan,nan,9.800108194351196,11.000108194351196,0.0006785392761230469,-0.21270425762838382,-0.5610319944412779,3.45578590920666,-5.0,0.7270997595054322,-0.12005642042425288,-0.03809225162384284,0.3017048012648884,0.0,0.0,0.0,0.0
19.910093784332275,-0.54049605,-0.14800715,-5.368084,3.146418190975658,nan,nan,nan,nan,nan,9.906063556671143,11.106063556671142,0.0006508827209472656,-0.1542284837101673,-0.5798392663596202,3.489072767993939,-5.0,0.7268854391743633,-0.10862939881310264,-0.038287619335285204,0.29974489917121405,0.0,0.0,0.0,0.0
20.004425048828125,-0.51385605,-0.20853636,-5.369162,3.1805866715919224,nan,nan,nan,nan,nan,10.000416278839111,11.20041627883911,0.0006639957427978516,-0.10077622683631901,-0.5914762481322768,3.5187145498748476,-5.0,0.7269183140529155,-0.09405779496863191,-0.037703719599960946,0.29861237662135154,0.0,0.0,0.0,0.0
20.10673475265503,-0.48244622,-0.2568974,-5.366057,3.2100041825777135,nan,nan,nan,nan,nan,10.102670192718506,11.302670192718505,0.0006265640258789062,-0.041916129886313165,-0.5985340742642424,3.5508385643392786,-5.0,0.7271290363408976,-0.08366954203893069,-0.036083453604194876,0.30209155523315423,0.0,0.0,0.0,0.0
20.204346895217896,-0.4504868,-0.30299714,-5.362952,3.2386812111332235,nan,nan,nan,nan,nan,10.200516700744629,11.400516700744628,0.0008897781372070312,0.014797837190365683,-0.5998174922545085,3.581577951418707,-5.0,0.7276897897503731,-0.06429369765611444,-0.040045475538386506,0.29672325576333225,0.0,0.0,0.0,0.0
20.310145616531372,-0.406549,-0.3569407,-5.36089,3.2739474329640235,nan,nan,nan,nan,nan,10.300435543060303,11.500435543060302,0.0005998611450195312,0.0725727689556536,-0.5955948230182238,3.6129683815161187,-5.0,0.7279291325153964,-0.053733274250158815,-0.03684561587488554,0.298743653429967,0.0,0.0,0.0,0.0
20.404508113861084,-0.36759737,-0.39812416,-5.3590646,3.3033957875281805,nan,nan,nan,nan,nan,10.400467872619629,11.600467872619628,0.0005996227264404297,0.1297354715943866,-0.5858060322412036,3.644394464682624,-5.0,0.728014921994388,-0.041659953337692346,-0.034574793523040555,0.29787717201302455,0.0,0.0,0.0,0.0
20.493045568466187,-0.3429593,-0.42227966,-5.356447,3.3230522424023983,nan,nan,nan,nan,nan,10.492587804794312,11.69258780479431,0.0066683292388916016,0.1813169071906674,-0.5719477066715198,3.6733347948995414,-5.0,0.7281931395955401,-0.03342159282456032,-0.029836411284111707,0.3000058792556612,0.0,0.0,0.0,0.0
20.60423445701599,-0.2982269,-0.46421215,-5.3561416,3.3617519459816796,nan,nan,nan,nan,nan,10.600175380706787,11.800175380706786,0.0006129741668701172,0.2397120013432257,-0.5500346865535167,3.707134428709958,-5.0,0.7282830878705936,-0.02288656088560903,-0.022121234731589317,0.3013288828411388,0.0,0.0,0.0,0.0
20.705967903137207,-0.25533947,-0.49399957,-5.362852,3.3933933260338742,nan,nan,nan,nan,nan,10.701878309249878,11.901878309249877,0.0006134510040283203,0.29254166206220883,-0.5238505282596175,3.739085346025912,-5.0,0.7280096833021342,-0.015638983662368447,-0.015305092158015446,0.30285678157228474,0.0,0.0,0.0,0.0
20.80424189567566,-0.2130437,-0.51701134,-5.3641577,3.423108726310271,nan,nan,nan,nan,nan,10.800206661224365,12.000206661224365,0.0006816387176513672,0.3409374846480766,-0.49372222105333935,3.7699761088461763,-5.0,0.7277721586889991,-0.01248929429621907,-0.013455271930981385,0.3037042425143603,0.0,0.0,0.0,0.0
20.905604600906372,-0.16720527,-0.53673565,-5.358523,3.455649513334066,nan,nan,nan,nan,nan,10.901532411575317,12.101532411575317,0.0006315708160400391,0.3875842097374468,-0.4580158079828674,3.8018085321383785,-5.0,0.7282072436196317,-0.010344165390251993,-0.013417510101857178,0.3044770853318864,0.0,0.0,0.0,0.0
21.004088878631592,-0.124969386,-0.5517761,-5.3541007,3.485179303973019,nan,nan,nan,nan,nan,10.99999737739563,12.19999737739563,0.000606536865234375,0.42935831395712737,-0.4191079076274901,3.832742213464085,-5.0,0.7286073283535619,-0.010666281988013426,-0.013581456871854832,0.3052858136038854,0.0,0.0,0.0,0.0
21.104028463363647,-0.07704242,-0.5599628,-5.3466434,3.517018044453418,nan,nan,nan,nan,nan,11.099936246871948,12.299936246871948,0.0007083415985107422,0.46778145776135943,-0.3757399470041181,3.864138935279572,-5.0,0.7291224121311726,-0.011530003354561126,-0.016193389441040297,0.3052151282420436,0.0,0.0,0.0,0.0
21.203909158706665,-0.03035187,-0.564349,-5.3397923,3.5466500955205458,nan,nan,nan,nan,nan,11.199767827987671,12.39976782798767,0.0005271434783935547,0.5018082766692853,-0.32892013235161205,3.895501951462513,-5.0,0.7296148616424539,-0.013288451392099674,-0.020202317225524593,0.30517731451836333,0.0,0.0,0.0,0.0
21.303709506988525,0.02452734,-0.5636464,-5.329104,3.578938890981127,nan,nan,nan,nan,nan,11.299509525299072,12.499509525299072,0.0003921985626220703,0.5311413565242338,-0.27908575633592764,3.9268367298155207,-5.0,0.7301120283817093,-0.01612423313941336,-0.024783108898685777,0.30557869664469517,0.0,0.0,0.0,0.0
21.403722286224365,0.0791533,-0.556513,-5.3171463,3.6087602298505814,nan,nan,nan,nan,nan,11.399508476257324,12.599508476257324,0.0003905296325683594,0.5555972255675898,-0.22652091060561413,3.9582523267852334,-5.0,0.7307982712989621,-0.01937687254662365,-0.031849188651940676,0.3052962610686166,0.0,0.0,0.0,0.0
21.50367307662964,0.14460328,-0.5382516,-5.307819,3.641937771201166,nan,nan,nan,nan,nan,11.499447107315063,12.699447107315063,0.00038242340087890625,0.574855721098066,-0.17187466340569954,3.989648973699315,-5.0,0.7311306808075709,-0.020871096952847695,-0.042485564473290216,0.30488939731523057,0.0,0.0,0.0,0.0
21.603715896606445,0.19919981,-0.52262646,-5.29566,3.6696188493822843,nan,nan,nan,nan,nan,11.599501848220825,12.799501848220824,0.00038123130798339844,0.5887664979322758,-0.11555955569559574,4.021082097597952,-5.0,0.73163791000122,-0.023159514483514373,-0.05123086385567432,0.30408094944013825,0.0,0.0,0.0,0.0
21.703950881958008,0.26755416,-0.49922198,-5.282415,3.703954626164286,nan,nan,nan,nan,nan,11.699747085571289,12.899747085571288,0.0004215240478515625,0.5971848056544575,-0.058054352941427245,4.052575067719711,-5.0,0.7320835504830284,-0.027203153475665525,-0.05591428417951415,0.30481162544994805,0.0,0.0,0.0,0.0
21.80398440361023,0.32020575,-0.47836113,-5.271651,3.7303767559753425,nan,nan,nan,nan,nan,11.799795150756836,12.999795150756835,0.0004239082336425781,0.5999999882368671,-0.00011880976120983515,4.084006094378989,-5.0,0.7324018588163113,-0.030930450176950442,-0.05831001719463795,0.3059154256890453,0.0,0.0,0.0,0.0
21.90377449989319,0.3846987,-0.4498917,-5.256673,3.764008438599327,nan,nan,nan,nan,nan,11.899591207504272,13.099591207504272,0.0003790855407714844,0.5972218170815504,0.0576723608135742,4.115357950252487,-5.0,0.7328094892955433,-0.03408935157579355,-0.0586571257405941,0.30771851957989454,0.0,0.0,0.0,0.0
22.00429105758667,0.43037838,-0.42884505,-5.2473454,3.790241124533134,nan,nan,nan,nan,nan,12.000315189361572,13.200315189361572,0.0007338523864746094,0.5887869265297404,0.11545542493820744,4.147001322396807,-5.0,0.7329754165415604,-0.03617254050185348,-0.05558159772124571,0.3093976602801456,0.0,0.0,0.0,0.0
22.10384225845337,0.4737027,-0.39921504,-5.2400355,3.8192679376293004,nan,nan,nan,nan,nan,12.099675178527832,13.299675178527831,0.0009255409240722656,0.5750013390059361,0.17138687272186412,4.178216183599355,-5.0,0.7328978617081972,-0.03433958496618196,-0.05143262337136644,0.31101329149476914,0.0,0.0,0.0,0.0
22.204357862472534,0.51179045,-0.36281392,-5.2343106,3.8510568216778296,nan,nan,nan,nan,nan,12.2003915309906,13.4003915309906,0.0007343292236328125,0.555619117890636,0.22646720697361802,4.209857158898695,-5.0,0.7326603397751943,-0.02801685251720786,-0.04718687336964693,0.3121264920594657,0.0,0.0,0.0,0.0
22.303826093673706,0.5414265,-0.32620493,-5.2305436,3.880585587138677,nan,nan,nan,nan,nan,12.299717664718628,13.499717664718627,0.0004646778106689453,0.5313496943060307,0.278688898883482,4.24106138410164,-5.0,0.7323123517611245,-0.0189452381715473,-0.04218791723727901,0.31315221970290275,0.0,0.0,0.0,0.0
22.404319047927856,0.5706427,-0.28402492,-5.2278557,3.913055134927204,nan,nan,nan,nan,nan,12.400168180465698,13.600168180465698,0.0004634857177734375,0.5018286217342945,0.328889091348829,4.27261884433367,-5.0,0.7319310202959828,-0.009496714212351329,-0.03866501778797594,0.313620950970239,0.0,0.0,0.0,0.0
22.504234313964844,0.59456503,-0.24438635,-5.230119,3.943134751011449,nan,nan,nan,nan,nan,12.500119686126709,13.700119686126708,0.000484466552734375,0.46776114183636686,0.3757652381313873,4.304019535923657,-5.0,0.731292069263269,-0.0022741342903695367,-0.036333779741139834,0.3140119007566381,0.0,0.0,0.0,0.0
22.60461950302124,0.6097195,-0.19246535,-5.235219,3.9754833236011953,nan,nan,nan,nan,nan,12.600601434707642,13.800601434707641,0.0009169578552246094,0.42911564643226496,0.41935636633657936,4.335586808239828,-5.0,0.7305259977552284,0.006534432653816478,-0.03628317495839176,0.3141552879894999,0.0,0.0,0.0,0.0
22.704725742340088,0.61618656,-0.14438012,-5.244276,4.005343674850918,nan,nan,nan,nan,nan,12.700684547424316,13.900684547424316,0.0008273124694824219,0.38660178809928647,0.4588453524210901,4.367028845405739,-5.0,0.7296483878996749,0.015345000475066851,-0.0366463730860111,0.31536286354738335,0.0,0.0,0.0,0.0
22.806830406188965,0.6167799,-0.09130146,-5.257504,4.037795598774432,nan,nan,nan,nan,nan,12.803613662719727,14.003613662719726,0.0010750293731689453,0.3391119007936703,0.49497789722380925,4.3993649806509945,-5.0,0.7286908935161348,0.021284342329729474,-0.035044284526766396,0.3170621447950708,0.0,0.0,0.0,0.0
22.904132843017578,0.6123196,-0.038935967,-5.271435,4.067659752001001,nan,nan,nan,nan,nan,12.900043487548828,14.100043487548827,0.0006508827209472656,0.29156800430531216,0.5243930766757103,4.429659303578,-5.0,0.7275055995008706,0.028017165556238375,-0.036338195251456575,0.3170798990381533,0.0,0.0,0.0,0.0
23.0044047832489,0.5993675,0.01532079,-5.282463,4.097498411522473,nan,nan,nan,nan,nan,13.000329732894897,14.200329732894897,0.0005898475646972656,0.23944341010547604,0.5501516639591857,4.461165156741532,-5.0,0.7267221370630116,0.03505434580885791,-0.03792882607782482,0.3167711265846636,0.0,0.0,0.0,0.0
23.104034185409546,0.5857851,0.07002846,-5.28822,4.127363084304905,nan,nan,nan,nan,nan,13.099921703338623,14.299921703338622,0.0005321502685546875,0.18545338451541737,0.5706198753739451,4.492452897011786,-5.0,0.7264638555135025,0.03850539060382276,-0.039888379660800694,0.3182930439585476,0.0,0.0,0.0,0.0
23.20407748222351,0.5716681,0.12835094,-5.291359,4.159929395205221,nan,nan,nan,nan,nan,13.199959993362427,14.399959993362426,0.0004818439483642578,0.12949317462221901,0.585859639953342,4.523880852713432,-5.0,0.7265249476657968,0.04023122150244174,-0.04136736215774389,0.31748545121312305,0.0,0.0,0.0,0.0
23.303950786590576,0.5590344,0.1796291,-5.2934155,4.190063674017718,nan,nan,nan,nan,nan,13.299802780151367,14.499802780151366,0.00048089027404785156,0.07243555766156647,0.5956115260690125,4.555247389262439,-5.0,0.7267230432876852,0.03650359372709447,-0.04308624141993837,0.31855192978877445,0.0,0.0,0.0,0.0
23.40400505065918,0.543524,0.23002273,-5.295953,4.2232374163339506,nan,nan,nan,nan,nan,13.399848461151123,14.599848461151122,0.0005056858062744141,0.01458611178476879,0.5998226782499994,4.586677666907661,-5.0,0.7268215350970653,0.03002572348546384,-0.04195274531545169,0.31852914288135264,0.0,0.0,0.0,0.0
23.504010915756226,0.52278626,0.27739733,-5.3026237,4.253686811254962,nan,nan,nan,nan,nan,13.499894142150879,14.699894142150878,0.0005228519439697266,-0.04339964504195486,0.5984283338965763,4.618107944552883,-5.0,0.7267120492267874,0.025664882926891286,-0.04038094939978522,0.3178420081360113,0.0,0.0,0.0,0.0
23.6040096282959,0.49583876,0.32796666,-5.304896,4.286674680253488,nan,nan,nan,nan,nan,13.599879264831543,14.799879264831542,0.0005183219909667969,-0.10094519890003445,0.5914474336904612,4.6495191972410685,-5.0,0.726732363587699,0.02420825692956049,-0.03966013667218563,0.3179791610863831,0.0,0.0,0.0,0.0
23.70400643348694,0.47132015,0.36616525,-5.3040023,4.314607043313252,nan,nan,nan,nan,nan,13.699890375137329,14.899890375137328,0.0005631446838378906,-0.15756307835654176,0.5789420319330859,4.68093861418247,-5.0,0.7270150354399798,0.02445224135820387,-0.03768342716912016,0.31745304886186376,0.0,0.0,0.0,0.0
23.806730031967163,0.44238487,0.40228745,-5.3010864,4.345007858969458,nan,nan,nan,nan,nan,13.80337905883789,15.00337905883789,0.0017688274383544922,-0.21459424625229057,0.5603117966591559,4.713450543026806,-5.0,0.7273891932838281,0.022714045576044086,-0.03447221876782343,0.3189580368650905,0.0,0.0,0.0,0.0
23.904475450515747,0.40802053,0.43483296,-5.2981577,4.375645325066078,nan,nan,nan,nan,nan,13.902254104614258,15.102254104614257,0.002958059310913086,-0.26708623883895166,0.5372754796404378,4.744513054770245,-5.0,0.7276980891041851,0.02220043006158231,-0.030849464765061164,0.32000718997281,0.0,0.0,0.0,0.0
24.004183769226074,0.36828238,0.46648657,-5.2983947,4.408922809675602,nan,nan,nan,nan,nan,14.000206470489502,15.200206470489501,0.0006327629089355469,-0.3166858639961673,0.5096175659698172,4.775285698073786,-5.0,0.7278728637721358,0.024057970671931234,-0.025758536468453056,0.3196694818745389,0.0,0.0,0.0,0.0
24.107303142547607,0.3245362,0.493992,-5.303466,4.439531881077699,nan,nan,nan,nan,nan,14.104440927505493,15.304440927505492,0.0006802082061767578,-0.3663407174274491,0.47517836520062845,4.808031918515021,-5.0,0.727672066190288,0.028855138890512895,-0.02189067989167947,0.31924806221200946,0.0,0.0,0.0,0.0
24.201239585876465,0.2665552,0.52733713,-5.309474,4.47743341432715,nan,nan,nan,nan,nan,14.198341131210327,15.398341131210326,0.0022897720336914062,-0.40790445900888594,0.44001585462420334,4.83753153752799,-5.0,0.7273812013074662,0.03442109111158997,-0.021408515569987928,0.32116843059804384,0.0,0.0,0.0,0.0
24.304094791412354,0.224605,0.5495702,-5.3101506,4.5049057403688,nan,nan,nan,nan,nan,14.300007581710815,15.500007581710815,0.0005893707275390625,-0.44910936483235514,0.3978703035159554,4.8694709949288795,-5.0,0.7273489918355491,0.040650925180544396,-0.021826337193733437,0.3199323529719868,0.0,0.0,0.0,0.0
24.405303239822388,0.17698294,0.5662411,-5.3068256,4.535254667200919,nan,nan,nan,nan,nan,14.401225566864014,15.601225566864013,0.0005881786346435547,-0.48582766072623496,0.35209584500995517,4.901269562785724,-5.0,0.7276663938884006,0.045115170288979836,-0.0203869002655882,0.3201004603592517,0.0,0.0,0.0,0.0
24.504115343093872,0.121835105,0.5787489,-5.299197,4.568735055129936,nan,nan,nan,nan,nan,14.500036716461182,15.700036716461181,0.0005857944488525391,-0.5171925955355916,0.30415755641305026,4.932312000952447,-5.0,0.7281853563639629,0.04884295301138445,-0.015815040612661646,0.319148884544051,0.0,0.0,0.0,0.0
24.604272842407227,0.07559548,0.58232266,-5.294773,4.59715427819755,nan,nan,nan,nan,nan,14.600139617919922,15.800139617919921,0.0005099773406982422,-0.5441587351355949,0.2527672268622448,4.963760254935027,-5.0,0.7286284585038422,0.05134797478705946,-0.010736249273655553,0.3190370433379438,0.0,0.0,0.0,0.0
24.703933477401733,0.022190195,0.58185965,-5.2925577,4.630341248699646,nan,nan,nan,nan,nan,14.69983959197998,15.89983959197998,0.0004878044128417969,-0.5659562022829894,0.19923246998774072,4.995081925542044,-5.0,0.7287403684812327,0.052341176753861365,-0.005168325309715487,0.31876082926052873,0.0,0.0,0.0,0.0
24.804141998291016,-0.026733052,0.5803928,-5.2919016,4.660287022175622,nan,nan,nan,nan,nan,14.800016164779663,16.000016164779662,0.000518798828125,-0.582567334052943,0.14358029563434768,5.026553324058972,-5.0,0.728672997766222,0.05259812730120649,-0.004004410813214598,0.3198782569011944,0.0,0.0,0.0,0.0
24.906986713409424,-0.08385699,0.5735871,-5.28685,4.692567939818603,nan,nan,nan,nan,nan,14.903306007385254,16.103306007385253,0.0006372928619384766,-0.5939778564960846,0.08479567201406438,5.059002785130989,-5.0,0.7288347612729797,0.05414494146397276,-0.0033738666980249574,0.3219019265825898,0.0,0.0,0.0,0.0
25.00407123565674,-0.13624236,0.5629304,-5.2830067,4.722749019699698,nan,nan,nan,nan,nan,14.999978065490723,16.199978065490722,0.0005581378936767578,-0.5992987213356078,0.029000734568378754,5.089373207886144,-5.0,0.7290548209888917,0.05700948410025377,0.001143787995169993,0.3206643509736847,0.0,0.0,0.0,0.0
25.104127883911133,-0.19605356,0.54576707,-5.2795577,4.755574910811214,nan,nan,nan,nan,nan,15.100117683410645,16.300117683410644,0.0006096363067626953,-0.5992960346030605,-0.029056202591655218,5.120832996685196,-5.0,0.7292378608945773,0.05948452639578967,0.0038699791537705887,0.32084092626017224,0.0,0.0,0.0,0.0
25.204073429107666,-0.2536219,0.5253387,-5.2775297,4.785707727829167,nan,nan,nan,nan,nan,15.200018644332886,16.400018644332885,0.0006089210510253906,-0.593702277147896,-0.08670412971365817,5.152217809177183,-5.0,0.729371916361006,0.06322707984022383,0.006127604399913803,0.32114854877799554,0.0,0.0,0.0,0.0
25.304110527038574,-0.31644198,0.49996594,-5.2781396,4.818090377608437,nan,nan,nan,nan,nan,15.300027847290039,16.50002784729004,0.0006017684936523438,-0.5825612250458546,-0.14360508024813434,5.183636626907339,-5.0,0.7292718348233954,0.06713320382333628,0.0078359982300244,0.32133206838566414,0.0,0.0,0.0,0.0
25.39916443824768,-0.35889414,0.4782412,-5.2790504,4.842875955978954,nan,nan,nan,nan,nan,15.396355628967285,16.596355628967284,0.0022106170654296875,-0.5666851232895935,-0.19714961588158927,5.213898892032723,-5.0,0.7291684026214149,0.0677265976034855,0.00816025415049129,0.3226421183188302,0.0,0.0,0.0,0.0
25.500282526016235,-0.41481572,0.44154295,-5.2794785,4.880297304112072,nan,nan,nan,nan,nan,15.497560977935791,16.69756097793579,0.0025529861450195312,-0.5447192174604498,-0.25155709914306773,5.245693490115068,-5.0,0.7291268331636072,0.06672526578712783,0.007258892849601211,0.32571960131430777,0.0,0.0,0.0,0.0
25.607067346572876,-0.44795674,0.4136405,-5.280483,4.905577626825599,nan,nan,nan,nan,nan,15.604236841201782,16.80423684120178,0.0024085044860839844,-0.5159317086841488,-0.3062914820465214,5.279206700950247,-5.0,0.7289946031765783,0.059994559790962194,0.012837696926383733,0.323964374301893,0.0,0.0,0.0,0.0
25.70415163040161,-0.48583946,0.37302473,-5.2829027,4.939175967134682,nan,nan,nan,nan,nan,15.700068473815918,16.900068473815917,0.0006122589111328125,-0.48538685233010287,-0.3527032798048168,5.309313096250455,-5.0,0.7287571023786196,0.05372649858320344,0.017193128899235355,0.32338369521718596,0.0,0.0,0.0,0.0
25.804096221923828,-0.5155995,0.3282045,-5.283469,4.97298783090639,nan,nan,nan,nan,nan,15.80000925064087,17.00000925064087,0.0006096363067626953,-0.4491028910689787,-0.3978776108723448,5.3407104172771875,-5.0,0.7286185163777606,0.04618166028624258,0.02408199848010571,0.3218044530565338,0.0,0.0,0.0,0.0
25.905832529067993,-0.53260183,0.28883177,-5.281951,5.001646682720075,nan,nan,nan,nan,nan,15.902440547943115,17.102440547943115,0.001676321029663086,-0.40757186424898456,-0.44032394378753387,5.3728901583874284,-5.0,0.7286806575612893,0.038402358457837966,0.03098623683491544,0.32081675398643744,0.0,0.0,0.0,0.0
26.0044584274292,-0.5521827,0.23612265,-5.2875524,5.0379955875948585,nan,nan,nan,nan,nan,16.00037455558777,17.200374555587768,0.0006134510040283203,-0.36412486904819963,-0.4768784748136903,5.403657034282733,-5.0,0.7285089841822598,0.03206933128596825,0.03696823060533524,0.3202835475604406,0.0,0.0,0.0,0.0
26.105009078979492,-0.56507367,0.18729657,-5.294898,5.069144715197641,nan,nan,nan,nan,nan,16.100922107696533,17.300922107696532,0.0005865097045898438,-0.3161297169289404,-0.5099627457711279,5.435244979386867,-5.0,0.7278700077187485,0.027960196753882328,0.0433486953919721,0.3181767336967515,0.0,0.0,0.0,0.0
26.205234050750732,-0.5721684,0.13431577,-5.299246,5.100351115372586,nan,nan,nan,nan,nan,16.201451063156128,17.401451063156127,0.001829385757446289,-0.26516023597382193,-0.5382286217382972,5.466827082181358,-5.0,0.7275089813914297,0.02675123903578548,0.04932736223340603,0.3173565462920486,0.0,0.0,0.0,0.0
26.304513454437256,-0.57228047,0.07649754,-5.299925,5.131420035292704,nan,nan,nan,nan,nan,16.300435781478882,17.50043578147888,0.0005753040313720703,-0.2125265905215193,-0.5610993212625537,5.4979240485714005,-5.0,0.7275298652699399,0.02753035815688117,0.054894454376535166,0.31854153179900824,0.0,0.0,0.0,0.0
26.404088020324707,-0.5669212,0.011381548,-5.2977734,5.165103183654674,nan,nan,nan,nan,nan,16.400004625320435,17.600004625320434,0.0007300376892089844,-0.15762183852056327,-0.5789260367451075,5.529204523405306,-5.0,0.727724799131778,0.027961672181072518,0.06222294205110265,0.31713305293091143,0.0,0.0,0.0,0.0
26.509132623672485,-0.5547067,-0.04527312,-5.295617,5.1937678281135895,nan,nan,nan,nan,nan,16.50508141517639,17.70508141517639,0.001741170883178711,-0.09810793394004774,-0.5919246854947133,5.562215370512733,-5.0,0.727984933302482,0.027891303125433822,0.06853839537986996,0.3162960569503669,0.0,0.0,0.0,0.0
26.606409549713135,-0.5316702,-0.11789358,-5.292279,5.230139428364034,nan,nan,nan,nan,nan,16.602335929870605,17.802335929870605,0.0006113052368164062,-0.04210952191944336,-0.5985204993679965,5.592768777401911,-5.0,0.7282034024195848,0.025809459413028094,0.07337711595919748,0.31605137691784135,0.0,0.0,0.0,0.0
26.712921142578125,-0.5147635,-0.16436294,-5.2894077,5.25309513396682,nan,nan,nan,nan,nan,16.71077823638916,17.91077823638916,0.003927469253540039,0.02074675175910282,-0.5996412029634439,5.626836932751614,-5.0,0.7284817898459721,0.02640655672651771,0.07560078207747892,0.31897111603079253,0.0,0.0,0.0,0.0
26.80295705795288,-0.46619463,-0.25137255,-5.289543,5.2998632947621935,nan,nan,nan,nan,nan,16.802565336227417,18.002565336227416,0.006517171859741211,0.07379879606175965,-0.5954441516211532,5.655672700606232,-5.0,0.728533080968774,0.027894649357167015,0.07465011788859507,0.323039002959487,0.0,0.0,0.0,0.0
26.9183988571167,-0.4294258,-0.30337533,-5.2965894,5.331226582641143,nan,nan,nan,nan,nan,16.9179105758667,18.1179105758667,0.006694316864013672,0.13959376955660224,-0.5835354140932478,5.691909476353964,-5.0,0.7283953747990922,0.02029708633442847,0.07549736352269144,0.3198175676844567,0.0,0.0,0.0,0.0
27.010562896728516,-0.4039087,-0.33709726,-5.299155,5.351956583557508,nan,nan,nan,nan,nan,17.006558656692505,18.206558656692504,0.000705718994140625,0.18902419981631055,-0.5694469702121555,5.719759092301683,-5.0,0.7279563075072139,0.011101740501964273,0.07477276851940397,0.3174054432600937,0.0,0.0,0.0,0.0
27.109954118728638,-0.36087278,-0.38893878,-5.301746,5.385175766116563,nan,nan,nan,nan,nan,17.105942010879517,18.305942010879516,0.000759124755859375,0.24277430740578995,-0.5486899267014468,5.750981293841985,-5.0,0.7278400119613819,0.007880037241990231,0.07264886660525996,0.3184386498488958,0.0,0.0,0.0,0.0
27.213674783706665,-0.30967218,-0.44016814,-5.3063765,5.423720442654902,nan,nan,nan,nan,nan,17.21258044242859,18.412580442428588,0.004909038543701172,0.2979452244915515,-0.520796162814857,5.784482745156476,-5.0,0.7275847687408878,0.0014447736579742483,0.06795154760231184,0.3167334630963281,0.0,0.0,0.0,0.0
27.30465579032898,-0.28334567,-0.46774268,-5.3042674,5.4468668290606,nan,nan,nan,nan,nan,17.30072784423828,18.50072784423828,0.0006740093231201172,0.34118617782443306,-0.49355039465241474,5.812175068152311,-5.0,0.7276927902213697,-0.0012762350296043046,0.06118278825305675,0.3158917278501019,0.0,0.0,0.0,0.0
27.400651693344116,-0.25369006,-0.49427575,-5.3046227,5.472549891887088,nan,nan,nan,nan,nan,17.39964485168457,18.59964485168457,0.00527501106262207,0.3867478701986568,-0.4587222306546772,5.843250762543146,-5.0,0.7278438851820533,-0.0007701692810599986,0.053066009535488595,0.31720318773360684,0.0,0.0,0.0,0.0
27.506571531295776,-0.21020703,-0.5234253,-5.307009,5.508569856395399,nan,nan,nan,nan,nan,17.502492666244507,18.702492666244506,0.0008459091186523438,0.43036797560066326,-0.4180710532641394,5.875561356409072,-5.0,0.7277028939492786,-0.0016684928207503136,0.0437709111613707,0.31831642824399337,0.0,0.0,0.0,0.0
27.604342937469482,-0.16086261,-0.5420407,-5.3071156,5.545382528831546,nan,nan,nan,nan,nan,17.600297212600708,18.800297212600707,0.0006475448608398438,0.46791253446304737,-0.37557670334083215,5.906287560841105,-5.0,0.7276149793407114,-0.008147879201314896,0.03296737202722389,0.3164163363448055,0.0,0.0,0.0,0.0
27.70447278022766,-0.115894996,-0.5510769,-5.310617,5.576712981530168,nan,nan,nan,nan,nan,17.700419187545776,18.900419187545776,0.0005862712860107422,0.5020152760717532,-0.3286041122545507,5.937741806936137,-5.0,0.727442721044131,-0.013662817645603028,0.027792621056555448,0.31589955072191767,0.0,0.0,0.0,0.0
27.804206132888794,-0.06702778,-0.5518585,-5.312031,5.60798792837428,nan,nan,nan,nan,nan,17.80012345314026,19.000123453140258,0.0006155967712402344,0.531306886315283,-0.2787705015850115,5.969064825768457,-5.0,0.7273375110774244,-0.021218967522926825,0.025509597414818945,0.3155216783516463,0.0,0.0,0.0,0.0
27.90451145172119,-0.013108901,-0.54522616,-5.3071065,5.6418529387452665,nan,nan,nan,nan,nan,17.90042757987976,19.10042757987976,0.0005769729614257812,0.5557982578398551,-0.2260272031906379,6.000576296537413,-5.0,0.7275580748257795,-0.031236273135604335,0.02539863113477446,0.31388435450701374,0.0,0.0,0.0,0.0
28.005138397216797,0.040963907,-0.5342053,-5.3016944,5.675560325385116,nan,nan,nan,nan,nan,18.001058340072632,19.20105834007263,0.0006005764007568359,0.5751227165344964,-0.17097912424030356,6.032190382232121,-5.0,0.728101633621651,-0.038716487371984715,0.02633400452392008,0.3136979106068403,0.0,0.0,0.0,0.0
28.10442328453064,0.08686327,-0.52423614,-5.3017545,5.703834839355595,nan,nan,nan,nan,nan,18.100356340408325,19.300356340408324,0.0005924701690673828,0.5888617480733817,-0.11507320129361633,6.063385769069198,-5.0,0.7281090582488918,-0.041551867892302474,0.02953508511263009,0.3132786751435842,0.0,0.0,0.0,0.0
28.21073031425476,0.1366533,-0.50516176,-5.2967234,5.734689111514137,nan,nan,nan,nan,nan,18.206695079803467,19.406695079803466,0.0006632804870605469,0.5975612406654058,-0.05404223953928022,6.096793069316775,-5.0,0.7283725265397955,-0.04332521847625883,0.0325105857110256,0.3140194996991374,0.0,0.0,0.0,0.0
28.304274320602417,0.1848271,-0.47660622,-5.2913322,5.768388916225761,nan,nan,nan,nan,nan,18.300209283828735,19.500209283828735,0.0005593299865722656,0.5999999877220568,0.00012138176019372575,6.126171422953983,-5.0,0.7287000678552857,-0.045593409346044236,0.032511077468940476,0.3133359743363829,0.0,0.0,0.0,0.0
28.404126405715942,0.22905771,-0.4445706,-5.28386,5.7993839703701,nan,nan,nan,nan,nan,18.400049448013306,19.600049448013305,0.0006124973297119141,0.5971962122090333,0.05793689776975608,6.1575371355875275,-5.0,0.7290317750454863,-0.0467020380676671,0.030744185309099788,0.3133757019898552,0.0,0.0,0.0,0.0
28.50402808189392,0.2771141,-0.40651208,-5.274803,5.832495533690051,nan,nan,nan,nan,nan,18.499905824661255,19.699905824661254,0.0005078315734863281,0.5888325672838022,0.11522242709631886,6.188907941516657,-5.0,0.7295609604140022,-0.04893941717292642,0.03010417974691731,0.31225620721977976,0.0,0.0,0.0,0.0
28.604005813598633,0.31821057,-0.36989734,-5.269548,5.863036116866448,nan,nan,nan,nan,nan,18.59991955757141,19.79991955757141,0.0005269050598144531,0.5749608366685713,0.171522699073261,6.220328182373521,-5.0,0.7297294682575487,-0.048452437409639636,0.030111893380928755,0.3120034922928401,0.0,0.0,0.0,0.0
28.704322338104248,0.36252677,-0.3287588,-5.2670627,5.895731447286879,nan,nan,nan,nan,nan,18.700206518173218,19.900206518173217,0.0005426406860351562,0.5556596107421689,0.22636783559035345,6.251834260241269,-5.0,0.729714823171836,-0.04712404695916445,0.030891015447986645,0.3118462669032327,0.0,0.0,0.0,0.0
28.80400586128235,0.39998975,-0.28933027,-5.271166,5.926097709956478,nan,nan,nan,nan,nan,18.79986572265625,19.99986572265625,0.0005424022674560547,0.5313098031038328,0.27876494242599154,6.283143122707919,-5.0,0.7293873469854555,-0.04465029834881912,0.03148745301403848,0.31177958413947127,0.0,0.0,0.0,0.0
28.904255390167236,0.44000575,-0.24419469,-5.274117,5.958849357679002,nan,nan,nan,nan,nan,18.90013575553894,20.10013575553894,0.0005333423614501953,0.5018389299761432,0.3288733621934127,6.314643882575866,-5.0,0.7289709931379506,-0.041879985286636286,0.031479913481882726,0.3116598564216677,0.0,0.0,0.0,0.0
29.004349946975708,0.47643402,-0.20026526,-5.2743726,5.988932741049437,nan,nan,nan,nan,nan,19.000258684158325,20.200258684158324,0.0005643367767333984,0.4677106491962232,0.37582808387405986,6.346098428276521,-5.0,0.7289359456690517,-0.04008509053237992,0.03339986525102802,0.3125435414296755,0.0,0.0,0.0,0.0
