time,x,y,z,yaw,platform,trajectory,traj_double,traj_short,traj_spin,traj_time,ref_time,comptime,x_ref,y_ref,yaw_ref,z_ref,throttle_input,p_input,q_input,r_input,cbf_term_pitch_cbf,cbf_term_roll_cbf,cbf_term_thrust_cbf,cbf_term_yaw_cbf
10.00730299949646,-0.06786283,0.04337791,-2.6391613,-2.6313246178445064e-05,SIM,TRIANGLE,NormSpd,Not Short,NoSpin,9.5367431640625e-07,1.2000009536743164,0.01008152961730957,0.04800003814697266,0.2632716566779746,0.0,-5.0,0.7717797672396434,0.008000000000000004,-0.0031085145928834946,1.541195901918653e-05,0.0,-2.1415723444694432,0.0,0.0
10.126842260360718,-0.07119669,0.040098533,-2.637553,-0.00047728653428025865,nan,nan,nan,nan,nan,0.11943745613098145,1.3194374561309814,0.00044798851013183594,0.052777498245239265,0.2549968530566438,0.0,-5.0,0.8001815536539248,0.0620430067739566,-0.01066729779140864,0.000755618537045689,0.0,0.0,-68.03537249781257,0.0
10.228430986404419,-0.07071399,0.03829996,-2.6470037,-0.0006551539819684938,nan,nan,nan,nan,nan,0.2212977409362793,1.4212977409362793,0.0006861686706542969,0.056851909637451174,0.24793976551439537,0.0,-5.0,0.8080045709260988,0.06021443050907672,-0.01027845317119427,0.0009475663792298579,0.0,0.0,-39.10809539574011,0.0
10.327170848846436,-0.07071966,0.03889956,-2.6735945,-0.0008323440722708113,nan,nan,nan,nan,nan,0.3198070526123047,1.5198070526123046,0.0003705024719238281,0.060792282104492196,0.2411148402007348,0.0,-5.0,0.8150156903604188,0.042855261076438465,-0.008044205078323709,0.0009629250631814905,0.0,0.0,-5.285515495280528,0.0
10.426861047744751,-0.06960541,0.04193065,-2.7206078,-0.0008190626936620607,nan,nan,nan,nan,nan,0.4195075035095215,1.6195075035095214,0.0003809928894042969,0.06478030014038087,0.23420739034107457,0.0,-5.0,0.8089175562681556,0.023080329829441238,-0.0056737308552853175,0.0009007498110934891,0.0,0.0,0.0,0.0
10.527226209640503,-0.065626584,0.048247132,-2.798204,-0.0005732864611361303,nan,nan,nan,nan,nan,0.5198392868041992,1.7198392868041992,0.0003600120544433594,0.06879357147216797,0.2272562004898597,0.0,-5.0,0.7943157241831116,0.004056195721803292,-0.0024219481968426448,0.0006196048887804867,0.0,0.0,0.0,0.0
10.626839637756348,-0.05932599,0.05714255,-2.8899956,-0.0002323494473837097,nan,nan,nan,nan,nan,0.6194944381713867,1.8194944381713867,0.0003561973571777344,0.07277977752685548,0.22035188907370226,0.0,-5.0,0.779800104571757,-0.012538788493294041,0.0016105546421321887,0.0002527093104755797,0.0,0.0,0.0,0.0
10.727525234222412,-0.04300184,0.069219075,-2.998007,8.978915598281331e-05,nan,nan,nan,nan,nan,0.7203586101531982,1.9203586101531982,0.000453948974609375,0.07681434440612794,0.21336381425226775,0.0,-5.0,0.767225514161112,-0.025807305328475465,0.007988172431308345,-6.298369524080066e-05,0.0,0.0,2.123361146902087,0.0
10.826908588409424,-0.028965004,0.07824296,-3.110209,0.0003289809507135231,nan,nan,nan,nan,nan,0.8195080757141113,2.0195080757141115,0.00034928321838378906,0.08078032302856447,0.20649453777647564,0.0,-5.0,0.7569832620093068,-0.034256014120257514,0.014175052599155068,-0.00023339640183548475,0.0,0.0,2.796979510289706,0.0
10.926791191101074,-0.014776365,0.08887171,-3.2359457,0.019778506956948376,nan,nan,nan,nan,nan,0.9193928241729736,2.119392824172974,0.00034880638122558594,0.08477571296691896,0.19957431940719617,0.0,-5.0,0.7476011209335875,-0.0377647678586015,0.01795939983692437,-0.014827246198774102,0.0,0.0,7.5508976519900965,0.0
11.027250289916992,-0.0031710127,0.0991326,-3.3446834,0.018852018072972872,nan,nan,nan,nan,nan,1.0198585987091064,2.2198585987091066,0.0004119873046875,0.08879434394836427,0.1926138463704625,0.0,-5.0,0.739014885460091,-0.03882423738860642,0.019813133775842734,-0.01608010056215601,0.0,0.0,7.565134792981734,0.0
11.127169132232666,0.00949418,0.11004459,-3.474708,0.015358172683921737,nan,nan,nan,nan,nan,1.1197574138641357,2.319757413864136,0.00034880638122558594,0.09279029655456544,0.1856926534318848,0.0,-5.0,0.7311639950774027,-0.036501649585088565,0.019755899855802426,-0.013715738170752665,0.0,0.0,10.447841940270774,0.0
11.226976156234741,0.024616443,0.12183254,-3.595047,0.010953530488275907,nan,nan,nan,nan,nan,1.2196266651153564,2.4196266651153566,0.0003497600555419922,0.09678506660461428,0.17877350874064576,0.0,-5.0,0.7239914800279352,-0.03348207555301732,0.019465998060367515,-0.010072641881142123,0.0,0.0,9.618223939324395,0.0
11.326726913452148,0.037556548,0.13302839,-3.7256246,0.007996643761057378,nan,nan,nan,nan,nan,1.3193211555480957,2.519321155548096,0.00035262107849121094,0.10077284622192384,0.17186647183407802,0.0,-5.0,0.7174438882278426,-0.0296291518583031,0.018314043116859375,-0.007240941546646386,0.0,0.0,9.466927732130431,0.0
11.427337169647217,0.047774367,0.13974701,-3.8458166,0.004674546290992235,nan,nan,nan,nan,nan,1.4199583530426025,2.6199583530426027,0.00046181678771972656,0.10479833412170413,0.16489412226640485,0.0,-5.0,0.711471194816635,-0.023647972243900393,0.014517384693174165,-0.004722632207801897,0.0,0.0,9.57008939570907,0.0
11.526865243911743,0.059576597,0.1418041,-3.974159,0.0006187833860555694,nan,nan,nan,nan,nan,1.519474983215332,2.719474983215332,0.00035452842712402344,0.1087789993286133,0.15799940788011646,0.0,-5.0,0.7060266962804292,-0.01329522067539634,0.01109447305734155,-0.0015521457527302197,0.0,0.0,8.896518532852392,0.0
11.626912832260132,0.07446505,0.14134873,-4.090161,-0.0033129187470339687,nan,nan,nan,nan,nan,1.6195619106292725,2.8195619106292726,0.0003554821014404297,0.11278247642517092,0.15106518214194034,0.0,-5.0,0.7010668913858918,-0.003239475237921651,0.009556779016238508,0.001956763421910263,0.0,0.0,7.038579159774473,0.0
11.727034568786621,0.0785092,0.14048496,-4.211124,-0.005956626249036686,nan,nan,nan,nan,nan,1.7196781635284424,2.9196781635284426,0.0003592967987060547,0.11678712654113771,0.14412892467454927,0.0,-5.0,0.6965513513184071,0.004417610285959076,0.004876541402548222,0.004424030435812098,0.0,0.0,4.530766554648286,0.0
11.82676362991333,0.08175628,0.13887708,-4.317514,-0.00675153891191809,nan,nan,nan,nan,nan,1.8194591999053955,3.0194591999053957,0.00037026405334472656,0.12077836799621584,0.1372158916890788,0.0,-5.0,0.6924425814561933,0.0102118070023187,-0.002847762320669511,0.00557723774425759,0.0,0.0,1.501161035643943,0.0
11.92690372467041,0.08845714,0.1346451,-4.42522,-0.0058143474034672744,nan,nan,nan,nan,nan,1.9195334911346436,3.1195334911346437,0.0003483295440673828,0.12478133964538576,0.1302825414114587,0.0,-5.0,0.6898807626709891,0.013698879871562054,-0.00784706400044394,0.0052462753094924255,0.0,0.0,0.0,0.0
12.026953935623169,0.096500136,0.12890863,-4.5111227,-0.004846338594907035,nan,nan,nan,nan,nan,2.0195653438568115,3.2195653438568117,0.00034689903259277344,0.12878261375427247,0.12335213135985705,0.0,-5.0,0.6896192373918042,0.01728755990520492,-0.008377546153830106,0.004373800453531537,0.0,0.0,0.0,0.0
12.127070188522339,0.09854144,0.12068631,-4.6058946,-0.004260575399707466,nan,nan,nan,nan,nan,2.119722843170166,3.319722843170166,0.0003566741943359375,0.13278891372680665,0.11641301625706603,0.0,-5.0,0.690138188687996,0.019533458453811877,-0.010340620781789718,0.00378163535606858,0.0,0.0,0.0,0.0
12.226918458938599,0.09785501,0.11961438,-4.670729,-0.004203104472050039,nan,nan,nan,nan,nan,2.2195334434509277,3.419533443450928,0.00034546852111816406,0.13678133773803713,0.1094979350242569,0.0,-5.0,0.6911897923521045,0.018276032877333405,-0.013652279113473206,0.003668395335152611,0.0,0.0,0.0,0.0
12.326887845993042,0.097843826,0.1205553,-4.737071,-0.0043841911974637805,nan,nan,nan,nan,nan,2.319506883621216,3.519506883621216,0.0004858970642089844,0.14078027534484866,0.10257157191296147,0.0,-5.0,0.6924638305703359,0.012637116542882132,-0.0160492514477083,0.003719250796836691,0.0,0.0,0.0,0.0
12.427298784255981,0.09928064,0.12276417,-4.801855,-0.004933860875238158,nan,nan,nan,nan,nan,2.4199018478393555,3.6199018478393556,0.00037789344787597656,0.14479607391357424,0.09561600475896638,0.0,-5.0,0.6939030598748693,0.00489576487042045,-0.015858804016208376,0.004056211224656746,0.0,0.0,0.0,0.0
12.526871919631958,0.10193327,0.1256049,-4.8544316,-0.005777883834115317,nan,nan,nan,nan,nan,2.5194671154022217,3.719467115402222,0.00038242340087890625,0.14877868461608887,0.08871792067544344,0.0,-5.0,0.6960339193744149,-0.0027533480675303985,-0.013611181933905191,0.004659957447639294,0.0,0.0,0.0,0.0
12.627342700958252,0.10818528,0.13168342,-4.900712,-0.006516379250359581,nan,nan,nan,nan,nan,2.620161771774292,3.820161771774292,0.0006864070892333984,0.1528064708709717,0.08174159023995882,0.0,-5.0,0.6980075908990654,-0.010314934622807385,-0.009373572857224339,0.005283175681251213,0.0,0.0,0.0,0.0
12.72677230834961,0.11051147,0.13550422,-4.938587,-0.007115753647185197,nan,nan,nan,nan,nan,2.7193796634674072,3.9193796634674074,0.0003991127014160156,0.15677518653869632,0.07486757306266514,0.0,-5.0,0.7000441542677714,-0.015781509284399097,-0.005483747066019301,0.0058422343393840954,0.0,0.0,0.0,0.0
12.826994895935059,0.11097472,0.13931428,-4.97195,-0.007462913380043141,nan,nan,nan,nan,nan,2.819593667984009,4.019593667984009,0.00034928321838378906,0.16078374671936038,0.06792454316455751,0.0,-5.0,0.7021825382041718,-0.018213784324379888,-0.0038799242469174907,0.0061543841679699875,0.0,0.0,0.0,0.0
12.927048683166504,0.1096969,0.14285879,-4.995196,-0.007699636534704151,nan,nan,nan,nan,nan,2.9197046756744385,4.119704675674439,0.0003464221954345703,0.16478818702697756,0.06098864909588781,0.0,-5.0,0.7044757805291718,-0.018880701206694824,-0.0039940938829600234,0.006391263181702104,0.0,0.0,0.0,0.0
13.026839017868042,0.10633373,0.14551975,-5.013753,-0.00793383963577017,nan,nan,nan,nan,nan,3.019437313079834,4.219437313079834,0.0003955364227294922,0.1687774925231934,0.05407896928952822,0.0,-5.0,0.7071010684789739,-0.017484750973290643,-0.005717440800278699,0.006591293078146407,0.0,0.0,0.0,0.0
13.127005100250244,0.10817475,0.14518405,-5.0199375,-0.008272538658562657,nan,nan,nan,nan,nan,3.119615077972412,4.319615077972412,0.00043582916259765625,0.1727846031188965,0.04713845014622284,0.0,-5.0,0.709589946558909,-0.014213461630340271,-0.005618427333156555,0.006836025292072371,0.0,0.0,0.0,0.0
13.227001190185547,0.10905323,0.14703712,-5.0247965,-0.008474317620190007,nan,nan,nan,nan,nan,3.219613790512085,4.419613790512085,0.0003504753112792969,0.17678455162048343,0.0402103361138153,0.0,-5.0,0.7121026341334113,-0.01071939336791639,-0.00428815620993002,0.0070429021052043645,0.0,0.0,0.0,0.0
13.327369928359985,0.11010541,0.14832355,-5.025203,-0.008549453317944392,nan,nan,nan,nan,nan,3.3199663162231445,4.519966316223145,0.0003674030303955078,0.1807986526489258,0.033257709185838584,0.0,-5.0,0.7143942044283182,-0.008958465524915502,-0.0035508512646700036,0.007171537942425538,0.0,0.0,0.0,0.0
13.427313566207886,0.112790145,0.14659902,-5.0237155,-0.008636926906956832,nan,nan,nan,nan,nan,3.419975757598877,4.619975757598877,0.0003559589385986328,0.18479903030395511,0.0263288518378646,0.0,-5.0,0.7166343359932688,-0.006253002588364313,-0.0022143786684639256,0.007289313187982023,0.0,0.0,0.0,0.0
13.527040004730225,0.1172665,0.14068815,-5.0212564,-0.008379817381299387,nan,nan,nan,nan,nan,3.51971697807312,4.71971697807312,0.0003578662872314453,0.18878867912292485,0.019418577379051866,0.0,-5.0,0.7187103403547801,-0.0007603483913433313,-0.00014533410501114773,0.007152803091082904,0.0,0.0,0.0,0.0
13.627011775970459,0.12180083,0.13066462,-5.0146565,-0.007994401911729067,nan,nan,nan,nan,nan,3.6196064949035645,4.819606494903565,0.0005104541778564453,0.1927842597961426,0.01249802864729843,0.0,-5.0,0.720504701979742,0.005464224628929971,0.001708073351186851,0.006892086700068972,0.0,0.0,0.0,0.0
13.727165460586548,0.12392317,0.11713982,-5.016248,-0.007807184494665614,nan,nan,nan,nan,nan,3.7197721004486084,4.919772100448609,0.0003502368927001953,0.19679088401794437,0.0055583519283016695,0.0,-5.0,0.7218424977835898,0.01221145541556263,0.002467457690386265,0.006613833055129995,0.0,0.0,0.0,0.0
13.82709813117981,0.1259667,0.10157592,-5.0224404,-0.008083239952046283,nan,nan,nan,nan,nan,3.8197224140167236,5.019722414016724,0.0003535747528076172,0.20078889656066898,-0.0013664089249949844,0.0,-5.0,0.7224000122088632,0.01763853680463959,0.0016583371857465754,0.00671200216991245,0.0,0.0,0.0,0.0
13.926740169525146,0.1286204,0.082851075,-5.0300703,-0.00834544216384501,nan,nan,nan,nan,nan,3.919351577758789,5.119351577758789,0.00035309791564941406,0.2047740631103516,-0.008268919865669239,0.0,-5.0,0.7226720739959112,0.02306967910435877,0.0009470995979677049,0.006983643712708039,0.0,0.0,0.0,0.0
14.026868343353271,0.13014744,0.059249178,-5.037393,-0.008164183702701385,nan,nan,nan,nan,nan,4.019564151763916,5.219564151763916,0.00046372413635253906,0.20878256607055667,-0.015211850655034711,0.0,-5.0,0.722938845636682,0.027337404439096567,-1.3879688564248005e-05,0.007001438327409334,0.0,0.0,0.0,0.0
14.127246141433716,0.13313249,0.0437804,-5.0389457,-0.008043714545136738,nan,nan,nan,nan,nan,4.119849681854248,5.319849681854248,0.00034809112548828125,0.21279398727416995,-0.022159835990251984,0.0,-5.0,0.7233343535280813,0.027896638616190163,-4.5632746449567765e-05,0.0068363078748645,0.0,0.0,0.0,0.0
14.227001428604126,0.13642228,0.02421007,-5.040077,-0.007296788261200973,nan,nan,nan,nan,nan,4.219667911529541,5.419667911529541,0.0003533363342285156,0.21678671646118164,-0.029075445803019427,0.0,-5.0,0.7237691388886343,0.025643596287061952,0.00032047728338013614,0.006476002052586599,0.0,0.0,0.0,0.0
14.326961040496826,0.14110358,0.008965221,-5.0384264,-0.0063913426883366875,nan,nan,nan,nan,nan,4.319572687149048,5.519572687149048,0.0003478527069091797,0.22078290748596194,-0.035997051694689614,0.0,-5.0,0.7243576683415907,0.022017277683929987,0.0003890773499162758,0.005682639944885642,0.0,0.0,0.0,0.0
14.427520751953125,0.14984262,-0.0068221544,-5.034977,-0.004910043731294288,nan,nan,nan,nan,nan,4.420342683792114,5.620342683792114,0.0003509521484375,0.2248137073516846,-0.042978601857263064,0.0,-5.0,0.725096502638985,0.017291901042919618,0.0029730666720257843,0.004463974348283811,0.0,0.0,0.0,0.0
14.527158260345459,0.16756113,-0.02711801,-5.0294356,-0.003074781588269201,nan,nan,nan,nan,nan,4.519763231277466,5.719763231277466,0.00036978721618652344,0.22879052925109866,-0.04986665943970079,0.0,-5.0,0.7258062737267927,0.01361744011454827,0.008573170998429566,0.0029297394598955277,0.0,0.0,0.0,0.0
14.627050161361694,0.18939346,-0.04213741,-5.022497,-0.001273379103482272,nan,nan,nan,nan,nan,4.619702577590942,5.819702577590943,0.0003631114959716797,0.23278810310363773,-0.05679066045930732,0.0,-5.0,0.7264647647138923,0.009954971362042351,0.015567883185322758,0.0012727684416496362,0.0,0.0,0.0,0.0
14.727190971374512,0.21543147,-0.055972297,-5.0137587,0.0005016072428258283,nan,nan,nan,nan,nan,4.719847202301025,5.919847202301026,0.00036215782165527344,0.23679388809204105,-0.0637288835834186,0.0,-5.0,0.7271543118422862,0.005217988920048602,0.022988422802514365,-0.00034675986243328183,0.0,0.0,0.0,0.0
14.82679009437561,0.23976041,-0.067998566,-5.0035486,0.0019042178196887654,nan,nan,nan,nan,nan,4.819393873214722,6.019393873214722,0.00039076805114746094,0.2407757549285889,-0.07062567925329304,0.0,-5.0,0.727796661162057,0.0009884992678303255,0.028072450717134833,-0.0016323274520700143,0.0,0.0,0.0,0.0
14.926995277404785,0.25843126,-0.07781924,-4.9917903,0.002868974775554544,nan,nan,nan,nan,nan,4.919618129730225,6.119618129730225,0.0004572868347167969,0.24478472518920902,-0.07756941943071974,0.0,-5.0,0.7286324294570103,-0.0032730256079670918,0.02881995391092263,-0.002538976425011111,0.0,0.0,0.0,0.0
15.028263330459595,0.27316684,-0.08914985,-4.978835,0.0031448976045527783,nan,nan,nan,nan,nan,5.0210816860198975,6.221081686019898,0.0007014274597167969,0.24884326744079593,-0.08459902081513325,0.0,-5.0,0.7293682516582058,-0.004623932857101365,0.025382274106404302,-0.0029053071460796317,0.0,0.0,0.0,0.0
15.127021789550781,0.29431936,-0.096263684,-4.962797,0.003543130856364862,nan,nan,nan,nan,nan,5.119696855545044,6.319696855545044,0.00041103363037109375,0.2527878742218018,-0.09143128017571614,0.0,-5.0,0.7300254367380519,-0.006322020880507895,0.021656613239150788,-0.0031281775094438935,0.0,0.0,0.0,0.0
15.22701096534729,0.31259492,-0.10237206,-4.947653,0.0037425339633004075,nan,nan,nan,nan,nan,5.21962833404541,6.41962833404541,0.0003542900085449219,0.25678513336181646,-0.09835473609724056,0.0,-5.0,0.7305925892435832,-0.008572203651970298,0.0187784384087083,-0.0032324210287728904,0.0,0.0,0.0,0.0
15.32684588432312,0.3235688,-0.10820236,-4.93659,0.0038775161035628147,nan,nan,nan,nan,nan,5.319478273391724,6.519478273391724,0.0003705024719238281,0.260779130935669,-0.10527254282046,0.0,-5.0,0.7310335099679619,-0.009770486475842331,0.013315281979386426,-0.0033269181296834358,0.0,0.0,0.0,0.0
15.427033185958862,0.3306178,-0.11582361,-4.927056,0.003945591922844261,nan,nan,nan,nan,nan,5.419673442840576,6.619673442840576,0.0003845691680908203,0.2647869377136231,-0.11221426778679541,0.0,-5.0,0.731262171812537,-0.00876243148668704,0.0056265116470908495,-0.003356169122958445,0.0,0.0,0.0,0.0
15.5270836353302,0.33507434,-0.11483557,-4.9209886,0.003090076049057746,nan,nan,nan,nan,nan,5.51973032951355,6.71973032951355,0.00035953521728515625,0.268789213180542,-0.11914641224138546,0.0,-5.0,0.7311540083442056,-0.011740119945329815,-0.0021342609108766877,-0.0028966315370054286,0.0,0.0,0.0,0.0
15.627087116241455,0.3338606,-0.11336676,-4.9137244,0.0020342322775409225,nan,nan,nan,nan,nan,5.619753837585449,6.819753837585449,0.0003654956817626953,0.272790153503418,-0.12607624415865767,0.0,-5.0,0.730997440054507,-0.01583206991136391,-0.009642899338772496,-0.002018424323430513,0.0,0.0,0.0,0.0
15.72706913948059,0.33296597,-0.11457989,-4.901861,0.0010585853855462264,nan,nan,nan,nan,nan,5.719730615615845,6.919730615615845,0.0003845691680908203,0.27678922462463385,-0.13300283852368494,0.0,-5.0,0.7311299505106964,-0.017035701312976374,-0.016386260360976575,-0.0011686772043742204,0.0,0.0,0.0,0.0
15.82703709602356,0.33431178,-0.1182373,-4.8906837,0.0007357764463694198,nan,nan,nan,nan,nan,5.819638252258301,7.019638252258301,0.0004968643188476562,0.2807855300903321,-0.1399246426328395,0.0,-5.0,0.7315293796451408,-0.013951616747909672,-0.019044934656671335,-0.0007025641595643432,0.0,0.0,0.0,0.0
15.92768907546997,0.33645803,-0.122483,-4.8814588,0.0015632281831807298,nan,nan,nan,nan,nan,5.920562744140625,7.120562744140625,0.00038909912109375,0.28482250976562506,-0.14691689653956985,0.0,-5.0,0.7317460838748535,-0.009761316551116098,-0.019698099742110863,-0.0011051001367076158,0.0,0.0,0.0,0.0
16.027092933654785,0.33849528,-0.12176749,-4.8662047,0.0020238706283843373,nan,nan,nan,nan,nan,6.0197319984436035,7.219731998443604,0.0003848075866699219,0.28878927993774417,-0.15378754401962888,0.0,-5.0,0.7321304947981828,-0.006922441942945631,-0.018916915099990845,-0.0016443031746196208,0.0,0.0,0.0,0.0
16.126768350601196,0.3340058,-0.12396052,-4.8523335,0.0018674061892577243,nan,nan,nan,nan,nan,6.119410514831543,7.319410514831543,0.00034427642822265625,0.29277642059326175,-0.16069347421190885,0.0,-5.0,0.7324601336105284,-0.005118163292906347,-0.018776332062444917,-0.0017274625335011056,0.0,0.0,0.0,0.0
16.22685694694519,0.33011785,-0.12611617,-4.842969,0.0014317859824097235,nan,nan,nan,nan,nan,6.2194788455963135,7.419478845596314,0.00039458274841308594,0.2967791538238526,-0.16762641153643648,0.0,-5.0,0.7325795087242984,-0.004099223897730883,-0.01987682713690284,-0.0013652961397777638,0.0,0.0,0.0,0.0
16.32678246498108,0.32805204,-0.1286905,-4.836802,0.0007312210797958138,nan,nan,nan,nan,nan,6.319388151168823,7.519388151168823,0.00036525726318359375,0.300775526046753,-0.17454833127245695,0.0,-5.0,0.7325399189036067,-0.0035380094576745917,-0.01791506734943381,-0.0008564004259599773,0.0,0.0,0.0,0.0
16.427496910095215,0.32510298,-0.13245875,-4.8441124,0.0002982133515167738,nan,nan,nan,nan,nan,6.420099496841431,7.620099496841431,0.0003573894500732422,0.30480397987365726,-0.18152581797660045,0.0,-5.0,0.7315562909105825,-0.00204184244894767,-0.015144210218944538,-0.00037388398263142695,0.0,0.0,0.0,0.0
16.527140140533447,0.3173258,-0.13737664,-4.8525267,-9.011184110198104e-05,nan,nan,nan,nan,nan,6.519814491271973,7.719814491271973,0.0004909038543701172,0.308792579650879,-0.1884342754418063,0.0,-5.0,0.7305751915008638,-0.0008984498740614841,-0.013911313285669847,-4.1655094977268184e-05,0.0,0.0,0.0,0.0
16.62706995010376,0.31481588,-0.13962603,-4.858108,-0.0006223881544164492,nan,nan,nan,nan,nan,6.619692087173462,7.819692087173462,0.0004432201385498047,0.31278768348693853,-0.19535399826737476,0.0,-5.0,0.7296935177602569,-0.0004920577683699588,-0.01278177561578524,0.0002893710675921423,0.0,0.0,0.0,0.0
16.727169036865234,0.31554016,-0.1399589,-4.86491,-0.0016168233888967359,nan,nan,nan,nan,nan,6.719800233840942,7.919800233840943,0.0006206035614013672,0.31679200935363777,-0.20228969411856015,0.0,-5.0,0.7290170069131564,-0.0013918494985504825,-0.008735755786531796,0.001027071306810335,0.0,0.0,0.0,0.0
16.826934337615967,0.31900457,-0.13833801,-4.8741293,-0.0031948561539053423,nan,nan,nan,nan,nan,6.819556474685669,8.019556474685668,0.00035834312438964844,0.32078225898742674,-0.20920100921916582,0.0,-5.0,0.728337500937948,-0.004664398584258902,-0.00258973962895934,0.0022909135329754757,0.0,0.0,0.0,0.0
16.927054405212402,0.32330325,-0.13967428,-4.8798633,-0.004042451668609359,nan,nan,nan,nan,nan,6.9197118282318115,8.11971182823181,0.0003807544708251953,0.3247884731292725,-0.21613997565884355,0.0,-5.0,0.727860834879754,-0.00576228471231972,0.003102974062508959,0.0032196678718734804,0.0,0.0,0.0,0.0
17.02704668045044,0.32678983,-0.14273624,-4.8835135,-0.004805241391391051,nan,nan,nan,nan,nan,7.019668102264404,8.219668102264404,0.0005331039428710938,0.3287867240905762,-0.22306514946523262,0.0,-5.0,0.7275600923470149,-0.00516967877377989,0.007041606353904524,0.0038887507840283447,0.0,0.0,0.0,0.0
17.12686038017273,0.33017915,-0.15012325,-4.889094,-0.004950522748214236,nan,nan,nan,nan,nan,7.119506120681763,8.319506120681762,0.0006594657897949219,0.33278024482727053,-0.22998213028226713,0.0,-5.0,0.7272515400042895,-0.0028321389604443825,0.00929663520487367,0.004240469467835596,0.0,0.0,0.0,0.0
17.227052688598633,0.3357633,-0.16212599,-4.8961124,-0.004472348012827986,nan,nan,nan,nan,nan,7.219744443893433,8.419744443893432,0.0003600120544433594,0.3367897777557373,-0.23692684502899206,0.0,-5.0,0.7268138772437198,0.002741026782982707,0.010205348865052456,0.003931296695709588,0.0,0.0,0.0,0.0
17.327297687530518,0.3437147,-0.17509767,-4.901073,-0.0037166591183066203,nan,nan,nan,nan,nan,7.319916009902954,8.519916009902953,0.000392913818359375,0.3407966403961182,-0.24386693470108128,0.0,-5.0,0.7266620774460282,0.009125346526380975,0.012003566924454818,0.00331655223576474,0.0,0.0,0.0,0.0
17.426885843276978,0.35166395,-0.185187,-4.902748,-0.0031486614215311117,nan,nan,nan,nan,nan,7.419753313064575,8.619753313064574,0.0003643035888671875,0.34479013252258306,-0.2507838659637447,0.0,-5.0,0.7267535775708784,0.012954210105441174,0.013195884048853836,0.002704647272116339,0.0,0.0,0.0,0.0
17.527095079421997,0.35121617,-0.19314103,-4.895201,-0.00276483062678203,nan,nan,nan,nan,nan,7.519757986068726,8.719757986068725,0.0004062652587890625,0.3487903194427491,-0.25771239294924475,0.0,-5.0,0.7271900178188747,0.013811178984414987,0.010467453409253395,0.002345332658173014,0.0,0.0,0.0,0.0
17.6271231174469,0.35044643,-0.2004604,-4.885791,-0.002415740874300492,nan,nan,nan,nan,nan,7.619731187820435,8.819731187820434,0.00037026405334472656,0.35278924751281737,-0.26463873954241646,0.0,-5.0,0.7278728391651376,0.012233846116878099,0.004481556189239426,0.002079152737868805,0.0,0.0,0.0,0.0
17.727196216583252,0.35062996,-0.20485562,-4.878768,-0.0022777716048174163,nan,nan,nan,nan,nan,7.719846248626709,8.919846248626708,0.0004336833953857422,0.35679384994506835,-0.271574914419189,0.0,-5.0,0.7284707050233503,0.008216707369008414,0.0002973936015615326,0.001943634764173645,0.0,0.0,0.0,0.0
17.827021598815918,0.35059965,-0.20836855,-4.877203,-0.0022634256378867915,nan,nan,nan,nan,nan,7.819711208343506,9.019711208343505,0.00035572052001953125,0.36078844833374024,-0.27849376178420154,0.0,-5.0,0.7286826389061992,0.0032719108335027376,-0.0029363347683476087,0.0019369205130063591,0.0,0.0,0.0,0.0
17.926926374435425,0.3615322,-0.2112537,-4.8789506,-0.002178823897143199,nan,nan,nan,nan,nan,7.919602394104004,9.119602394104003,0.0003509521484375,0.36478409576416015,-0.28541442614282087,0.0,-5.0,0.7285467281606149,-0.0010641454830389518,-0.0016974904490379883,0.0018764223762268459,0.0,0.0,0.0,0.0
18.02701425552368,0.37366027,-0.21186678,-4.886,-0.002215108504362312,nan,nan,nan,nan,nan,8.019639015197754,9.219639015197753,0.00037097930908203125,0.3687855606079102,-0.2923451665568965,0.0,-5.0,0.7281248520520728,-0.005326374982878354,0.002280942073261196,0.0018573210579000419,0.0,0.0,0.0,0.0
18.126867055892944,0.38454145,-0.21344833,-4.891362,-0.002260937930574273,nan,nan,nan,nan,nan,8.119469404220581,9.31946940422058,0.00037598609924316406,0.37277877616882327,-0.2992616187939726,0.0,-5.0,0.727589245040703,-0.009154894926041154,0.0060097068086329445,0.0018906187988463159,0.0,0.0,0.0,0.0
18.227126836776733,0.3962711,-0.21741815,-4.8941927,-0.002446314386358357,nan,nan,nan,nan,nan,8.219779968261719,9.419779968261718,0.0003809928894042969,0.3767911987304688,-0.30621133853217836,0.0,-5.0,0.7273709418411933,-0.009508558060904681,0.009169592260589065,0.0020341279847451606,0.0,0.0,0.0,0.0
18.326860189437866,0.40700328,-0.22323917,-4.893629,-0.0025922556438086612,nan,nan,nan,nan,nan,8.319472551345825,9.519472551345824,0.0003619194030761719,0.380778902053833,-0.3131182432937564,0.0,-5.0,0.7276100624653147,-0.0068480508783434245,0.011355592167361862,0.0021563120325266984,0.0,0.0,0.0,0.0
18.426812648773193,0.4072432,-0.22258155,-4.8945293,-0.0025915811397720524,nan,nan,nan,nan,nan,8.419425964355469,9.619425964355468,0.0006532669067382812,0.38477703857421874,-0.3200432188826612,0.0,-5.0,0.7277135771757454,-0.007352145765354677,0.008687531486067126,0.0022268621171465646,0.0,0.0,0.0,0.0
18.527408123016357,0.4119425,-0.22446167,-4.8984904,-0.0025186504945782125,nan,nan,nan,nan,nan,8.519999027252197,9.719999027252197,0.0004355907440185547,0.3887999610900879,-0.3270111250750594,0.0,-5.0,0.727544045729092,-0.007525129092017548,0.005058108120828015,0.0021565711984537694,0.0,0.0,0.0,0.0
18.627108573913574,0.41454005,-0.22888373,-4.9063187,-0.0022949108931403467,nan,nan,nan,nan,nan,8.619745254516602,9.8197452545166,0.00035572052001953125,0.39278981018066406,-0.33392174641446976,0.0,-5.0,0.7272413557947881,-0.006110419097439506,0.0034036734262115355,0.0020371029088070026,0.0,0.0,0.0,0.0
18.727277994155884,0.41216162,-0.23329686,-4.913677,-0.002098533180026255,nan,nan,nan,nan,nan,8.719982147216797,9.919982147216796,0.0003898143768310547,0.3967992858886719,-0.3408663620524525,0.0,-5.0,0.7269016018236325,-0.0036581333592064264,-0.0013532317231048723,0.0018178611919211845,0.0,0.0,0.0,0.0
18.827223539352417,0.40880623,-0.2386775,-4.9223113,-0.001965492842337772,nan,nan,nan,nan,nan,8.819844961166382,10.019844961166381,0.0004439353942871094,0.3984124031066895,-0.3464101615137755,0.0,-5.0,0.7265681124070604,-0.000678148325926759,-0.005158457694311187,0.0016920145158403252,0.0,0.0,0.0,0.0
18.92696976661682,0.40274197,-0.24352437,-4.919873,-0.0018724066898900514,nan,nan,nan,nan,nan,8.919583797454834,10.119583797454833,0.0003628730773925781,0.39043329620361333,-0.3464101615137755,0.0,-5.0,0.7267347144530149,0.0028577983707433075,-0.0054620544349338,0.001603914745154553,0.0,0.0,0.0,0.0
19.027092695236206,0.39893106,-0.24990258,-4.9156337,-0.0017795078507610571,nan,nan,nan,nan,nan,9.019809484481812,10.21980948448181,0.00042319297790527344,0.38241524124145515,-0.3464101615137755,0.0,-5.0,0.7272048820332401,0.005676598425527482,-0.005098916026444567,0.0015477720462329244,0.0,0.0,0.0,0.0
19.1273934841156,0.3949729,-0.25835007,-4.910657,-0.0015540009752347517,nan,nan,nan,nan,nan,9.120094060897827,10.320094060897826,0.00040078163146972656,0.3743924751281739,-0.3464101615137755,0.0,-5.0,0.7276333998364448,0.0079649737608094,-0.0037760567236155276,0.001391226697732246,0.0,0.0,0.0,0.0
19.227015018463135,0.3912684,-0.2668011,-4.9060564,-0.0013628107048997693,nan,nan,nan,nan,nan,9.219704866409302,10.419704866409301,0.0004444122314453125,0.36642361068725593,-0.3464101615137755,0.0,-5.0,0.7281025257227045,0.010106490351337484,-0.0024740658302878455,0.0012158678116543887,0.0,0.0,0.0,0.0
19.32709574699402,0.39376026,-0.27533558,-4.901153,-0.0012661957757020728,nan,nan,nan,nan,nan,9.319751501083374,10.519751501083373,0.00037598609924316406,0.35841987991333013,-0.3464101615137755,0.0,-5.0,0.7285001525997287,0.010712937181821888,0.0012773324198008208,0.001077237823452146,0.0,0.0,0.0,0.0
19.427159070968628,0.4016166,-0.28956667,-4.9032416,-0.001265106869533214,nan,nan,nan,nan,nan,9.419798135757446,10.619798135757446,0.0003809928894042969,0.3504161491394044,-0.3464101615137755,0.0,-5.0,0.7284500151472062,0.012820682096738307,0.007615869470292202,0.0009834284628228445,0.0,0.0,0.0,0.0
19.527021884918213,0.41000867,-0.30454063,-4.90053,-0.0012286070506283106,nan,nan,nan,nan,nan,9.519701719284058,10.719701719284057,0.00035381317138671875,0.34242386245727546,-0.3464101615137755,0.0,-5.0,0.7283769058260389,0.015461413404173067,0.013966891297158505,0.0008633460486116498,0.0,0.0,0.0,0.0
19.62726092338562,0.41694185,-0.31790328,-4.893241,-0.0011601648925390843,nan,nan,nan,nan,nan,9.61989426612854,10.81989426612854,0.00040841102600097656,0.33440845870971686,-0.3464101615137755,0.0,-5.0,0.7286613505685958,0.016373436575358665,0.018411982288698486,0.0007154340268436836,0.0,0.0,0.0,0.0
19.72713041305542,0.4223038,-0.331344,-4.8823624,-0.0010409679796910373,nan,nan,nan,nan,nan,9.719821453094482,10.919821453094482,0.0004031658172607422,0.32641428375244147,-0.3464101615137755,0.0,-5.0,0.7294133591878369,0.016242558745910414,0.019653014401898844,0.0005663582419520084,0.0,0.0,0.0,0.0
19.827621936798096,0.4233077,-0.34642214,-4.874596,-0.000886629821774179,nan,nan,nan,nan,nan,9.820287942886353,11.020287942886352,0.0004031658172607422,0.31837696456909187,-0.3464101615137755,0.0,-5.0,0.7298442476952346,0.01622607143381511,0.017167655628418495,0.0004614394643420699,0.0,0.0,0.0,0.0
19.927237033843994,0.4187469,-0.36448455,-4.864502,-0.0006055229909742712,nan,nan,nan,nan,nan,9.919963598251343,11.119963598251342,0.00045228004455566406,0.31040291213989263,-0.3464101615137755,0.0,-5.0,0.7302086763518543,0.017527225656978132,0.011899824855784506,0.00032432704085755813,0.0,0.0,0.0,0.0
20.02717638015747,0.40767622,-0.3844647,-4.850449,-0.00023944316876347693,nan,nan,nan,nan,nan,10.019874095916748,11.219874095916747,0.0004076957702636719,0.30241007232666023,-0.3464101615137755,0.0,-5.0,0.7307332879457901,0.019393226508517377,0.0034402248026067722,0.00022466128622670555,0.0,0.0,0.0,0.0
20.127509832382202,0.3943979,-0.40099475,-4.8381453,0.00021377880567384055,nan,nan,nan,nan,nan,10.120144128799438,11.320144128799438,0.00046515464782714844,0.294388469696045,-0.3464101615137755,0.0,-5.0,0.7312296899704169,0.019524850195975916,-0.006434657278261562,9.894836950598889e-05,0.0,0.0,0.0,0.0
20.22726011276245,0.38364622,-0.41086712,-4.832093,0.00034271766358444193,nan,nan,nan,nan,nan,10.219949960708618,11.419949960708617,0.00044417381286621094,0.2864040031433106,-0.3464101615137755,0.0,-5.0,0.731474369464867,0.014818587790726184,-0.012634101684032572,4.265832848187945e-05,0.0,0.0,0.0,0.0
20.327151775360107,0.37027064,-0.41632485,-4.82385,0.0005539881823804615,nan,nan,nan,nan,nan,10.319844961166382,11.519844961166381,0.0003876686096191406,0.2784124031066895,-0.3464101615137755,0.0,-5.0,0.7315556737847345,0.007195342591347127,-0.016639155373737727,-4.525541440643539e-05,0.0,0.0,0.0,0.0
20.427154779434204,0.36011043,-0.4184544,-4.820758,0.000898109369723182,nan,nan,nan,nan,nan,10.41984248161316,11.619842481613158,0.0003619194030761719,0.2704126014709473,-0.3464101615137755,0.0,-5.0,0.7314020193019443,-0.001505542819241398,-0.018443222146170613,-0.00032284650211019577,0.0,0.0,0.0,0.0
20.527385711669922,0.34844854,-0.4201745,-4.8214264,0.001212125687867242,nan,nan,nan,nan,nan,10.520116567611694,11.720116567611694,0.00040721893310546875,0.2623906745910645,-0.3464101615137755,0.0,-5.0,0.7310050247955463,-0.00856017032363259,-0.01816502026419996,-0.0006884914104462777,0.0,0.0,0.0,0.0
20.626966953277588,0.3392602,-0.42053923,-4.823068,0.0012956928853928538,nan,nan,nan,nan,nan,10.619756937026978,11.819756937026977,0.0004200935363769531,0.25441944503784186,-0.3464101615137755,0.0,-5.0,0.7305201946183024,-0.01319794212710574,-0.016635141722969767,-0.0008919308744039676,0.0,0.0,0.0,0.0
20.72798776626587,0.33236438,-0.41747937,-4.817803,0.0014290199365402352,nan,nan,nan,nan,nan,10.72065258026123,11.92065258026123,0.00036215782165527344,0.24634779357910164,-0.3464101615137755,0.0,-5.0,0.7305505152746292,-0.017078289788763315,-0.011943046947967231,-0.0011193809937401378,0.0,0.0,0.0,0.0
20.82716989517212,0.32011572,-0.41479808,-4.8143206,0.0018679921673572927,nan,nan,nan,nan,nan,10.81995940208435,12.01995940208435,0.0003981590270996094,0.238403247833252,-0.3464101615137755,0.0,-5.0,0.7305844544853592,-0.01908851002058193,-0.0093651813909353,-0.0014266487457060765,0.0,0.0,0.0,0.0
20.92717409133911,0.30643,-0.41148934,-4.8128915,0.0030185662310722797,nan,nan,nan,nan,nan,10.919874668121338,12.119874668121337,0.00040030479431152344,0.23041002655029302,-0.3464101615137755,0.0,-5.0,0.7304311243995483,-0.019877200334372003,-0.00866796322975818,-0.002184865539366384,0.0,0.0,0.0,0.0
21.02742886543274,0.2923624,-0.40375236,-4.810254,0.0038444789700123926,nan,nan,nan,nan,nan,11.020470380783081,12.22047038078308,0.0004279613494873047,0.22236236953735355,-0.3464101615137755,0.0,-5.0,0.7302601846940374,-0.020479093879417272,-0.008318102199251408,-0.0032103875729622864,0.0,0.0,0.0,0.0
21.12726092338562,0.28030518,-0.39328292,-4.808332,0.003294732438178039,nan,nan,nan,nan,nan,11.120082378387451,12.32008237838745,0.0008363723754882812,0.21439340972900398,-0.3464101615137755,0.0,-5.0,0.7302504536921117,-0.022456553102669367,-0.006562758476784669,-0.0030103733068712404,0.0,0.0,0.0,0.0
21.227147340774536,0.2660742,-0.38205752,-4.808332,0.0018415861644118358,nan,nan,nan,nan,nan,11.220239162445068,12.420239162445068,0.0007801055908203125,0.2063808670043946,-0.3464101615137755,0.0,-5.0,0.7301414057580674,-0.022497344813054192,-0.004852604990806944,-0.001971319854432459,0.0,0.0,0.0,0.0
21.32714080810547,0.25076863,-0.37012315,-4.800761,0.0006518369231049176,nan,nan,nan,nan,nan,11.31988525390625,12.51988525390625,0.00040984153747558594,0.19840917968750005,-0.3464101615137755,0.0,-5.0,0.7303103499871002,-0.02152545433505545,-0.003990056015632593,-0.0008753935445639832,0.0,0.0,0.0,0.0
21.427172899246216,0.2357773,-0.36240295,-4.7930617,-0.00011813977796220135,nan,nan,nan,nan,nan,11.419923782348633,12.619923782348632,0.0004589557647705078,0.19040609741210945,-0.3464101615137755,0.0,-5.0,0.7305872349976908,-0.01797125128361707,-0.003634655122997118,-9.607554814481212e-05,0.0,0.0,0.0,0.0
21.528267860412598,0.22576094,-0.35834464,-4.7894425,-0.00032008394121543787,nan,nan,nan,nan,nan,11.521012544631958,12.721012544631957,0.0004954338073730469,0.18231899642944344,-0.3464101615137755,0.0,-5.0,0.730695307767054,-0.011339237846796317,-0.0023889492255517652,0.0002388309660171222,0.0,0.0,0.0,0.0
21.627389430999756,0.21878648,-0.35552502,-4.788827,-0.00015121729050414433,nan,nan,nan,nan,nan,11.620229005813599,12.820229005813598,0.00040221214294433594,0.17438167953491215,-0.3464101615137755,0.0,-5.0,0.7305901072570965,-0.004118661030549943,0.0008467268984631324,0.00019825246836234885,0.0,0.0,0.0,0.0
21.72720503807068,0.21337418,-0.35280633,-4.786781,0.00026838193504308706,nan,nan,nan,nan,nan,11.71982717514038,12.91982717514038,0.00047016143798828125,0.16641382598876958,-0.3464101615137755,0.0,-5.0,0.7306274302148587,0.0015429632402562342,0.004147616413217934,-0.00011164144308819942,0.0,0.0,0.0,0.0
21.827691793441772,0.21282282,-0.34641388,-4.782313,0.00047112810318133036,nan,nan,nan,nan,nan,11.82056188583374,13.02056188583374,0.00048279762268066406,0.15835504913330084,-0.3464101615137755,0.0,-5.0,0.7306789171314702,0.003994956936361154,0.008244919670588985,-0.00035144075702276534,0.0,0.0,0.0,0.0
21.927072048187256,0.2117365,-0.33830875,-4.783401,0.0005833117733926537,nan,nan,nan,nan,nan,11.91981816291809,13.11981816291809,0.00037217140197753906,0.15041454696655276,-0.3464101615137755,0.0,-5.0,0.7304880889010331,0.003554682287495556,0.012329059125483332,-0.00043106267915009886,0.0,0.0,0.0,0.0
22.026923418045044,0.2119547,-0.32860038,-4.7848682,0.0006887707139829351,nan,nan,nan,nan,nan,12.01957654953003,13.219576549530029,0.00037550926208496094,0.1424338760375977,-0.3464101615137755,0.0,-5.0,0.7301232991268156,0.0008480444581681625,0.015237771227598455,-0.0005767515141018049,0.0,0.0,0.0,0.0
22.12699818611145,0.21514024,-0.319506,-4.785557,0.00032414270818353626,nan,nan,nan,nan,nan,12.119720697402954,13.319720697402953,0.0007967948913574219,0.13442234420776372,-0.3464101615137755,0.0,-5.0,0.7300453121685971,-0.002195506437337097,0.01832258285069512,-0.00030861670700757163,0.0,0.0,0.0,0.0
22.226835012435913,0.22013429,-0.31212923,-4.788742,2.1349213485342402e-05,nan,nan,nan,nan,nan,12.21947193145752,13.419471931457519,0.001026153564453125,0.1264422454833985,-0.3464101615137755,0.0,-5.0,0.7298431644395565,-0.004232280344449085,0.020960782397410893,-8.747599414886583e-06,0.0,0.0,0.0,0.0
22.327019453048706,0.22296727,-0.30749625,-4.793086,-7.077551323888729e-05,nan,nan,nan,nan,nan,12.319884538650513,13.519884538650512,0.00042176246643066406,0.11840923690795901,-0.3464101615137755,0.0,-5.0,0.7294880240166608,-0.0038602235990727782,0.02133734530839193,0.00015896462383041627,0.0,0.0,0.0,0.0
22.426881790161133,0.22481434,-0.30327302,-4.7970104,0.000710592492724106,nan,nan,nan,nan,nan,12.419575452804565,13.619575452804565,0.0005555152893066406,0.11043396377563482,-0.3464101615137755,0.0,-5.0,0.7291562021880801,-0.002486010980440497,0.020074682822089532,-0.0001570732195978749,0.0,0.0,0.0,0.0
22.52716851234436,0.22361034,-0.30175456,-4.8061466,0.0019787396447262396,nan,nan,nan,nan,nan,12.519813537597656,13.719813537597656,0.0004699230194091797,0.10241491699218752,-0.3464101615137755,0.0,-5.0,0.728713330455583,-0.0013057680932820953,0.017344067909149708,-0.001246100415587105,0.0,0.0,0.0,0.0
22.62687349319458,0.21854427,-0.30406356,-4.8201094,0.0026374650965090628,nan,nan,nan,nan,nan,12.620031833648682,13.820031833648681,0.0007758140563964844,0.09439745330810552,-0.3464101615137755,0.0,-5.0,0.7278368215870747,0.002985277042309764,0.011119211016623162,-0.002066542828553468,0.0,0.0,0.0,0.0
22.7275652885437,0.210469,-0.30494353,-4.832974,0.0029922526954639975,nan,nan,nan,nan,nan,12.72041630744934,13.92041630744934,0.0004711151123046875,0.08636669540405278,-0.3464101615137755,0.0,-5.0,0.7270236292792414,0.00570787878950932,0.003704544201491109,-0.0024750541774332746,0.0,0.0,0.0,0.0
22.826720237731934,0.19198515,-0.30472127,-4.8531,0.00311599687997577,nan,nan,nan,nan,nan,12.819350004196167,14.019350004196166,0.0004811286926269531,0.07845199966430667,-0.3464101615137755,0.0,-5.0,0.7261589966326971,0.00668596553314028,-0.005602418600015677,-0.0025898724481387986,0.0,0.0,0.0,0.0
22.927300453186035,0.18099084,-0.30498976,-4.8664994,0.0031319428367778323,nan,nan,nan,nan,nan,12.92000126838684,14.12000126838684,0.0005252361297607422,0.07039989852905278,-0.3464101615137755,0.0,-5.0,0.7254133783016056,0.006701701289204045,-0.01426123510586088,-0.002605664563030804,0.0,0.0,0.0,0.0
23.02687907218933,0.17327298,-0.3082489,-4.8805594,0.0031119897594225664,nan,nan,nan,nan,nan,13.019532442092896,14.219532442092895,0.00043082237243652344,0.062437404632568416,-0.3464101615137755,0.0,-5.0,0.7251067743271966,0.006691197256306161,-0.017089629912009238,-0.0025984087155700455,0.0,0.0,0.0,0.0
23.126914739608765,0.16956277,-0.31378672,-4.89251,0.0029275375239812117,nan,nan,nan,nan,nan,13.119547843933105,14.319547843933105,0.0008990764617919922,0.054436172485351625,-0.3464101615137755,0.0,-5.0,0.7249174011886693,0.00889594495743735,-0.015006229426985245,-0.0024438844366717256,0.0,0.0,0.0,0.0
23.226949453353882,0.16883013,-0.31943572,-4.8980184,0.002795181691524374,nan,nan,nan,nan,nan,13.219649076461792,14.419649076461791,0.0007834434509277344,0.0464280738830567,-0.3464101615137755,0.0,-5.0,0.7250305801447497,0.010262830540592936,-0.01010991320104374,-0.002318361687598681,0.0,0.0,0.0,0.0
23.326889038085938,0.16429739,-0.32648593,-4.9036045,0.0028341625309911845,nan,nan,nan,nan,nan,13.319523811340332,14.519523811340331,0.0006754398345947266,0.038438095092773496,-0.3464101615137755,0.0,-5.0,0.7252067326349094,0.0110686761826743,-0.005277398256194585,-0.0023381833187251996,0.0,0.0,0.0,0.0
23.426931381225586,0.16009334,-0.33468935,-4.9085484,0.0029560545143735685,nan,nan,nan,nan,nan,13.419590950012207,14.619590950012206,0.0005025863647460938,0.03043272399902346,-0.3464101615137755,0.0,-5.0,0.7254091977381821,0.011837913098273272,-0.0022270682730782454,-0.002415477055049422,0.0,0.0,0.0,0.0
23.527027368545532,0.15707982,-0.3433696,-4.914938,0.003092582400752124,nan,nan,nan,nan,nan,13.519652128219604,14.719652128219604,0.0004444122314453125,0.02242782974243167,-0.3464101615137755,0.0,-5.0,0.7255241318196515,0.012846440339919489,0.0007534469174421454,-0.0025926050317045465,0.0,0.0,0.0,0.0
23.6266987323761,0.15409827,-0.35334903,-4.9236937,0.003098920469368314,nan,nan,nan,nan,nan,13.619346618652344,14.819346618652343,0.00043201446533203125,0.014452270507812549,-0.3464101615137755,0.0,-5.0,0.7254880632838479,0.014314536329609958,0.0033577184192584634,-0.002672063665258234,0.0,0.0,0.0,0.0
23.727065086364746,0.1426134,-0.3596063,-4.934069,0.003192403419410516,nan,nan,nan,nan,nan,13.719749450683594,14.919749450683593,0.0004482269287109375,0.006420043945312548,-0.3464101615137755,0.0,-5.0,0.7253197391398072,0.013289841902187054,0.0025554787232122513,-0.0027104186690499357,0.0,0.0,0.0,0.0
23.82747530937195,0.13175629,-0.36825612,-4.9459705,0.002989415774585869,nan,nan,nan,nan,nan,13.820352792739868,15.020352792739867,0.0006515979766845703,-0.0016282234191893786,-0.3464101615137755,0.0,-5.0,0.7250966347010854,0.012036150250200387,-8.90789499461456e-05,-0.002628718907081863,0.0,0.0,0.0,0.0
23.926827430725098,0.121962845,-0.3768956,-4.9574866,0.0026402679419593083,nan,nan,nan,nan,nan,13.919530153274536,15.119530153274535,0.0005352497100830078,-0.009562412261962817,-0.3464101615137755,0.0,-5.0,0.7248524659496105,0.011359599778203892,-0.0024631008150624643,-0.0022874258599035464,0.0,0.0,0.0,0.0
24.026900053024292,0.11206222,-0.38411123,-4.967764,0.002309997112881208,nan,nan,nan,nan,nan,14.019517660140991,15.21951766014099,0.0006093978881835938,-0.017561412811279275,-0.3464101615137755,0.0,-5.0,0.7246286119251025,0.009748190723292926,-0.0035360724992036085,-0.001989936698068664,0.0,0.0,0.0,0.0
24.127416849136353,0.096233435,-0.39013776,-4.9778047,0.0017202218822536782,nan,nan,nan,nan,nan,14.120056390762329,15.320056390762328,0.00042819976806640625,-0.02560451126098631,-0.3464101615137755,0.0,-5.0,0.7245316244322819,0.0060523583704535245,-0.006790850291031674,-0.0014713755337394387,0.0,0.0,0.0,0.0
24.227254390716553,0.08420746,-0.39004552,-4.979584,0.0012815235699814914,nan,nan,nan,nan,nan,14.220003128051758,15.420003128051757,0.0005452632904052734,-0.03360025024414055,-0.3464101615137755,0.0,-5.0,0.7247769421926215,8.772376688181836e-05,-0.008561501742057772,-0.0010717899013205883,0.0,0.0,0.0,0.0
24.32708168029785,0.06893267,-0.38787642,-4.977997,0.0009544050364907429,nan,nan,nan,nan,nan,14.319732666015625,15.519732666015624,0.0005137920379638672,-0.04157861328124995,-0.3464101615137755,0.0,-5.0,0.7252339058124906,-0.006712593822560429,-0.009397020048490303,-0.0007939645508520452,0.0,0.0,0.0,0.0
24.427507400512695,0.054935757,-0.3865155,-4.9781194,0.0005614670801518647,nan,nan,nan,nan,nan,14.420259237289429,15.620259237289428,0.0006120204925537109,-0.04962073898315422,-0.3464101615137755,0.0,-5.0,0.725797906787555,-0.01228781499787109,-0.01020862895977149,-0.0005205137983065796,0.0,0.0,0.0,0.0
24.52680516242981,0.039832205,-0.38735977,-4.9820633,1.7110664092961046e-05,nan,nan,nan,nan,nan,14.519453525543213,15.719453525543212,0.0008783340454101562,-0.057556282043456974,-0.3464101615137755,0.0,-5.0,0.7259008006938545,-0.013982438855730082,-0.009345701954692481,-0.00011327959102846162,0.0,0.0,0.0,0.0
24.627034187316895,0.020193122,-0.38967308,-4.9825726,-0.00032967517587811825,nan,nan,nan,nan,nan,14.619678020477295,15.819678020477294,0.0005383491516113281,-0.06557424163818358,-0.3464101615137755,0.0,-5.0,0.7261595983193889,-0.012254185878474206,-0.010487422542653689,0.00024638243801117677,0.0,0.0,0.0,0.0
24.726683855056763,0.0025162422,-0.3877171,-4.984112,-0.0003372118747253308,nan,nan,nan,nan,nan,14.719281435012817,15.919281435012817,0.0005562305450439453,-0.07354251480102532,-0.3464101615137755,0.0,-5.0,0.7263167479489527,-0.010674868835304639,-0.011055893373585696,0.00035400272370566534,0.0,0.0,0.0,0.0
24.826680660247803,-0.011567005,-0.38475627,-4.979648,2.685650290453097e-05,nan,nan,nan,nan,nan,14.819304704666138,16.019304704666137,0.0005452632904052734,-0.081544376373291,-0.3464101615137755,0.0,-5.0,0.7266387676598316,-0.010454002083043501,-0.0102705527735938,0.00010943029669586856,0.0,0.0,0.0,0.0
24.926661491394043,-0.027938483,-0.3793526,-4.9681053,0.0008285505858649828,nan,nan,nan,nan,nan,14.91924786567688,16.11924786567688,0.0007703304290771484,-0.08953982925415041,-0.3464101615137755,0.0,-5.0,0.7273036053511776,-0.011006830676780136,-0.009125203909817236,-0.00043032261671669184,0.0,0.0,0.0,0.0
25.02711796760559,-0.039493985,-0.3740154,-4.9558434,0.0014286775639510071,nan,nan,nan,nan,nan,15.019720554351807,16.219720554351806,0.0006582736968994141,-0.09757764434814452,-0.3464101615137755,0.0,-5.0,0.7284491688810355,-0.012607440998185216,-0.007147788723913445,-0.0010804144660544828,0.0,0.0,0.0,0.0
25.126771688461304,-0.05438334,-0.37002188,-4.9404235,0.0019636573591421923,nan,nan,nan,nan,nan,15.119374513626099,16.319374513626098,0.00054931640625,-0.10554996109008785,-0.3464101615137755,0.0,-5.0,0.729353014626746,-0.011937272836175454,-0.005429987020628471,-0.001518711050338223,0.0,0.0,0.0,0.0
25.226768970489502,-0.060441095,-0.36356044,-4.931655,0.0021786062294888013,nan,nan,nan,nan,nan,15.219359874725342,16.41935987472534,0.0004839897155761719,-0.1135487899780273,-0.3464101615137755,0.0,-5.0,0.7298139334149357,-0.011410100048735633,-0.0018543831969760212,-0.001796464012980128,0.0,0.0,0.0,0.0
25.32680916786194,-0.06768424,-0.35391638,-4.9270716,0.00251845060499542,nan,nan,nan,nan,nan,15.319400310516357,16.519400310516357,0.0010042190551757812,-0.12155202484130855,-0.3464101615137755,0.0,-5.0,0.729838751455621,-0.01276838828508619,0.002895467167052483,-0.0019680285166568372,0.0,0.0,0.0,0.0
25.426755905151367,-0.07729744,-0.34146968,-4.9241586,0.0034411785143472905,nan,nan,nan,nan,nan,15.41934871673584,16.61934871673584,0.0008237361907958984,-0.1295478973388672,-0.3464101615137755,0.0,-5.0,0.7296158390939833,-0.015696696771381868,0.005955488902932145,-0.0025785777579953443,0.0,0.0,0.0,0.0
25.526835203170776,-0.08758927,-0.3306123,-4.9221363,0.0044429793098086975,nan,nan,nan,nan,nan,15.519472122192383,16.719472122192382,0.0005197525024414062,-0.1375577697753906,-0.3464101615137755,0.0,-5.0,0.7295260934561397,-0.017474061735215717,0.006693373638646296,-0.0034524174275846185,0.0,0.0,0.0,0.0
25.62667155265808,-0.09808637,-0.3253569,-4.917038,0.0048921490765313725,nan,nan,nan,nan,nan,15.619285106658936,16.819285106658935,0.00041556358337402344,-0.14554280853271484,-0.3464101615137755,0.0,-5.0,0.7295015269037558,-0.014823184240505344,0.006299453298390557,-0.003992929139001934,0.0,0.0,0.0,0.0
25.72666573524475,-0.105392456,-0.32211983,-4.9168296,0.004877195457169653,nan,nan,nan,nan,nan,15.719242095947266,16.919242095947265,0.0004398822784423828,-0.15353936767578125,-0.3464101615137755,0.0,-5.0,0.729250606690017,-0.009747649218897822,0.005883735507871683,-0.004086539902715617,0.0,0.0,0.0,0.0
25.826727628707886,-0.112991825,-0.32489336,-4.917693,0.004209372353921754,nan,nan,nan,nan,nan,15.81930947303772,17.01930947303772,0.0004563331604003906,-0.16154475784301756,-0.3464101615137755,0.0,-5.0,0.7288629396924461,-0.002129240241933278,0.005419472721171775,-0.003809813903166689,0.0,0.0,0.0,0.0
25.926917791366577,-0.117336996,-0.3323496,-4.9173026,0.002985114652787012,nan,nan,nan,nan,nan,15.919517278671265,17.119517278671264,0.0005221366882324219,-0.16956138229370118,-0.3464101615137755,0.0,-5.0,0.7285706609810413,0.007990365202677447,0.005100944048522578,-0.002919137547086603,0.0,0.0,0.0,0.0
26.0267493724823,-0.11477957,-0.3431071,-4.911479,0.0012621937634193624,nan,nan,nan,nan,nan,16.01936388015747,17.21936388015747,0.00046062469482421875,-0.1775491104125976,-0.3464101615137755,0.0,-5.0,0.7288139497385243,0.017426770638603994,0.008537224323026718,-0.0015774687674663802,0.0,0.0,0.0,0.0
26.126821994781494,-0.111468,-0.35082117,-4.9034324,0.00012020657815775852,nan,nan,nan,nan,nan,16.11941885948181,17.31941885948181,0.00055694580078125,-0.1855535087585449,-0.3464101615137755,0.0,-5.0,0.7291880330702828,0.02189778016340339,0.01272566414976968,-0.0005528200365513254,0.0,0.0,0.0,0.0
26.22666835784912,-0.10843544,-0.35782823,-4.8935575,-0.0005286857185160511,nan,nan,nan,nan,nan,16.2192542552948,17.4192542552948,0.0003941059112548828,-0.19354034042358395,-0.3464101615137755,0.0,-5.0,0.7295481856708933,0.023017668060475192,0.01597556593816983,8.866458575107144e-05,0.0,0.0,0.0,0.0
26.32689642906189,-0.10333365,-0.36477536,-4.884781,-0.00110322602001173,nan,nan,nan,nan,nan,16.319493532180786,17.519493532180785,0.0004036426544189453,-0.20155948257446285,-0.3464101615137755,0.0,-5.0,0.729887487148668,0.022019945889662447,0.018319864742865115,0.0005114350765629852,0.0,0.0,0.0,0.0
26.42705249786377,-0.09616319,-0.37040377,-4.874399,-0.0017725179611040671,nan,nan,nan,nan,nan,16.419658422470093,17.619658422470092,0.0005245208740234375,-0.2095726737976074,-0.3464101615137755,0.0,-5.0,0.7301489854379387,0.01953280445007757,0.020363803055840787,0.001040109145252167,0.0,0.0,0.0,0.0
26.526763677597046,-0.090975635,-0.37269372,-4.8622828,-0.0018696907883923165,nan,nan,nan,nan,nan,16.51935863494873,17.71935863494873,0.00044798851013183594,-0.2175486907958984,-0.3464101615137755,0.0,-5.0,0.730812132121103,0.013839834262272267,0.020704141171910693,0.0012947752540327046,0.0,0.0,0.0,0.0
26.627000331878662,-0.08780112,-0.38111702,-4.849939,-0.0025184915564582843,nan,nan,nan,nan,nan,16.61958384513855,17.81958384513855,0.0004951953887939453,-0.22556670761108394,-0.3464101615137755,0.0,-5.0,0.7312465478465143,0.010992442202122163,0.018858178390037138,0.001639910108819034,0.0,0.0,0.0,0.0
26.72678279876709,-0.08801213,-0.38827476,-4.8440094,-0.003164898365090333,nan,nan,nan,nan,nan,16.719376802444458,17.919376802444457,0.00036072731018066406,-0.23355014419555664,-0.3464101615137755,0.0,-5.0,0.7312712964971749,0.009734924538212472,0.014641675479539646,0.002293591930826995,0.0,0.0,0.0,0.0
26.826882123947144,-0.08601438,-0.39629558,-4.8422585,-0.003655726203703015,nan,nan,nan,nan,nan,16.819477558135986,18.019477558135986,0.0003457069396972656,-0.24155820465087885,-0.3464101615137755,0.0,-5.0,0.7309588942412824,0.008372200829157055,0.010216581063062323,0.0027966655485648184,0.0,0.0,0.0,0.0
26.926719188690186,-0.0829621,-0.40265083,-4.844072,-0.003860267227478824,nan,nan,nan,nan,nan,16.91930055618286,18.11930055618286,0.0003345012664794922,-0.2495440444946289,-0.3464101615137755,0.0,-5.0,0.7304023626298463,0.007366297157037439,0.008099020135564659,0.0031253784538455304,0.0,0.0,0.0,0.0
27.026660919189453,-0.08578393,-0.40336782,-4.8453913,-0.0031650432129151605,nan,nan,nan,nan,nan,17.019241094589233,18.219241094589233,0.0004475116729736328,-0.2575392875671387,-0.3464101615137755,0.0,-5.0,0.7300100533353464,0.0022936787813611845,0.004154092298557843,0.002861524571383601,0.0,0.0,0.0,0.0
27.12672710418701,-0.0900999,-0.40300673,-4.842513,-0.002166761523447006,nan,nan,nan,nan,nan,17.119309186935425,18.319309186935424,0.0003781318664550781,-0.26554473495483394,-0.3464101615137755,0.0,-5.0,0.7297386627324833,-0.0035428425000242113,-0.0006525272315934644,0.0020747766284646943,0.0,0.0,0.0,0.0
27.226765155792236,-0.10256188,-0.4065825,-4.83504,-0.001052082613761096,nan,nan,nan,nan,nan,17.219353914260864,18.419353914260864,0.0005581378936767578,-0.27354831314086914,-0.3464101615137755,0.0,-5.0,0.7297501340568421,-0.005979634477082138,-0.005841090741522526,0.0012362287070928832,0.0,0.0,0.0,0.0
27.326778888702393,-0.11350367,-0.4103018,-4.833193,-0.0005699808235417438,nan,nan,nan,nan,nan,17.319416761398315,18.519416761398315,0.00033783912658691406,-0.28155334091186524,-0.3464101615137755,0.0,-5.0,0.7299171673876358,-0.005200701746733195,-0.0119777949341931,0.0007005457240018223,0.0,0.0,0.0,0.0
27.426777362823486,-0.12371561,-0.41416588,-4.8392715,7.088265795997771e-06,nan,nan,nan,nan,nan,17.419373273849487,18.619373273849487,0.0003495216369628906,-0.28954986190795895,-0.3464101615137755,0.0,-5.0,0.7293627340084279,-0.003442992132671225,-0.015106039783520828,0.00028632416987051465,0.0,0.0,0.0,0.0
27.526822566986084,-0.13023098,-0.41614026,-4.845731,0.0004892513186505265,nan,nan,nan,nan,nan,17.519538402557373,18.719538402557372,0.000324249267578125,-0.29756307220458983,-0.3464101615137755,0.0,-5.0,0.7287609740798737,-0.0022233565263295556,-0.014829741859979621,-0.00014753383935752124,0.0,0.0,0.0,0.0
27.62681221961975,-0.14681356,-0.41655764,-4.8525047,0.0007870207667675551,nan,nan,nan,nan,nan,17.619417428970337,18.819417428970336,0.0003421306610107422,-0.30555339431762696,-0.3464101615137755,0.0,-5.0,0.7281377280398539,-0.0023233253874618415,-0.01565417574037515,-0.00046243207559718046,0.0,0.0,0.0,0.0
27.72697639465332,-0.1649907,-0.41647285,-4.8597717,0.0007624484300185874,nan,nan,nan,nan,nan,17.719568967819214,18.919568967819213,0.00034046173095703125,-0.3135655174255371,-0.3464101615137755,0.0,-5.0,0.7275409843018744,-0.003635991722258764,-0.018550060177928672,-0.0005498882709389563,0.0,0.0,0.0,0.0
27.826707124710083,-0.18308811,-0.41505083,-4.8660164,0.0005667723018626478,nan,nan,nan,nan,nan,17.819294691085815,19.019294691085815,0.0003345012664794922,-0.3215435752868652,-0.3464101615137755,0.0,-5.0,0.7270994429071097,-0.0044621058239543805,-0.021141029011265324,-0.00040168002776526336,0.0,0.0,0.0,0.0
27.926745653152466,-0.19985402,-0.41187903,-4.870746,0.00029988615600733473,nan,nan,nan,nan,nan,17.91933822631836,19.11933822631836,0.00042748451232910156,-0.3295470581054687,-0.3464101615137755,0.0,-5.0,0.726919191845544,-0.0061714482081592454,-0.020981756573488903,-0.0002254633089009546,0.0,0.0,0.0,0.0
28.026803731918335,-0.20866631,-0.4125847,-4.8697953,-0.00028414962305680583,nan,nan,nan,nan,nan,18.019392728805542,19.21939272880554,0.0003514289855957031,-0.3375514183044434,-0.3464101615137755,0.0,-5.0,0.727065880022011,-0.005627875221349746,-0.015712573415311206,0.00015310804253772963,0.0,0.0,0.0,0.0
28.126898288726807,-0.22306065,-0.41527632,-4.866826,-0.0005550021502526903,nan,nan,nan,nan,nan,18.11948847770691,19.31948847770691,0.0003502368927001953,-0.34555907821655274,-0.3464101615137755,0.0,-5.0,0.7272767838115471,-0.0031382228531836092,-0.010650373402354335,0.00045940231163241614,0.0,0.0,0.0,0.0
28.227017879486084,-0.23722826,-0.41508377,-4.8652005,-0.0007052316530366302,nan,nan,nan,nan,nan,18.219720602035522,19.41972060203552,0.00033926963806152344,-0.35357764816284176,-0.3464101615137755,0.0,-5.0,0.7273778090288516,-0.0009892074031041316,-0.007682190609709005,0.0005950407572623221,0.0,0.0,0.0,0.0
28.32671093940735,-0.25028348,-0.4133749,-4.8654966,-0.000883423584192241,nan,nan,nan,nan,nan,18.319295406341553,19.519295406341552,0.0004086494445800781,-0.36154363250732424,-0.3464101615137755,0.0,-5.0,0.7274395841167832,-0.0006987720163302563,-0.005111717589247987,0.000733854397521611,0.0,0.0,0.0,0.0
28.426776885986328,-0.26155832,-0.41225353,-4.8674154,-0.000986334847630244,nan,nan,nan,nan,nan,18.419371128082275,19.619371128082275,0.0003333091735839844,-0.369549690246582,-0.3464101615137755,0.0,-5.0,0.7274123487812902,-0.00030048493818732,-0.0022232119669821034,0.0008347368667468527,0.0,0.0,0.0,0.0
28.526926517486572,-0.2781398,-0.4067252,-4.8601236,-0.0007010062827668491,nan,nan,nan,nan,nan,18.51966118812561,19.71966118812561,0.0003345012664794922,-0.3775728950500488,-0.3464101615137755,0.0,-5.0,0.7277771575455647,-0.0014782756988755714,-0.0012484770526181633,0.0006668628067504009,0.0,0.0,0.0,0.0
28.626980543136597,-0.28825757,-0.40180045,-4.8562555,-0.0003144408778269739,nan,nan,nan,nan,nan,18.619568824768066,19.819568824768066,0.00033545494079589844,-0.3855655059814453,-0.3464101615137755,0.0,-5.0,0.7280068529513234,-0.002914530873007457,5.750743276900805e-05,0.00036639241739188917,0.0,0.0,0.0,0.0
28.726902723312378,-0.29457104,-0.39899817,-4.8515854,-6.269682760482549e-05,nan,nan,nan,nan,nan,18.719506978988647,19.919506978988647,0.0003364086151123047,-0.39356055831909176,-0.3464101615137755,0.0,-5.0,0.7280948407991997,-0.003443054856211929,0.0033003814990201917,9.075080542511163e-05,0.0,0.0,0.0,0.0
28.82685661315918,-0.29721206,-0.39961028,-4.8455276,7.569992844962906e-05,nan,nan,nan,nan,nan,18.819457530975342,20.01945753097534,0.00039076805114746094,-0.3992216987609864,-0.3450621042242101,0.0,-5.0,0.7284387614039082,-0.0007552974961443818,0.007456385826163889,-5.941667175352933e-05,0.0,0.0,0.0,0.0
28.926801919937134,-0.29886252,-0.4027356,-4.840198,0.00015943247544569078,nan,nan,nan,nan,nan,18.919402360916138,20.119402360916137,0.00034117698669433594,-0.3952239055633545,-0.3381377232877585,0.0,-5.0,0.7288224950993888,0.005134374928496241,0.007568053450005457,-0.00017357660240757155,0.0,0.0,0.0,0.0
29.02678394317627,-0.3047063,-0.4007382,-4.84031,0.0003050611448579517,nan,nan,nan,nan,nan,19.01937961578369,20.21937961578369,0.0003523826599121094,-0.3912248153686524,-0.33121109588648384,0.0,-5.0,0.728758828571673,0.007657855848001815,0.0053296908988737434,-0.00026962658912716515,0.0,0.0,0.0,0.0
29.12669062614441,-0.31228617,-0.400662,-4.8406553,0.00040440100265089034,nan,nan,nan,nan,nan,19.119282007217407,20.319282007217407,0.0003376007080078125,-0.38722871971130374,-0.3242896551760507,0.0,-5.0,0.7285375508705877,0.008653364386094224,0.0013141543612195542,-0.00033006338801267235,0.0,0.0,0.0,0.0
29.226654767990112,-0.3164669,-0.4018392,-4.8430314,0.0003224903282347349,nan,nan,nan,nan,nan,19.219244956970215,20.419244956970214,0.0003418922424316406,-0.38323020172119143,-0.31736401886219795,0.0,-5.0,0.7282953046563829,0.00957846783969855,-0.002354828526139518,-0.0002808984079421022,0.0,0.0,0.0,0.0
29.327397346496582,-0.31742287,-0.40361366,-4.8460813,3.214731950391221e-05,nan,nan,nan,nan,nan,19.31998610496521,20.51998610496521,0.0003485679626464844,-0.37920055580139167,-0.31038446739259207,0.0,-5.0,0.7279953304097313,0.011281651171334998,-0.0030165303299538324,-6.193489627096721e-05,0.0,0.0,0.0,0.0
29.426964282989502,-0.31502756,-0.40279976,-4.844594,-0.00014593178992867908,nan,nan,nan,nan,nan,19.419565200805664,20.619565200805663,0.0003342628479003906,-0.3752173919677735,-0.30348542525789457,0.0,-5.0,0.728166636337272,0.01123056362221685,-0.0008374806940917683,8.353978019737182e-05,0.0,0.0,0.0,0.0
29.52702808380127,-0.31220245,-0.4001266,-4.8435707,-0.0002661395178305088,nan,nan,nan,nan,nan,19.51961398124695,20.719613981246948,0.0003390312194824219,-0.37121544075012214,-0.29655384241951027,0.0,-5.0,0.7282310636246024,0.00984889863490951,0.002468114407789076,0.0001659953393733893,0.0,0.0,0.0,0.0
