time,x,y,z,yaw,platform,trajectory,traj_double,traj_short,traj_spin,traj_time,ref_time,comptime,x_ref,y_ref,yaw_ref,z_ref,throttle_input,p_input,q_input,r_input,cbf_term_pitch_cbf,cbf_term_roll_cbf,cbf_term_thrust_cbf,cbf_term_yaw_cbf
10.000863075256348,-0.007875596,-0.021810288,-2.8373594,0.000977620829186546,SIM,SAWTOOTH,NormSpd,Not Short,NoSpin,9.5367431640625e-07,1.2000009536743164,0.010467290878295898,0.0,0.1760001398722331,0.0,-5.0,0.7723889596106382,0.008,0.0012477702231999295,-0.00027000106794977153,0.0,-0.1380325322669429,0.0,0.0
10.101044416427612,-0.012302593,-0.02588553,-2.8485353,0.0012063142167944053,nan,nan,nan,nan,nan,0.10015678405761719,1.3001567840576171,0.00039505958557128906,0.0,0.1906896616617839,0.0,-5.0,0.7994430347464373,0.02454470622638888,0.003574325812248356,-0.0010023664656848303,0.0,0.0,-72.2688246466591,0.0
10.20111346244812,-0.018306928,-0.02595893,-2.8659565,0.0013432294233126944,nan,nan,nan,nan,nan,0.20022821426391602,1.400228214263916,0.00038504600524902344,0.0,0.20536680475870772,0.0,-5.0,0.8073430892288771,0.02653844253551553,0.002473781325104943,-0.0011705327016809416,0.0,0.0,-43.08024579881409,0.0
10.301201581954956,-0.024249876,-0.027294243,-2.8981879,0.0018972252857459675,nan,nan,nan,nan,nan,0.30036115646362305,1.500361156463623,0.00036334991455078125,0.0,0.22005296961466475,0.0,-5.0,0.8144225686678365,0.025284745706498916,-0.0003595466915610557,-0.0014232610164045634,0.0,0.0,-10.043953233161005,0.0
10.401861906051636,-0.03187443,-0.02832094,-2.9477596,0.002681732401746198,nan,nan,nan,nan,nan,0.4012315273284912,1.6012315273284912,0.0006983280181884766,0.0,0.2348472906748454,0.0,-5.0,0.81052577593557,0.02324824667538556,-0.0037142494362597473,-0.001952682951834413,0.0,0.0,0.0,0.0
10.501326084136963,-0.040853295,-0.030023577,-3.0223129,0.003300109564942779,nan,nan,nan,nan,nan,0.5004761219024658,1.7004761219024658,0.0004165172576904297,0.0,0.24940316454569503,0.0,-5.0,0.7960450152343045,0.020557954645212977,-0.007100032707268042,-0.0024154345550070648,0.0,0.0,0.0,0.0
10.601089715957642,-0.048699725,-0.032788273,-3.1111546,0.0038856262269639907,nan,nan,nan,nan,nan,0.6002094745635986,1.8002094745635986,0.0003857612609863281,0.0,0.2640307229359945,0.0,-5.0,0.7820851693724922,0.019676423952833217,-0.009548000319672201,-0.00281849665746559,0.0,0.0,0.0,0.0
10.701263904571533,-0.05152171,-0.030661048,-3.2236118,0.003986631000842308,nan,nan,nan,nan,nan,0.7004666328430176,1.9004666328430175,0.00036025047302246094,0.0,0.2787351061503093,0.0,-5.0,0.769106523220038,0.01637034521721017,-0.009187756628306442,-0.0030576464626488205,0.0,0.0,2.4443299061269155,0.0
10.801041603088379,-0.05594068,-0.030573685,-3.3409822,0.003514871701593921,nan,nan,nan,nan,nan,0.8001534938812256,2.0001534938812258,0.0003693103790283203,0.0,0.29335584576924645,0.0,-5.0,0.7587072783647215,0.013513068720083033,-0.007757126549175487,-0.0028806567993696717,0.0,0.0,4.405086592689335,0.0
10.90116548538208,-0.06054819,-0.03288099,-3.454919,0.0026007823294562603,nan,nan,nan,nan,nan,0.9002707004547119,2.100270700454712,0.0004172325134277344,0.0,0.30803970273335785,0.0,-5.0,0.7491797285720354,0.012064103740404496,-0.006518536758726496,-0.0022393839403420743,0.0,0.0,7.3943426601363065,0.0
11.00174617767334,-0.06373095,-0.03505524,-3.5757034,0.0014830692124189384,nan,nan,nan,nan,nan,1.0008816719055176,2.2008816719055178,0.0003631114959716797,0.0,0.32279597854614267,0.0,-5.0,0.7404590280226013,0.01286502471348545,-0.005156592618677213,-0.0013092753974009487,0.0,0.0,8.849279924557502,0.0
11.101289987564087,-0.064733095,-0.034034073,-3.7139978,0.0007672096982272291,nan,nan,nan,nan,nan,1.1004488468170166,2.300448846817017,0.00037026405334472656,0.0,0.3373991641998292,0.0,-5.0,0.7324839833095667,0.013045259143822518,-0.0026168726119409256,-0.0007430828489531817,0.0,0.0,11.59614323134042,0.0
11.201317071914673,-0.06777916,-0.026931388,-3.8431194,0.0007405192266230383,nan,nan,nan,nan,nan,1.2004995346069336,2.4004995346069338,0.0003638267517089844,0.0,0.3520732650756837,0.0,-5.0,0.7251970026359614,0.009322781054338388,-0.0010080453282931663,-0.0005883830814739752,0.0,0.0,11.753087154188211,0.0
11.300917148590088,-0.06728341,-0.018227374,-3.9689949,0.00014045029064799208,nan,nan,nan,nan,nan,1.3000283241271973,2.5000283241271974,0.0004811286926269531,0.0,0.366670820871989,0.0,-5.0,0.7185440259354576,0.0030577299641853612,0.0012921319804560702,-0.00042430189240190284,0.0,0.0,13.969334188930855,0.0
11.401684284210205,-0.06476678,-0.0071639884,-4.1029973,-0.0015417946927770015,nan,nan,nan,nan,nan,1.4008278846740723,2.6008278846740724,0.0004780292510986328,0.0,0.381454756418864,0.0,-5.0,0.7124744373245405,-0.0032157266116929263,0.005399318841353807,0.0005622086781152923,0.0,0.0,12.863736180722748,0.0
11.501185178756714,-0.059403002,0.006021995,-4.2246556,-0.002982186208312882,nan,nan,nan,nan,nan,1.5003414154052734,2.7003414154052736,0.0003528594970703125,0.0,0.39605007425944017,0.0,-5.0,0.7069409617637801,-0.008237294963371689,0.009567350250183093,0.0018369639923655411,0.0,0.0,11.992905638944679,0.0
11.601380348205566,-0.048505787,0.023890696,-4.3440213,-0.003760063323551723,nan,nan,nan,nan,nan,1.6005938053131104,2.8005938053131105,0.00035452842712402344,0.010753758112589575,0.37849248377482086,0.0,-5.0,0.7018995481243913,-0.03067642973744085,0.01082791088238049,0.0028514371070502533,0.0,0.0,11.2236799932309,0.0
11.701335191726685,-0.04062377,0.046605807,-4.464294,-0.0026364539411540006,nan,nan,nan,nan,nan,1.700486660003662,2.9004866600036623,0.00036263465881347656,0.025404710133870502,0.34919057973225903,0.0,-5.0,0.6973092410353868,-0.05441078602749983,0.008663554971296642,0.0026082740305666476,0.0,0.0,8.674895396625537,0.0
11.801343441009521,-0.03480529,0.07028018,-4.570908,-0.0009961475814798844,nan,nan,nan,nan,nan,1.8004953861236572,3.0004953861236574,0.00048804283142089844,0.040072656631469784,0.31985468673706047,0.0,-5.0,0.6931320439439923,-0.07270498678195653,0.004565555136591818,0.001384256055242691,0.0,0.0,5.630665159277963,0.0
11.901078701019287,-0.028010026,0.09992901,-4.6713505,0.0006137496050449762,nan,nan,nan,nan,nan,1.9002039432525635,3.1002039432525637,0.0003745555877685547,0.05469657834370937,0.2906068433125813,0.0,-5.0,0.6893327757785024,-0.08419126960857003,0.0002157677104876283,-6.126300371357244e-05,0.0,0.0,0.8504121651079473,0.0
12.001375913619995,-0.022900518,0.12924317,-4.7510457,0.0016821776525363747,nan,nan,nan,nan,nan,2.0006513595581055,3.2006513595581056,0.0004036426544189453,0.06942886606852221,0.26114226786295563,0.0,-5.0,0.6888141357037686,-0.09025585000609986,-0.002748663737455039,-0.0012036443686025086,0.0,0.0,0.0,0.0
12.101248502731323,-0.022403535,0.15824181,-4.832343,0.003126217195816135,nan,nan,nan,nan,nan,2.100435733795166,3.300435733795166,0.0003676414489746094,0.08406390762329108,0.23187218475341786,0.0,-5.0,0.6901030906291077,-0.08767236873822289,-0.008224460789805594,-0.002682113666175541,0.0,0.0,0.0,0.0
12.201112747192383,-0.024570264,0.18505402,-4.8940434,0.004346638906407085,nan,nan,nan,nan,nan,2.2002274990081787,3.400227499008179,0.00038552284240722656,0.09870003318786628,0.20259993362426745,0.0,-5.0,0.6917446808228502,-0.08047458131172046,-0.013638654473562299,-0.004185892027776089,0.0,0.0,0.0,0.0
12.3010733127594,-0.027858512,0.21171255,-4.965601,0.005962597318423376,nan,nan,nan,nan,nan,2.3001930713653564,3.5001930713653566,0.0004067420959472656,0.11336165046691903,0.17327669906616197,0.0,-5.0,0.6934481876363534,-0.06967984591759266,-0.017876654541241623,-0.005512733873268996,0.0,0.0,0.0,0.0
12.401698350906372,-0.031106679,0.22677071,-5.0168285,0.007300976583765951,nan,nan,nan,nan,nan,2.400811195373535,3.6008111953735353,0.00036072731018066406,0.1281189753214519,0.14376204935709622,0.0,-5.0,0.6953462942554137,-0.05164064696230804,-0.020765724246084333,-0.0070492234303259045,0.0,0.0,0.0,0.0
12.501327753067017,-0.035117637,0.23699394,-5.077301,0.009356294784530773,nan,nan,nan,nan,nan,2.5006260871887207,3.700626087188721,0.00038170814514160156,0.14275849278767913,0.11448301442464177,0.0,-5.0,0.6970155671497539,-0.03431891444059325,-0.022552964370206624,-0.008416955288819028,0.0,0.0,0.0,0.0
12.601359367370605,-0.03774765,0.23487702,-5.1222587,0.01103585116069832,nan,nan,nan,nan,nan,2.600526809692383,3.800526809692383,0.0003597736358642578,0.1574105987548829,0.08517880249023424,0.0,-5.0,0.698650131281506,-0.009504201955388506,-0.022407004096494456,-0.009829910478431082,0.0,0.0,0.0,0.0
12.701690912246704,-0.04697665,0.22847246,-5.163553,0.014073918378313099,nan,nan,nan,nan,nan,2.701075553894043,3.901075553894043,0.00034689903259277344,0.1721577479044597,0.0556845041910806,0.0,-5.0,0.7006245669203653,0.011132892642037685,-0.022917103692559664,-0.011792137576114617,0.0,0.0,0.0,0.0
12.801421165466309,-0.05251503,0.21826619,-5.194786,0.01593595643062362,nan,nan,nan,nan,nan,2.8006339073181152,4.000633907318115,0.00042557716369628906,0.18675963973999032,0.0264807205200194,0.0,-5.0,0.702762876446274,0.026138184535561187,-0.0225645012854046,-0.01370014312878036,0.0,0.0,0.0,0.0
12.901214599609375,-0.0561126,0.20208322,-5.216951,0.015822739879871445,nan,nan,nan,nan,nan,2.9003403186798096,4.10034031867981,0.00036597251892089844,0.20138324673970548,-0.0027664934794109364,0.0,-5.0,0.7051418618654743,0.03825621679233227,-0.019649059454348323,-0.013742644975036383,0.0,0.0,0.0,0.0
13.00134825706482,-0.058580764,0.1767676,-5.2315335,0.014456712082804888,nan,nan,nan,nan,nan,3.0006542205810547,4.200654220581055,0.0003790855407714844,0.21609595235188808,-0.032191904703776156,0.0,-5.0,0.7080515761900165,0.04899620039995867,-0.01599285563370256,-0.012702565495456342,0.0,0.0,0.0,0.0
13.101126432418823,-0.056036156,0.15133175,-5.250128,0.01188097674021826,nan,nan,nan,nan,nan,3.1002562046051025,4.300256204605103,0.0003616809844970703,0.2307042433420818,-0.06140848668416359,0.0,-5.0,0.7101543060486579,0.054350756414004726,-0.010685765499371468,-0.010783297385793684,0.0,0.0,0.0,0.0
13.201189756393433,-0.04750734,0.12205087,-5.2642446,0.009674294726853999,nan,nan,nan,nan,nan,3.200310707092285,4.400310707092285,0.0003688335418701172,0.24537890370686855,-0.0907578074137371,0.0,-5.0,0.712118870723686,0.05540853514589999,-0.0029738255580650866,-0.008679266559147992,0.0,0.0,0.0,0.0
13.3022301197052,-0.035561584,0.092801765,-5.2690473,0.007702795883740893,nan,nan,nan,nan,nan,3.3013956546783447,4.501395654678345,0.0005114078521728516,0.26020469601949064,-0.12040939203898127,0.0,-5.0,0.7141643062682641,0.05250395605434889,0.005588308037722679,-0.007169702499712009,0.0,0.0,0.0,0.0
13.401426315307617,-0.024010222,0.06060857,-5.2679844,0.004469097605797152,nan,nan,nan,nan,nan,3.400606393814087,4.600606393814087,0.0003578662872314453,0.27475560442606617,-0.14951120885213234,0.0,-5.0,0.7163656006969095,0.046793775873231656,0.012481348308087952,-0.005174896937783127,0.0,0.0,0.0,0.0
13.501214981079102,-0.016326148,0.032051247,-5.2644987,0.0002854919435242555,nan,nan,nan,nan,nan,3.500380277633667,4.700380277633667,0.00036215782165527344,0.28938910738627127,-0.1787782147725425,0.0,-5.0,0.7184148895737927,0.038547510750254595,0.013180916872021579,-0.0016477151369070312,0.0,0.0,0.0,0.0
13.600911140441895,-0.006105766,0.005764822,-5.2560654,-0.0032490440643379763,nan,nan,nan,nan,nan,3.600037097930908,4.800037097930908,0.00047898292541503906,0.30400544102986665,-0.20801088205973325,0.0,-5.0,0.7204984347329106,0.028660873208525117,0.012779504047754287,0.0017165885130102031,0.0,0.0,0.0,0.0
13.701226949691772,0.011097071,-0.021702427,-5.2507286,-0.005261224342962572,nan,nan,nan,nan,nan,3.7003865242004395,4.90038652420044,0.0004794597625732422,0.31872335688273123,-0.2374467137654624,0.0,-5.0,0.7220596512377249,0.019100402173107055,0.014207424582345937,0.003766188806212321,0.0,0.0,0.0,0.0
13.80122709274292,0.03027311,-0.048611447,-5.245501,-0.004811380148163716,nan,nan,nan,nan,nan,3.8003673553466797,5.00036735534668,0.0003674030303955078,0.33338721211751315,-0.26677442423502623,0.0,-5.0,0.7232684732814134,0.009938236145551718,0.01703236353951394,0.0043123073425967795,0.0,0.0,0.0,0.0
13.901325941085815,0.048781127,-0.0694352,-5.2401166,-0.0022139754751960327,nan,nan,nan,nan,nan,3.9005300998687744,5.100530099868775,0.00035643577575683594,0.3480777479807537,-0.2961554959615073,0.0,-5.0,0.7243143019890776,-0.0005274935592438483,0.018430074116271615,0.0023592247721983817,0.0,0.0,0.0,0.0
14.001175165176392,0.0712601,-0.087379806,-5.23301,0.00033495248138762975,nan,nan,nan,nan,nan,4.000299453735352,5.200299453735352,0.0003643035888671875,0.3627105865478517,-0.32542117309570334,0.0,-5.0,0.725344346421023,-0.011649582332537782,0.01937107864369226,0.0002993194542828056,0.0,0.0,0.0,0.0
14.101094007492065,0.09315429,-0.108903,-5.2298045,0.0030973828286970017,nan,nan,nan,nan,nan,4.100214719772339,5.300214719772339,0.0004868507385253906,0.3773648255666098,-0.3547296511332196,0.0,-5.0,0.7260496695148417,-0.01672863886494418,0.0198786728363876,-0.0019406663746573034,0.0,0.0,0.0,0.0
14.20116114616394,0.11417501,-0.13158713,-5.2223845,0.004958858932449179,nan,nan,nan,nan,nan,4.200287103652954,5.400287103652954,0.00036644935607910156,0.3920421085357667,-0.3840842170715334,0.0,-5.0,0.7267263267146221,-0.018676484854501667,0.018816400414336305,-0.003706922856648531,0.0,0.0,0.0,0.0
14.301155805587769,0.13640179,-0.15258977,-5.215963,0.006297417306980619,nan,nan,nan,nan,nan,4.300369024276733,5.500369024276734,0.00042128562927246094,0.4,-0.38655841954549136,0.0,-5.0,0.7274309923545267,-0.005968095219843058,0.019465610716633643,-0.005017545636121285,0.0,0.0,0.0,0.0
14.400982141494751,0.16380763,-0.17773283,-5.208173,0.0068229140326574325,nan,nan,nan,nan,nan,4.400116920471191,5.600116920471192,0.0005249977111816406,0.4,-0.3572990366617837,0.0,-5.0,0.728015810813038,0.016383215539257513,0.02380039082212969,-0.006310929480267086,0.0,0.0,0.0,0.0
14.500983238220215,0.18759802,-0.20267558,-5.1992726,0.004960833517939954,nan,nan,nan,nan,nan,4.500111103057861,5.7001111030578615,0.0004382133483886719,0.4,-0.32796740976969385,0.0,-5.0,0.7288366281194041,0.038284503667277425,0.026785810924432673,-0.005462455921537261,0.0,0.0,0.0,0.0
14.602071046829224,0.21946691,-0.23822315,-5.1888824,0.0017082065552775135,nan,nan,nan,nan,nan,4.6012701988220215,5.801270198822022,0.0005114078521728516,0.4,-0.2982940750122069,0.0,-5.0,0.7295361529410763,0.05546038688014577,0.028493979735894827,-0.0036686356157618716,0.0,0.0,0.0,0.0
14.701225280761719,0.23965383,-0.26773193,-5.1808825,-0.0012395419311499265,nan,nan,nan,nan,nan,4.700427770614624,5.900427770614624,0.0003933906555175781,0.4,-0.2692078539530434,0.0,-5.0,0.7301500129534709,0.06610827446472223,0.02741414514126618,-0.0012568851091908687,0.0,0.0,0.0,0.0
14.801177024841309,0.26129022,-0.29622012,-5.172846,-0.00386102015498894,nan,nan,nan,nan,nan,4.800300121307373,6.000300121307373,0.0004761219024658203,0.4,-0.23991196441650375,0.0,-5.0,0.7305975723975164,0.07014331649878955,0.023873292645873883,0.0011876410239623938,0.0,0.0,0.0,0.0
14.901235580444336,0.28511605,-0.32147837,-5.165469,-0.0052295119597449684,nan,nan,nan,nan,nan,4.900376558303833,6.100376558303833,0.0003707408905029297,0.4,-0.2105562095642088,0.0,-5.0,0.7309243413207256,0.06444918767742122,0.01983726819812564,0.002847935449810574,0.0,0.0,0.0,0.0
15.001070737838745,0.30653858,-0.34029728,-5.1620774,-0.005541652794940212,nan,nan,nan,nan,nan,5.000195741653442,6.200195741653443,0.0003986358642578125,0.4,-0.18127591578165672,0.0,-5.0,0.730918112294019,0.05504135397481107,0.01577569372427144,0.0035556151002791893,0.0,0.0,0.0,0.0
15.101456642150879,0.33115128,-0.35916054,-5.1599693,-0.005077790181045431,nan,nan,nan,nan,nan,5.100649356842041,6.300649356842041,0.0004904270172119141,0.4,-0.15180952199300113,0.0,-5.0,0.7307804921730295,0.04417273248055974,0.012552482824792753,0.003633907809583809,0.0,0.0,0.0,0.0
15.201134204864502,0.3516071,-0.3750632,-5.1618,-0.00410822891402202,nan,nan,nan,nan,nan,5.200276136398315,6.400276136398316,0.0003788471221923828,0.4,-0.12258566665649395,0.0,-5.0,0.7304488111401405,0.03230928248605583,0.00973424621856385,0.0031276742625166542,0.0,0.0,0.0,0.0
15.301231145858765,0.37055844,-0.3894564,-5.163806,-0.002635639176601562,nan,nan,nan,nan,nan,5.3003857135772705,6.500385713577271,0.0003905296325683594,0.4,-0.09322019068400045,0.0,-5.0,0.7300183179649803,0.021955816774088092,0.006124712997846033,0.0021986667919611084,0.0,0.0,0.0,0.0
15.401832342147827,0.3844438,-0.39814547,-5.163986,-0.0016318786395980271,nan,nan,nan,nan,nan,5.400956630706787,6.600956630706787,0.0005674362182617188,0.4,-0.0637193883260089,0.0,-5.0,0.7298198255551364,0.013059159694248278,0.001594658987808812,0.0015422012529597324,0.0,0.0,0.0,0.0
15.501337051391602,0.3948014,-0.3986845,-5.1640606,-0.0002835151056918145,nan,nan,nan,nan,nan,5.50054407119751,6.70054407119751,0.0004119873046875,0.4,-0.03450707244873028,0.0,-5.0,0.7296065355068072,0.0018438089036976041,-0.0044497197617317154,0.0008965083048802488,0.0,0.0,0.0,0.0
15.601172924041748,0.4038069,-0.39555112,-5.165559,0.0012589015230719883,nan,nan,nan,nan,nan,5.600421190261841,6.800421190261841,0.00041294097900390625,0.4,-0.0052097841898598235,0.0,-5.0,0.7293023140299295,-0.008636414657887047,-0.010020004845189221,-0.00013861440651739447,0.0,0.0,0.0,0.0
15.701850175857544,0.40895966,-0.39003092,-5.1722054,0.0027149441355488503,nan,nan,nan,nan,nan,5.701283931732178,6.901283931732178,0.0004177093505859375,0.4,0.02437661997477232,0.0,-5.0,0.7287675032970646,-0.01568883970659536,-0.014472653535418796,-0.0012825714976311066,0.0,0.0,0.0,0.0
15.801234245300293,0.4106394,-0.38055572,-5.1776366,0.0035608275915066066,nan,nan,nan,nan,nan,5.80037522315979,7.00037522315979,0.00036334991455078125,0.4,0.05344339879353859,0.0,-5.0,0.7281467001366018,-0.020960703632983694,-0.018385194408503315,-0.0020749386223518516,0.0,0.0,0.0,0.0
15.901121616363525,0.40922827,-0.36461806,-5.178624,0.003990494616390422,nan,nan,nan,nan,nan,5.900242328643799,7.100242328643799,0.00037932395935058594,0.4,0.08273774973551458,0.0,-5.0,0.7280445796037688,-0.02492696526113173,-0.02164640767436055,-0.0024342496191299343,0.0,0.0,0.0,0.0
16.001320362091064,0.40787432,-0.3432935,-5.1810737,0.004008733072334257,nan,nan,nan,nan,nan,6.000629425048828,7.200629425048828,0.0003666877746582031,0.4,0.11218463134765644,0.0,-5.0,0.7279718427644676,-0.02998457213682731,-0.022823423376518267,-0.00271457902535965,0.0,0.0,0.0,0.0
16.101313829421997,0.40762088,-0.31589592,-5.1808343,0.004857368594255489,nan,nan,nan,nan,nan,6.100525379180908,7.300525379180908,0.0003914833068847656,0.4,0.14148744455973325,0.0,-5.0,0.7279907322197943,-0.034646313020536085,-0.021986223333594252,-0.003343140311043481,0.0,0.0,0.0,0.0
16.201262950897217,0.4042979,-0.2819033,-5.1796527,0.006181766849656146,nan,nan,nan,nan,nan,6.200463533401489,7.400463533401489,0.00039577484130859375,0.4,0.1708026364644371,0.0,-5.0,0.7280763158881136,-0.038727045496094514,-0.020502865221749853,-0.0045481559082965126,0.0,0.0,0.0,0.0
16.301180124282837,0.39986494,-0.24827197,-5.179134,0.007410573551905263,nan,nan,nan,nan,nan,6.3003411293029785,7.500341129302979,0.0003502368927001953,0.4,0.2001000645955406,0.0,-5.0,0.7282226847143809,-0.040556020916267,-0.019603149688866423,-0.005493004151469683,0.0,0.0,0.0,0.0
16.401889085769653,0.3973656,-0.22208552,-5.1791525,0.00961833855090891,nan,nan,nan,nan,nan,6.401254653930664,7.601254653930664,0.0006120204925537109,0.4,0.229701365152995,0.0,-5.0,0.7282158798518471,-0.035327315996577034,-0.017296923072097552,-0.0074362494241506155,0.0,0.0,0.0,0.0
16.501231908798218,0.39579746,-0.19673283,-5.167221,0.011444048723461636,nan,nan,nan,nan,nan,6.500478029251099,7.700478029251099,0.0003643035888671875,0.4,0.2588068885803225,0.0,-5.0,0.7288909879483043,-0.026106456282325375,-0.013650750938283232,-0.009061001133445394,0.0,0.0,0.0,0.0
16.60107970237732,0.392455,-0.17023468,-5.1591525,0.013183470580127536,nan,nan,nan,nan,nan,6.600281476974487,7.8002814769744875,0.0005788803100585938,0.4,0.28808256657918324,0.0,-5.0,0.7295214645823946,-0.017686584181694567,-0.010313007364605534,-0.010520879329148383,0.0,0.0,0.0,0.0
16.701515913009644,0.3869156,-0.13957335,-5.149568,0.014440213515820633,nan,nan,nan,nan,nan,6.700722694396973,7.900722694396973,0.0003981590270996094,0.4,0.3175453236897789,0.0,-5.0,0.7299800742645703,-0.011178183140494149,-0.00842063193515888,-0.01179894124365256,0.0,0.0,0.0,0.0
16.801849126815796,0.38139632,-0.11417408,-5.1437864,0.015137850848914933,nan,nan,nan,nan,nan,6.80131721496582,8.00131721496582,0.0003600120544433594,0.4,0.3470530497233073,0.0,-5.0,0.7303621725780223,-0.006425763358273248,-0.007585346554121817,-0.012428008735416005,0.0,0.0,0.0,0.0
16.901118516921997,0.374234,-0.08485583,-5.1427865,0.01699998069249478,nan,nan,nan,nan,nan,6.900246620178223,8.100246620178222,0.0003635883331298828,0.4,0.3760723419189453,0.0,-5.0,0.7302510510737097,-9.74226674697657e-05,-0.007484553548012479,-0.013729076556944348,0.0,0.0,0.0,0.0
17.001293182373047,0.3755074,-0.060982767,-5.142516,0.017209781881048603,nan,nan,nan,nan,nan,7.0005035400390625,8.200503540039062,0.0003924369812011719,0.4,0.3945189615885417,0.0,-5.0,0.7300282293014942,-0.001425675075029029,-0.0042877393698862315,-0.014461985802384572,0.0,0.0,0.0,0.0
17.10166025161743,0.37758765,-0.032014795,-5.1447206,0.01609404273910537,nan,nan,nan,nan,nan,7.101035118103027,8.301035118103027,0.00040435791015625,0.4,0.3650296986897787,0.0,-5.0,0.7296916667537432,-0.023004802387524947,0.0009486518149462899,-0.013957333363233777,0.0,0.0,0.0,0.0
17.20125102996826,0.38271555,-0.0025099725,-5.1521873,0.013775366615770054,nan,nan,nan,nan,nan,7.200463533401489,8.400463533401489,0.00036215782165527344,0.4,0.3358640302022299,0.0,-5.0,0.7291664114618428,-0.04112749487817503,0.006094652016849167,-0.012307862160631546,0.0,0.0,0.0,0.0
17.30106210708618,0.39095795,0.020380978,-5.1616864,0.011161545531666569,nan,nan,nan,nan,nan,7.300318479537964,8.500318479537963,0.0003726482391357422,0.4,0.3065732460021973,0.0,-5.0,0.7283504135809696,-0.05151465471789568,0.011710531970528773,-0.009848440611796861,0.0,0.0,0.0,0.0
17.40112280845642,0.40515268,0.03564561,-5.168863,0.008498408685887504,nan,nan,nan,nan,nan,7.400266408920288,8.600266408920287,0.00041604042053222656,0.4,0.2772551867167155,0.0,-5.0,0.7278386841329071,-0.04967539871730916,0.01860395510501098,-0.007332816135506948,0.0,0.0,0.0,0.0
17.50152349472046,0.41700184,0.05065366,-5.1712675,0.007342398645339534,nan,nan,nan,nan,nan,7.500737428665161,8.70073742866516,0.0007677078247070312,0.4,0.24778368759155278,0.0,-5.0,0.7276860900371677,-0.04471945213705377,0.02296405093888153,-0.005807811531846413,0.0,0.0,0.0,0.0
17.601409912109375,0.42957678,0.06765503,-5.178082,0.006449944415759317,nan,nan,nan,nan,nan,7.600644111633301,8.8006441116333,0.0005550384521484375,0.4,0.21847772725423178,0.0,-5.0,0.7274792006216397,-0.03930295941528844,0.024280309036576665,-0.004974003498797664,0.0,0.0,0.0,0.0
17.7011296749115,0.440492,0.08113012,-5.1855326,0.005497349984240373,nan,nan,nan,nan,nan,7.70032525062561,8.90032525062561,0.00041413307189941406,0.4,0.1892379264831543,0.0,-5.0,0.7271866678958109,-0.033726553202712256,0.02370795251547142,-0.004192158308624164,0.0,0.0,0.0,0.0
17.800928354263306,0.45158488,0.093257256,-5.191472,0.004463592285723551,nan,nan,nan,nan,nan,7.800095558166504,9.000095558166503,0.0004010200500488281,0.4,0.15997196960449223,0.0,-5.0,0.7269671847221107,-0.02595899662612073,0.021544184184547642,-0.0033902696221482106,0.0,0.0,0.0,0.0
17.901338577270508,0.46090132,0.10261002,-5.192419,0.003996691598910468,nan,nan,nan,nan,nan,7.90051531791687,9.10051531791687,0.0005347728729248047,0.4,0.1305155067443848,0.0,-5.0,0.7271174675578224,-0.020127259219185064,0.017714817449201378,-0.002948669432508326,0.0,0.0,0.0,0.0
18.002379179000854,0.46994314,0.112086065,-5.1891522,0.0036901003770641264,nan,nan,nan,nan,nan,8.001604795455933,9.201604795455932,0.0005877017974853516,0.4,0.10086259333292645,0.0,-5.0,0.7275548488259714,-0.013749704607110766,0.012717448237162383,-0.0028056468704424917,0.0,0.0,0.0,0.0
18.10105276107788,0.47603214,0.121589005,-5.1825633,0.0034599189070987652,nan,nan,nan,nan,nan,8.10020112991333,9.30020112991333,0.00046634674072265625,0.4,0.07194100189208985,0.0,-5.0,0.7281972433628833,-0.009518815832262604,0.008049482682214665,-0.0028090331107312174,0.0,0.0,0.0,0.0
18.201008319854736,0.4792072,0.13013811,-5.176132,0.0029756832027463785,nan,nan,nan,nan,nan,8.200356483459473,9.400356483459472,0.0005249977111816406,0.4,0.042562098185221366,0.0,-5.0,0.728878861618518,-0.007225149978964589,0.003160180911930631,-0.002559327620700881,0.0,0.0,0.0,0.0
18.301027059555054,0.47881442,0.13482916,-5.1725335,0.0026826814022869305,nan,nan,nan,nan,nan,8.300166845321655,9.500166845321655,0.0005431175231933594,0.4,0.01328439203898113,0.0,-5.0,0.7292414043956361,-0.0046881796093696205,-0.0026560456942542983,-0.0024058948800615722,0.0,0.0,0.0,0.0
18.40118408203125,0.47483966,0.1339287,-5.1701717,0.0026530747871485114,nan,nan,nan,nan,nan,8.400344133377075,9.600344133377074,0.0005788803100585938,0.4,-0.016100945790608723,0.0,-5.0,0.7294027110063289,-0.0006576078806869627,-0.008941909768366669,-0.0024837771490443727,0.0,0.0,0.0,0.0
18.50119137763977,0.47063208,0.12752718,-5.1657495,0.0025611091351063556,nan,nan,nan,nan,nan,8.500487804412842,9.700487804412841,0.0005581378936767578,0.4,-0.045476422627766945,0.0,-5.0,0.7296057019821782,0.005014321074255656,-0.014768092411285046,-0.002504582449745531,0.0,0.0,0.0,0.0
18.601157426834106,0.46877095,0.11715808,-5.162519,0.002777721317353158,nan,nan,nan,nan,nan,8.600327491760254,9.800327491760253,0.00047898292541503906,0.4,-0.07476273091634118,0.0,-5.0,0.729781988596474,0.010097668224977391,-0.018124314472888176,-0.002499783279872516,0.0,0.0,0.0,0.0
18.70117497444153,0.46772927,0.10252845,-5.1604137,0.0034770968982167916,nan,nan,nan,nan,nan,8.700337886810303,9.900337886810302,0.0004646778106689453,0.4,-0.1040991134643555,0.0,-5.0,0.7298604087566525,0.01497337734834154,-0.01732365978608965,-0.0028653069607627413,0.0,0.0,0.0,0.0
18.801088571548462,0.4645963,0.08172455,-5.1592755,0.004971839753210142,nan,nan,nan,nan,nan,8.800513982772827,10.000513982772826,0.0005025863647460938,0.4,-0.1334841016133627,0.0,-5.0,0.7299094068777199,0.020636335321956207,-0.0153375571659729,-0.003871479739543988,0.0,0.0,0.0,0.0
18.901692867279053,0.45794657,0.063586056,-5.16114,0.00560604933101795,nan,nan,nan,nan,nan,8.900898218154907,10.100898218154907,0.0005879402160644531,0.4,-0.16293014399210615,0.0,-5.0,0.7297001695763504,0.024407347388252364,-0.015189479825685914,-0.004619935699134106,0.0,0.0,0.0,0.0
19.00162434577942,0.4498807,0.038812798,-5.164137,0.005840936859940942,nan,nan,nan,nan,nan,9.000800848007202,10.200800848007201,0.0005171298980712891,0.4,-0.19223491541544596,0.0,-5.0,0.729476530638749,0.0245538350034606,-0.015316230964991994,-0.00488815422578242,0.0,0.0,0.0,0.0
19.10096287727356,0.43943852,0.017218325,-5.1642003,0.005721962560530677,nan,nan,nan,nan,nan,9.100117206573486,10.300117206573486,0.00046062469482421875,0.4,-0.22136771392822263,0.0,-5.0,0.7293868305215138,0.024416147774264242,-0.015813010017680693,-0.00481212194083121,0.0,0.0,0.0,0.0
19.201171398162842,0.42853507,-0.0074466113,-5.163096,0.005267279143714623,nan,nan,nan,nan,nan,9.200392007827759,10.400392007827758,0.0005145072937011719,0.4,-0.25078165562947596,0.0,-5.0,0.7294650729980001,0.022711451778857562,-0.01759122575468743,-0.004454483042951423,0.0,0.0,0.0,0.0
19.301401376724243,0.42294955,-0.034097653,-5.1615176,0.004848685329001251,nan,nan,nan,nan,nan,9.30055546760559,10.50055546760559,0.0006511211395263672,0.4,-0.2801629371643067,0.0,-5.0,0.7295815731605798,0.019512350241445573,-0.015252095122894679,-0.004119106574698383,0.0,0.0,0.0,0.0
19.401118278503418,0.42125824,-0.05850632,-5.1621795,0.005027343155270574,nan,nan,nan,nan,nan,9.40030574798584,10.60030574798584,0.00035834312438964844,0.4,-0.30942301940917977,0.0,-5.0,0.7295368700101869,0.01550241786881488,-0.010419457026721046,-0.004115866164365157,0.0,0.0,0.0,0.0
19.500910997390747,0.4174136,-0.08316675,-5.1663303,0.004368477263771348,nan,nan,nan,nan,nan,9.500056028366089,10.700056028366088,0.0005385875701904297,0.4,-0.3386831016540528,0.0,-5.0,0.7292936089998537,0.01044183011515486,-0.005737176091355938,-0.003932306334510685,0.0,0.0,0.0,0.0
19.600872039794922,0.41418248,-0.10660725,-5.1737556,0.0035945150476452436,nan,nan,nan,nan,nan,9.600021839141846,10.800021839141845,0.0011434555053710938,0.4,-0.3680064061482748,0.0,-5.0,0.7288889771182481,0.005045665559827488,-0.00254504717676127,-0.0031418607576454162,0.0,0.0,0.0,0.0
19.70101523399353,0.41156203,-0.12725402,-5.1800795,0.0033330602447880684,nan,nan,nan,nan,nan,9.700226783752441,10.90022678375244,0.000499725341796875,0.4,-0.39739985656738286,0.0,-5.0,0.728423443680792,-0.0004294051378031633,0.0007252300693094555,-0.002943542569157171,0.0,0.0,0.0,0.0
19.802112340927124,0.40802467,-0.148464,-5.1833587,0.002692913575853013,nan,nan,nan,nan,nan,9.801265001296997,11.001265001296996,0.0008342266082763672,0.3864811331431071,-0.3729622662862142,0.0,-5.0,0.7283003580331956,0.017049194377655893,0.008496200922639965,-0.002578331988297615,0.0,0.0,0.0,0.0
19.901251316070557,0.40482375,-0.16563597,-5.186292,0.0016786207526288664,nan,nan,nan,nan,nan,9.900507926940918,11.100507926940917,0.00035881996154785156,0.37192550404866537,-0.3438510080973307,0.0,-5.0,0.7282798096554747,0.031145329767156258,0.014098110623561953,-0.0020590018550880893,0.0,0.0,0.0,0.0
20.00114870071411,0.39891306,-0.18271369,-5.188707,0.000673378516546301,nan,nan,nan,nan,nan,10.000730991363525,11.200730991363525,0.0005283355712890625,0.35722612126668296,-0.3144522425333659,0.0,-5.0,0.7283266958389488,0.041338543990778284,0.016987351850263486,-0.0013992844879419696,0.0,0.0,0.0,0.0
20.101210117340088,0.3929247,-0.19903232,-5.191614,-0.00010891226589338984,nan,nan,nan,nan,nan,10.100461959838867,11.300461959838866,0.0004169940948486328,0.3425989125569662,-0.28519782511393227,0.0,-5.0,0.7283591299448126,0.0463173959843364,0.017066329169302282,-0.0007682431361351408,0.0,0.0,0.0,0.0
20.20122265815735,0.38703665,-0.21446,-5.1936307,-0.0006230108620826156,nan,nan,nan,nan,nan,10.20046615600586,11.400466156005859,0.0005471706390380859,0.327931630452474,-0.2558632609049479,0.0,-5.0,0.7283379516851917,0.04699837210813257,0.016111991441661592,-0.0003012270395321579,0.0,0.0,0.0,0.0
20.30115032196045,0.37880236,-0.22899915,-5.190417,-0.0009360400726522427,nan,nan,nan,nan,nan,10.300384759902954,11.500384759902953,0.000461578369140625,0.31327690188090007,-0.22655380376180012,0.0,-5.0,0.7287048759960557,0.04385036983876494,0.013501485343051725,8.621208267142027e-05,0.0,0.0,0.0,0.0
20.400940656661987,0.37906024,-0.24356608,-5.182175,-0.00036094895891937775,nan,nan,nan,nan,nan,10.40032172203064,11.600321722030639,0.0005431175231933594,0.2986194807688395,-0.19723896153767898,0.0,-5.0,0.7292589997604718,0.03905558937119713,0.012961003944525238,-0.00014778346352369582,0.0,0.0,0.0,0.0
20.501073360443115,0.37391368,-0.2554994,-5.174055,0.00023881590884185233,nan,nan,nan,nan,nan,10.500418663024902,11.700418663024902,0.0007357597351074219,0.283938596089681,-0.16787719217936195,0.0,-5.0,0.729815215043554,0.03252850400085221,0.01295061143007509,-0.000719798729312844,0.0,0.0,0.0,0.0
20.601318359375,0.37001,-0.26436222,-5.167036,0.0005420364101197152,nan,nan,nan,nan,nan,10.600582361221313,11.800582361221313,0.0003807544708251953,0.26924792035420736,-0.13849584070841467,0.0,-5.0,0.730228206370051,0.02423500889747481,0.010546658761755506,-0.0008589239392365175,0.0,0.0,0.0,0.0
20.700902223587036,0.36636242,-0.27248937,-5.1599994,0.0008881489943637251,nan,nan,nan,nan,nan,10.700069189071655,11.900069189071655,0.00045990943908691406,0.2546565189361572,-0.10931303787231439,0.0,-5.0,0.7306089688631198,0.017363723805681287,0.009752238498697665,-0.001167982087333465,0.0,0.0,0.0,0.0
20.801414966583252,0.35662353,-0.27791226,-5.1553416,0.0007072790902428391,nan,nan,nan,nan,nan,10.800626516342163,12.000626516342162,0.0005438327789306641,0.23990811093648273,-0.07981622187296544,0.0,-5.0,0.7308313752755077,0.010506352090593453,0.005481040047990153,-0.0009034272412590861,0.0,0.0,0.0,0.0
20.900964736938477,0.3390059,-0.28745642,-5.157846,0.00017054138578797423,nan,nan,nan,nan,nan,10.900200366973877,12.100200366973876,0.0005447864532470703,0.2253039461771647,-0.05060789235432939,0.0,-5.0,0.7305702248335508,0.007183140631993338,-0.0012129439163131963,-0.0002371521450566963,0.0,0.0,0.0,0.0
21.001068353652954,0.32578564,-0.2928558,-5.1609144,-0.00025243771728797326,nan,nan,nan,nan,nan,11.000333070755005,12.200333070755004,0.00042176246643066406,0.21061781628926593,-0.02123563257853185,0.0,-5.0,0.730166553691874,0.005772565656310863,-0.007150011137400568,0.00043661515879854995,0.0,0.0,0.0,0.0
21.101922512054443,0.31110147,-0.2916783,-5.166691,-0.0008445560754404488,nan,nan,nan,nan,nan,11.101221561431885,12.301221561431884,0.0005385875701904297,0.19582083765665687,0.008358324686686291,0.0,-5.0,0.7297166516279631,0.00345487266926419,-0.00983051681437796,0.0009757936128229861,0.0,0.0,0.0,0.0
21.20180606842041,0.30068877,-0.28477222,-5.17313,-0.0011956889305717935,nan,nan,nan,nan,nan,11.200999736785889,12.400999736785888,0.0004138946533203125,0.18118670527140296,0.037626589457194104,0.0,-5.0,0.7291604165579767,-0.0028048529772253944,-0.010630741892588525,0.001349300612435679,0.0,0.0,0.0,0.0
21.3008770942688,0.29156032,-0.27598235,-5.1897793,-0.0013355197504299615,nan,nan,nan,nan,nan,11.300124168395996,12.500124168395995,0.0005800724029541016,0.16664845530192057,0.06670308939615888,0.0,-5.0,0.7281872025565121,-0.007622034405199611,-0.008540269203063446,0.0014105591537281888,0.0,0.0,0.0,0.0
21.401313304901123,0.28799903,-0.26743776,-5.2056246,-0.0018316702375708836,nan,nan,nan,nan,nan,11.400671243667603,12.600671243667602,0.00040602684020996094,0.15190155092875157,0.09619689814249686,0.0,-5.0,0.7271415219931864,-0.01054621785942494,-0.0038665189934654824,0.001524104484363571,0.0,0.0,0.0,0.0
21.50086784362793,0.28689113,-0.25247937,-5.2226663,-0.0024431204747942005,nan,nan,nan,nan,nan,11.500028371810913,12.700028371810912,0.0003974437713623047,0.1373291721343994,0.12534165573120123,0.0,-5.0,0.726128986802052,-0.01372849798957753,0.0025772843963885956,0.0018096379956647406,0.0,0.0,0.0,0.0
21.60091996192932,0.28700984,-0.23315993,-5.2379,-0.0031096073569917976,nan,nan,nan,nan,nan,11.6000657081604,12.8000657081604,0.0005652904510498047,0.1226570294698079,0.15468594106038422,0.0,-5.0,0.7253146730573645,-0.018296945296759237,0.009316655597837687,0.002170969046519803,0.0,0.0,0.0,0.0
21.70095658302307,0.28625184,-0.21568932,-5.24785,-0.0038129674381655147,nan,nan,nan,nan,nan,11.700137615203857,12.900137615203857,0.000858306884765625,0.10797981643676753,0.18404036712646496,0.0,-5.0,0.7249738683025584,-0.019734150121967567,0.015016358042737174,0.0027199683837725824,0.0,0.0,0.0,0.0
21.800869941711426,0.27653533,-0.19414331,-5.2616324,-0.004247846793519196,nan,nan,nan,nan,nan,11.800004720687866,13.000004720687866,0.0008802413940429688,0.09333264096577959,0.21333471806844084,0.0,-5.0,0.7245254247166693,-0.02020284649601226,0.01460810682771142,0.003199251397449839,0.0,0.0,0.0,0.0
21.900960445404053,0.27275935,-0.1717505,-5.2661448,-0.004901774024025347,nan,nan,nan,nan,nan,11.900076866149902,13.100076866149902,0.0008447170257568359,0.07865539296468094,0.24268921407063815,0.0,-5.0,0.7245551604558924,-0.020696718896530946,0.012948204420209858,0.003719901733406753,0.0,0.0,0.0,0.0
22.00170397758484,0.26893377,-0.14524153,-5.266641,-0.006004029382743806,nan,nan,nan,nan,nan,12.000976800918579,13.200976800918578,0.00047516822814941406,0.06385673586527503,0.27228652826944993,0.0,-5.0,0.7249575875946328,-0.021001366675041294,0.011825345611719764,0.004518080105286889,0.0,0.0,0.0,0.0
22.101020336151123,0.26564395,-0.11949744,-5.2648234,-0.007022361950821104,nan,nan,nan,nan,nan,12.100168704986572,13.300168704986572,0.0004413127899169922,0.049308589935302696,0.30138282012939466,0.0,-5.0,0.7254887649112598,-0.020072215950623723,0.011246487141993453,0.00556577708617962,0.0,0.0,0.0,0.0
22.200905799865723,0.26239246,-0.09298216,-5.2621007,-0.007311200467635929,nan,nan,nan,nan,nan,12.200047969818115,13.400047969818115,0.0008301734924316406,0.034659631093343045,0.3306807378133139,0.0,-5.0,0.7259845144181906,-0.01749016312653913,0.010529991981006301,0.006005159468872591,0.0,0.0,0.0,0.0
22.300926208496094,0.25476232,-0.0740727,-5.2601886,-0.008098353562797575,nan,nan,nan,nan,nan,12.300037860870361,13.50003786087036,0.0009286403656005859,0.019994447072346946,0.36001110585530616,0.0,-5.0,0.7264194437689568,-0.010926437854001212,0.008447321957040585,0.006543054970846334,0.0,0.0,0.0,0.0
22.401108264923096,0.24521844,-0.051207095,-5.257918,-0.008939212021002441,nan,nan,nan,nan,nan,12.400234699249268,13.600234699249267,0.0003902912139892578,0.005298910776774024,0.389402178446452,0.0,-5.0,0.726818559660645,-0.004715194103667342,0.00478374413854821,0.007271233295200683,0.0,0.0,0.0,0.0
22.501036882400513,0.23547314,-0.031712413,-5.2555184,-0.009440759564761661,nan,nan,nan,nan,nan,12.500156164169312,13.70015616416931,0.0004551410675048828,0.0,0.3812875251770019,0.0,-5.0,0.7271181918568355,-0.015980738986675874,-0.0026180825353094316,0.007893667125719364,0.0,0.0,0.0,0.0
22.600778102874756,0.2228702,-0.010892562,-5.2509866,-0.00956289488818233,nan,nan,nan,nan,nan,12.599990844726562,13.799990844726562,0.0005662441253662109,0.0,0.3520026855468749,0.0,-5.0,0.7274546519771603,-0.030985224836604763,-0.010947604105900064,0.007956767064820763,0.0,0.0,0.0,0.0
22.7008056640625,0.20870218,0.011901242,-5.243007,-0.010151121919387595,nan,nan,nan,nan,nan,12.699926376342773,13.899926376342773,0.0005006790161132812,0.0,0.3226882629394531,0.0,-5.0,0.7281027677146682,-0.04532597679466066,-0.01828552970358313,0.008175456021544222,0.0,0.0,0.0,0.0
22.800771474838257,0.19205992,0.040346198,-5.236036,-0.01100949141652256,nan,nan,nan,nan,nan,12.799883842468262,13.999883842468261,0.0008280277252197266,0.0,0.2933674062093098,0.0,-5.0,0.7286955451923229,-0.05632858937296389,-0.023304351920457354,0.008498837795770695,0.0,0.0,0.0,0.0
22.900866746902466,0.17996788,0.06597066,-5.2307205,-0.012015398173139569,nan,nan,nan,nan,nan,12.899977445602417,14.099977445602416,0.0010058879852294922,0.0,0.2640066159566243,0.0,-5.0,0.7291478421511469,-0.06164373697864477,-0.025240708901525695,0.009026866813548227,0.0,0.0,0.0,0.0
23.00076675415039,0.16924667,0.092708394,-5.225996,-0.012884347393506534,nan,nan,nan,nan,nan,12.999874114990234,14.199874114990234,0.0005166530609130859,0.0,0.23470359293619783,0.0,-5.0,0.7294821593828215,-0.06232792868704742,-0.0234811337786432,0.009753160429561225,0.0,0.0,0.0,0.0
23.100783824920654,0.16193071,0.11330965,-5.220938,-0.013200551122504421,nan,nan,nan,nan,nan,13.099890232086182,14.299890232086181,0.0005311965942382812,0.0,0.20536553192138662,0.0,-5.0,0.7297757856394513,-0.05826757624417476,-0.01965681545550297,0.01023276555405886,0.0,0.0,0.0,0.0
23.200751304626465,0.15573761,0.13394415,-5.2076817,-0.013654407007119297,nan,nan,nan,nan,nan,13.199856519699097,14.399856519699096,0.0004928112030029297,0.0,0.17604208755493153,0.0,-5.0,0.7304513424748036,-0.04970429285752038,-0.013816040206948921,0.010854356858057279,0.0,0.0,0.0,0.0
23.301007747650146,0.15584593,0.14919318,-5.194341,-0.013986690331579323,nan,nan,nan,nan,nan,13.300113201141357,14.500113201141357,0.00042438507080078125,0.0,0.14663346099853505,0.0,-5.0,0.7312557034935762,-0.03904797669281856,-0.006546560824089698,0.011475047808247494,0.0,0.0,0.0,0.0
23.400843143463135,0.1540686,0.15699732,-5.176772,-0.013730735519334812,nan,nan,nan,nan,nan,13.399955987930298,14.599955987930297,0.00040078163146972656,0.0,0.11734624354044586,0.0,-5.0,0.7319261147733839,-0.027784132309297493,-0.0004525246288622708,0.011788872158016873,0.0,0.0,0.0,0.0
23.50085973739624,0.14755219,0.15597416,-5.1673803,-0.012930304165344185,nan,nan,nan,nan,nan,13.499962329864502,14.699962329864501,0.00041985511779785156,0.0,0.08801104990641268,0.0,-5.0,0.7324288939627509,-0.010252392053765083,0.0035651791620531044,0.01132482608031916,0.0,0.0,0.0,0.0
23.600926160812378,0.13528603,0.15103571,-5.1625557,-0.01186401275630904,nan,nan,nan,nan,nan,13.600050687789917,14.800050687789916,0.0006155967712402344,0.0,0.0586517982482909,0.0,-5.0,0.7323643025322866,0.0044180082034848325,0.0014328067590178954,0.01034423387673079,0.0,0.0,0.0,0.0
23.7007999420166,0.12211263,0.14065172,-5.160154,-0.0102948931045041,nan,nan,nan,nan,nan,13.699908018112183,14.899908018112182,0.0004520416259765625,0.0,0.02936031468709297,0.0,-5.0,0.7320990432958255,0.018494456408245593,-0.0019141311040928675,0.009099996501666983,0.0,0.0,0.0,0.0
23.80090308189392,0.11361997,0.12785652,-5.158559,-0.008930724362097492,nan,nan,nan,nan,nan,13.800016641616821,15.00001664161682,0.0003559589385986328,0.0,-4.8815409343205836e-06,0.0,-5.0,0.7317629113503543,0.028665315135936734,-0.0035744842892849764,0.007822101793234568,0.0,0.0,0.0,0.0
23.900819063186646,0.10998744,0.11494582,-5.1611195,-0.007842390543383681,nan,nan,nan,nan,nan,13.899926662445068,15.099926662445068,0.0003223419189453125,0.0,-0.029311820983886874,0.0,-5.0,0.7312811638250154,0.03393434248365821,-0.0030107449615217182,0.006895023821828781,0.0,0.0,0.0,0.0
24.000803470611572,0.108119644,0.10130421,-5.164963,-0.006556956041947774,nan,nan,nan,nan,nan,13.999916553497314,15.199916553497314,0.0005884170532226562,0.0,-0.05864218902587899,0.0,-5.0,0.7306396745859496,0.034495691643160714,0.0004570675736334278,0.005903484308122654,0.0,0.0,0.0,0.0
24.100784301757812,0.10343423,0.08381207,-5.1678834,-0.004987067336467357,nan,nan,nan,nan,nan,14.099892616271973,15.299892616271972,0.0003287792205810547,0.0,-0.0879685007731121,0.0,-5.0,0.7301190469980234,0.03291750286956318,0.0027787883226282465,0.004665616386944991,0.0,0.0,0.0,0.0
24.201144218444824,0.094583735,0.0687068,-5.1674843,-0.003160747099529699,nan,nan,nan,nan,nan,14.200251579284668,15.400251579284667,0.0003685951232910156,0.0,-0.11740712992350276,0.0,-5.0,0.7298793057190556,0.027419863492070613,0.0021485228920918482,0.0031892061579063603,0.0,0.0,0.0,0.0
24.300872087478638,0.08608831,0.049445286,-5.167339,-0.002235889817239071,nan,nan,nan,nan,nan,14.299994945526123,15.499994945526122,0.00040602684020996094,0.0,-0.14666518402099626,0.0,-5.0,0.729709083566802,0.02243488871261849,7.70224266690999e-05,0.002112945034622716,0.0,0.0,0.0,0.0
24.40098237991333,0.07788333,0.03162669,-5.173569,-0.0018380344560200053,nan,nan,nan,nan,nan,14.400105237960815,15.600105237960815,0.0003414154052734375,0.0,-0.17603086980183935,0.0,-5.0,0.7293435080962222,0.017764618369076564,-0.0022341891757027047,0.0016612996947118408,0.0,0.0,0.0,0.0
24.50077533721924,0.0662931,0.014040829,-5.184692,-0.0018592262884637484,nan,nan,nan,nan,nan,14.499885082244873,15.699885082244872,0.0004646778106689453,0.0,-0.2052996241251629,0.0,-5.0,0.7285461669024369,0.011931998986937958,-0.004449236165901707,0.0014511911376810119,0.0,0.0,0.0,0.0
24.600837230682373,0.04892263,-0.005194985,-5.1974783,-0.002925732382815133,nan,nan,nan,nan,nan,14.599949359893799,15.799949359893798,0.0003342628479003906,0.0,-0.23465181223551446,0.0,-5.0,0.7276559714505496,0.007890724702057502,-0.010630070381895984,0.0022327344035458882,0.0,0.0,0.0,0.0
24.701228857040405,0.037221547,-0.02969845,-5.2114,-0.0034808160060781157,nan,nan,nan,nan,nan,14.700342655181885,15.900342655181884,0.00037860870361328125,0.0,-0.26410051218668634,0.0,-5.0,0.7268849294289609,0.0067123814319264945,-0.013759937719585521,0.0028573424753360254,0.0,0.0,0.0,0.0
24.800846338272095,0.030072937,-0.056264833,-5.222498,-0.0033529081969904777,nan,nan,nan,nan,nan,14.799971580505371,15.99997158050537,0.0003285408020019531,0.0,-0.2933249969482423,0.0,-5.0,0.7263748207038295,0.006559565284153592,-0.012783709696438418,0.0029351142589992365,0.0,0.0,0.0,0.0
24.90096950531006,0.024190566,-0.089220755,-5.231702,-0.0028587200904018686,nan,nan,nan,nan,nan,14.900075435638428,16.100075435638427,0.0003917217254638672,0.0,-0.32268879445393894,0.0,-5.0,0.7261096217122953,0.008768637087248789,-0.009192473318620262,0.0026173822454508226,0.0,0.0,0.0,0.0
25.00103521347046,0.020240644,-0.12092313,-5.2399035,-0.002207250989620215,nan,nan,nan,nan,nan,15.000154733657837,16.200154733657836,0.0003528594970703125,0.0,-0.35204538853963235,0.0,-5.0,0.7260036725138931,0.012830425931573628,-0.004770511550914489,0.002138144702127059,0.0,0.0,0.0,0.0
25.100821018218994,0.017869579,-0.15447444,-5.251785,-0.0008233613075262752,nan,nan,nan,nan,nan,15.099928379058838,16.299928379058837,0.00033593177795410156,0.0,-0.38131232452392594,0.0,-5.0,0.7256711978608448,0.01433900338491946,0.0002526720652293678,0.0010924295646045198,0.0,0.0,0.0,0.0
25.200804948806763,0.012384951,-0.18964295,-5.2597218,-0.00017870911666870225,nan,nan,nan,nan,nan,15.199915170669556,16.399915170669555,0.0003323554992675781,-0.0053208916982015715,-0.3893582166035969,0.0,-5.0,0.72556774647293,0.02745303662774399,0.005220851013533415,0.00020580109237077106,0.0,0.0,0.0,0.0
25.30078101158142,0.010732304,-0.22234125,-5.2633023,0.0006733109506548906,nan,nan,nan,nan,nan,15.299884796142578,16.499884796142577,0.0003325939178466797,-0.019983103434244868,-0.3600337931315103,0.0,-5.0,0.7257748664249373,0.0484299418249851,0.012154394952834222,-0.0006769007410637142,0.0,0.0,0.0,0.0
25.401183366775513,0.010359963,-0.24746233,-5.2652497,0.0014004506198308925,nan,nan,nan,nan,nan,15.400303363800049,16.600303363800048,0.0003590583801269531,-0.03471116002400724,-0.33057767995198556,0.0,-5.0,0.7261291934443737,0.060719968973433826,0.018512765171810434,-0.0018574961482858252,0.0,0.0,0.0,0.0
25.500851154327393,0.010005095,-0.27631444,-5.2664766,0.0020173795097442396,nan,nan,nan,nan,nan,15.499958992004395,16.699958992004394,0.0003159046173095703,-0.04932731882731128,-0.30134536234537745,0.0,-5.0,0.7264088861021692,0.06505432018389422,0.02249725666485509,-0.0027278363170933754,0.0,0.0,0.0,0.0
25.60103964805603,0.009457555,-0.29637235,-5.2651367,0.0023034608358951606,nan,nan,nan,nan,nan,15.60018539428711,16.80018539428711,0.00036406517028808594,-0.06402719116210946,-0.2719456176757811,0.0,-5.0,0.7268545450338398,0.061849619575093884,0.02432004419868448,-0.003294937596024085,0.0,0.0,0.0,0.0
25.70091223716736,0.012127807,-0.31528205,-5.2626343,0.0031766483399793804,nan,nan,nan,nan,nan,15.700022220611572,16.90002222061157,0.0003407001495361328,-0.07866992568969736,-0.2426601486206053,0.0,-5.0,0.7272819019574519,0.05467705729607559,0.025336568953817053,-0.004021317172357732,0.0,0.0,0.0,0.0
25.801295042037964,0.016344631,-0.33400223,-5.257818,0.004544092660469724,nan,nan,nan,nan,nan,15.800631761550903,17.000631761550903,0.0007882118225097656,-0.09342599169413257,-0.21314801661173488,0.0,-5.0,0.7277690557694697,0.046080899379145626,0.026080597696785363,-0.005075368497910392,0.0,0.0,0.0,0.0
25.900792598724365,0.021222463,-0.3504941,-5.254922,0.005765824641868457,nan,nan,nan,nan,nan,15.899906158447266,17.099906158447265,0.0003361701965332031,-0.10798623657226572,-0.18402752685546858,0.0,-5.0,0.72817625240885,0.03685948808242542,0.026170930189781564,-0.006141276557524407,0.0,0.0,0.0,0.0
26.000936269760132,0.025766071,-0.3624385,-5.252616,0.0062307877263982105,nan,nan,nan,nan,nan,16.00005006790161,17.20005006790161,0.0003464221954345703,-0.12267400995890308,-0.15465198008219386,0.0,-5.0,0.7283470365189513,0.02668968562415105,0.025413050082571772,-0.006705735120439755,0.0,0.0,0.0,0.0
26.100860118865967,0.030081257,-0.36803806,-5.2440743,0.0061399547486864735,nan,nan,nan,nan,nan,16.099971055984497,17.299971055984496,0.0003368854522705078,-0.13732908821105966,-0.1253418235778807,0.0,-5.0,0.7289259613466325,0.016614956751743015,0.0241320312375669,-0.006612722791923436,0.0,0.0,0.0,0.0
26.20090675354004,0.03516819,-0.36415273,-5.2337756,0.006104279754243727,nan,nan,nan,nan,nan,16.200013160705566,17.400013160705566,0.00035881996154785156,-0.15200193023681652,-0.09599613952636701,0.0,-5.0,0.7295726953986957,0.003383410747453797,0.021573250166228353,-0.006243163468589227,0.0,0.0,0.0,0.0
26.301307201385498,0.035788633,-0.36107838,-5.222322,0.00618399671692384,nan,nan,nan,nan,nan,16.300437927246094,17.500437927246093,0.0003330707550048828,-0.16673089599609384,-0.06653820800781234,0.0,-5.0,0.730244921741691,-0.007620016514061943,0.017313876332138857,-0.005980557806249507,0.0,0.0,0.0,0.0
26.40085005760193,0.031191647,-0.355661,-5.2097707,0.0065166954308601074,nan,nan,nan,nan,nan,16.399959564208984,17.599959564208984,0.000339508056640625,-0.18132740275065115,-0.037345194498697734,0.0,-5.0,0.7308685081799604,-0.014336574102082781,0.010859047190386044,-0.005838514381820268,0.0,0.0,0.0,0.0
26.500980138778687,0.022478078,-0.34603682,-5.198883,0.006644850355147228,nan,nan,nan,nan,nan,16.500099182128906,17.700099182128906,0.000347137451171875,-0.1960145467122397,-0.007970906575520643,0.0,-5.0,0.7313395606447131,-0.018890205807361213,0.002830663097257805,-0.005746977960535964,0.0,0.0,0.0,0.0
26.600894451141357,0.0137561895,-0.3329589,-5.191452,0.00623353715046145,nan,nan,nan,nan,nan,16.600006103515625,17.800006103515624,0.0005323886871337891,-0.2106675618489584,0.021335123697916816,0.0,-5.0,0.7315459741479586,-0.022866845987336116,-0.003800251121249066,-0.005291061182911003,0.0,0.0,0.0,0.0
26.70082402229309,-0.00041092,-0.31945622,-5.1898103,0.005779809980792562,nan,nan,nan,nan,nan,16.699933767318726,17.899933767318725,0.0003769397735595703,-0.22532361920674654,0.050647238413493056,0.0,-5.0,0.7314129977128899,-0.023970779366875195,-0.01005908900221248,-0.0047209508278294185,0.0,0.0,0.0,0.0
26.800762176513672,-0.02193415,-0.30259472,-5.191319,0.005785873333225826,nan,nan,nan,nan,nan,16.799875020980835,17.999875020980834,0.000335693359375,-0.2399816697438559,0.07996333948771178,0.0,-5.0,0.7310325768438249,-0.023786902812437862,-0.017739862806616737,-0.004393993553736049,0.0,0.0,0.0,0.0
26.900858640670776,-0.046097036,-0.28525963,-5.1913257,0.006277463614464161,nan,nan,nan,nan,nan,16.899972438812256,18.099972438812255,0.00035762786865234375,-0.25466262435913095,0.10932524871826194,0.0,-5.0,0.7306377040818899,-0.02241489448085093,-0.02524489150089132,-0.004571342554874049,0.0,0.0,0.0,0.0
27.001023054122925,-0.07633375,-0.26353097,-5.1866765,0.007369808979287041,nan,nan,nan,nan,nan,17.000154972076416,18.200154972076415,0.0003490447998046875,-0.2693560625712078,0.13871212514241557,0.0,-5.0,0.7306597465296691,-0.02030485656541391,-0.03247741150075522,-0.005285040040897876,0.0,0.0,0.0,0.0
27.10086989402771,-0.10216611,-0.23949948,-5.1806383,0.007855140152704096,nan,nan,nan,nan,nan,17.099982023239136,18.299982023239135,0.00032520294189453125,-0.2839973634084067,0.16799472681681335,0.0,-5.0,0.7308381191367199,-0.01922582030056813,-0.03608940053140526,-0.005889682092679626,0.0,0.0,0.0,0.0
27.20096468925476,-0.13035332,-0.2066311,-5.180094,0.007559857902470553,nan,nan,nan,nan,nan,17.200079202651978,18.400079202651977,0.0003781318664550781,-0.2986782830556235,0.19735656611124697,0.0,-5.0,0.7307580426460594,-0.0197437571481345,-0.035922407510610245,-0.005987175663717874,0.0,0.0,0.0,0.0
27.30115008354187,-0.15356702,-0.17450449,-5.1812987,0.007275900372744437,nan,nan,nan,nan,nan,17.300275087356567,18.500275087356567,0.0003402233123779297,-0.31337367947896333,0.22674735895792664,0.0,-5.0,0.7304706318656696,-0.02123430177632214,-0.03258345901322427,-0.005795947353857043,0.0,0.0,0.0,0.0
27.400847673416138,-0.17745987,-0.13739681,-5.1831355,0.007316515841194498,nan,nan,nan,nan,nan,17.399962186813354,18.599962186813354,0.0003428459167480469,-0.3279944540659588,0.25598890813191755,0.0,-5.0,0.7301943864599231,-0.02226085347182871,-0.026645353584325564,-0.005922688378019525,0.0,0.0,0.0,0.0
27.500940322875977,-0.20018077,-0.10081063,-5.1857066,0.007436093179319615,nan,nan,nan,nan,nan,17.500104188919067,18.700104188919067,0.0003676414489746094,-0.34268194770813,0.28536389541626,0.0,-5.0,0.7298976426547159,-0.023925514154275112,-0.02054887079168771,-0.006176789771494657,0.0,0.0,0.0,0.0
27.600841760635376,-0.2276567,-0.06203803,-5.1944356,0.0071325481888915,nan,nan,nan,nan,nan,17.5999493598938,18.799949359893798,0.00038433074951171875,-0.3573259061177573,0.3146518122355145,0.0,-5.0,0.7292814679133311,-0.02332016466659136,-0.01575350735199429,-0.006096846456387217,0.0,0.0,0.0,0.0
27.701086282730103,-0.24983066,-0.025433535,-5.2048826,0.005832425394314163,nan,nan,nan,nan,nan,17.700206756591797,18.900206756591796,0.00034308433532714844,-0.37203032430013033,0.34406064860026064,0.0,-5.0,0.7285928705547428,-0.021814999190118547,-0.010245975989590945,-0.005349764904503297,0.0,0.0,0.0,0.0
27.801175832748413,-0.2744773,0.012298891,-5.2123127,0.003935333468845979,nan,nan,nan,nan,nan,17.800286769866943,19.000286769866943,0.0003414154052734375,-0.3867087262471518,0.37341745249430364,0.0,-5.0,0.7281198444577838,-0.018465471614888308,-0.004600832759259351,-0.003992465400192457,0.0,0.0,0.0,0.0
27.901333332061768,-0.2954787,0.04231201,-5.2176065,0.0025328111693920592,nan,nan,nan,nan,nan,17.9007465839386,19.100746583938598,0.0003380775451660156,-0.4,0.3971143353780109,0.0,-5.0,0.7279200724046954,-0.016933771828110955,-0.0015735209894165117,-0.0024840658031092065,0.0,0.0,0.0,0.0
28.000981092453003,-0.31844825,0.072848424,-5.2256403,0.001770624622246857,nan,nan,nan,nan,nan,18.000092029571533,19.200092029571532,0.0003490447998046875,-0.4,0.3679730046590167,0.0,-5.0,0.7275219544453966,-0.034428451284312156,-0.00558377023460196,-0.0017323754453927405,0.0,0.0,0.0,0.0
28.101035833358765,-0.33991027,0.10919529,-5.233907,0.0010667236942074935,nan,nan,nan,nan,nan,18.10015606880188,19.30015606880188,0.00046372413635253906,-0.4,0.3386208864847817,0.0,-5.0,0.727247960500378,-0.04903699913688202,-0.007522241556954103,-0.0012719308815909711,0.0,0.0,0.0,0.0
28.200957536697388,-0.35541388,0.13852905,-5.238527,0.0005623329888225481,nan,nan,nan,nan,nan,18.200067281723022,19.40006728172302,0.0003566741943359375,-0.4,0.30931359736124653,0.0,-5.0,0.7272142798045045,-0.05714193852280057,-0.007348975269363731,-0.0008541341510815841,0.0,0.0,0.0,0.0
28.30094861984253,-0.37080708,0.16833574,-5.243866,-1.1230700063353735e-05,nan,nan,nan,nan,nan,18.300056219100952,19.50005621910095,0.0003921985626220703,-0.4,0.2799835090637205,0.0,-5.0,0.7273098446642912,-0.05839025537531527,-0.00550311185070836,-0.0004085345352193834,0.0,0.0,0.0,0.0
28.401030778884888,-0.38383442,0.19469705,-5.2503734,-0.0007458942141040847,nan,nan,nan,nan,nan,18.400157690048218,19.600157690048217,0.00034332275390625,-0.4,0.25062041091918924,0.0,-5.0,0.7271662456583531,-0.05572152662056268,-0.0031968680471992066,0.0003167034479299316,0.0,0.0,0.0,0.0
28.50096559524536,-0.39435846,0.22304484,-5.2605066,-0.0012787091016266457,nan,nan,nan,nan,nan,18.500076055526733,19.700076055526733,0.0003540515899658203,-0.4,0.221311023712158,0.0,-5.0,0.7267915844525035,-0.05187614869816789,0.00014079182639752368,0.0009648557901500564,0.0,0.0,0.0,0.0
28.600791215896606,-0.39979202,0.24676034,-5.266664,-0.0019351705281036736,nan,nan,nan,nan,nan,18.599901914596558,19.799901914596557,0.0003476142883300781,-0.4,0.19202877171834287,0.0,-5.0,0.7266010074044786,-0.04526202465265676,0.005210796080187072,0.0017479289863191435,0.0,0.0,0.0,0.0
28.700895309448242,-0.40971577,0.26799408,-5.2722316,-0.0021474281492075975,nan,nan,nan,nan,nan,18.70000672340393,19.90000672340393,0.0003445148468017578,-0.4,0.16266469446818013,0.0,-5.0,0.7265483591985239,-0.03597677371585451,0.008523861242644487,0.002217982143494716,0.0,0.0,0.0,0.0
28.801020622253418,-0.4165849,0.28356594,-5.278243,-0.002067474312807089,nan,nan,nan,nan,nan,18.800132036209106,20.000132036209106,0.0003440380096435547,-0.4,0.13329460271199522,0.0,-5.0,0.726470721709884,-0.026046688022772636,0.008906090518976244,0.0021996599996082816,0.0,0.0,0.0,0.0
28.900914430618286,-0.41948676,0.2955707,-5.2867246,-0.0022330923451593064,nan,nan,nan,nan,nan,18.900047540664673,20.100047540664672,0.0003609657287597656,-0.4,0.10398605473836242,0.0,-5.0,0.7262500666925544,-0.015096880849679266,0.010501575873051634,0.0022461281959716764,0.0,0.0,0.0,0.0
29.001040935516357,-0.41871628,0.30144134,-5.296885,-0.0027958510326892873,nan,nan,nan,nan,nan,19.00016450881958,20.20016450881958,0.0003466606140136719,-0.4,0.07461841074625629,0.0,-5.0,0.7257383404623874,-0.005403991156789272,0.012854215160449746,0.0027479505114743922,0.0,0.0,0.0,0.0
29.100746154785156,-0.4160604,0.30341336,-5.3122087,-0.003462452585859307,nan,nan,nan,nan,nan,19.09985375404358,20.29985375404358,0.0003352165222167969,-0.4,0.04537623214721656,0.0,-5.0,0.7251647795359096,0.00422516800726,0.014740876494713949,0.003269672125919137,0.0,0.0,0.0,0.0
29.201048135757446,-0.404443,0.30419156,-5.325528,-0.0037209348371319874,nan,nan,nan,nan,nan,19.200170516967773,20.400170516967773,0.00036144256591796875,-0.4,0.015949981689452875,0.0,-5.0,0.7246585203972458,0.011273374596100857,0.018042116361897592,0.0036622349592863876,0.0,0.0,0.0,0.0
29.301118850708008,-0.39010626,0.30303305,-5.3347936,-0.0037090090393698625,nan,nan,nan,nan,nan,19.300235748291016,20.500235748291015,0.00034546852111816406,-0.4,-0.013402486165364814,0.0,-5.0,0.7244108813854038,0.015285888981789444,0.023678042333406913,0.0038045377534552923,0.0,0.0,0.0,0.0
29.400837659835815,-0.37923557,0.29891077,-5.338006,-0.0031297776501791087,nan,nan,nan,nan,nan,19.399949312210083,20.599949312210082,0.0003619194030761719,-0.4,-0.04265179824829124,0.0,-5.0,0.7246058927114942,0.017138295452935954,0.026383945972131565,0.003444668501535066,0.0,0.0,0.0,0.0
29.501377820968628,-0.37159592,0.28793278,-5.339635,-0.0031791127462098747,nan,nan,nan,nan,nan,19.5007061958313,20.700706195831298,0.00042700767517089844,-0.4,-0.07220715077718128,0.0,-5.0,0.7249360911209697,0.019006566511123726,0.02474925542820073,0.0031336059036679324,0.0,0.0,0.0,0.0
29.600974082946777,-0.36576447,0.27366903,-5.334143,-0.0036640605931887275,nan,nan,nan,nan,nan,19.600085258483887,20.800085258483886,0.00035190582275390625,-0.4,-0.101358342488607,0.0,-5.0,0.7256140256409604,0.02137777123073153,0.019852906605517105,0.0032435773087115985,0.0,0.0,0.0,0.0
29.701039791107178,-0.35924932,0.254003,-5.3273377,-0.0036747128585889657,nan,nan,nan,nan,nan,19.700148105621338,20.900148105621337,0.00035858154296875,-0.4,-0.1307101109822594,0.0,-5.0,0.7263940613258932,0.0234148019611573,0.014639637231961803,0.003359283330217936,0.0,0.0,0.0,0.0
29.800902843475342,-0.3553817,0.23061755,-5.3227606,-0.003441570263378253,nan,nan,nan,nan,nan,19.800020456314087,21.000020456314086,0.00034737586975097656,-0.4,-0.16000600051879907,0.0,-5.0,0.7270696748746145,0.02553502414500062,0.009951015601335156,0.0029916348224472648,0.0,0.0,0.0,0.0
29.90085768699646,-0.35442024,0.1997576,-5.320798,-0.0035297240408345178,nan,nan,nan,nan,nan,19.89998149871826,21.09998149871826,0.00040602684020996094,-0.4,-0.18932790629069035,0.0,-5.0,0.7274319146930867,0.02838562484178101,0.0043397184791732525,0.002923253734339143,0.0,0.0,0.0,0.0
30.00080394744873,-0.35435498,0.17199883,-5.323766,-0.004337416896014171,nan,nan,nan,nan,nan,19.99991226196289,21.19991226196289,0.00033402442932128906,-0.4,-0.21864093017578157,0.0,-5.0,0.7273605459063119,0.030395033884232935,-0.001487258178456186,0.0035056771706194483,0.0,0.0,0.0,0.0
30.101285696029663,-0.35995534,0.13272376,-5.3249445,-0.005992380025178144,nan,nan,nan,nan,nan,20.100401401519775,21.300401401519775,0.0003345012664794922,-0.4,-0.24811774444580106,0.0,-5.0,0.7273390700159733,0.03155318832911987,-0.007842552114409682,0.0045889777037319895,0.0,0.0,0.0,0.0
