time,x,y,z,yaw,platform,trajectory,traj_double,traj_short,traj_spin,traj_time,ref_time,comptime,x_ref,y_ref,yaw_ref,z_ref,throttle_input,p_input,q_input,r_input,cbf_term_pitch_cbf,cbf_term_roll_cbf,cbf_term_thrust_cbf,cbf_term_yaw_cbf
10.002324104309082,0.021546612,0.0059281,-2.935857,0.000653721632022479,SIM,CIRCLE_VERTICAL,NormSpd,Not Short,NoSpin,9.5367431640625e-07,1.2000009536743164,0.010566234588623047,0.1397773084429071,0.0,0.0,-5.320877397216533,0.7778971914502922,-0.0004752785523414702,-0.012502903039754485,-0.0002293919109372685,0.0,0.0,0.0,0.0
10.102213621139526,0.027374852,0.008193287,-2.9461372,0.001118451253484519,nan,nan,nan,nan,nan,0.09981441497802734,1.2998144149780273,0.0006148815155029297,0.10821566134109842,0.0,0.0,-5.332850372751044,0.7831304956994928,-0.0005125072950866008,-0.028385292967266933,-0.0009115501787030471,0.0,0.0,-131.3026340022573,0.0
10.202255964279175,0.03083798,0.009677575,-2.9559948,0.0014816568815375004,nan,nan,nan,nan,nan,0.19988059997558594,1.399880599975586,0.0006139278411865234,0.07556391273466143,0.0,0.0,-5.341745658483364,0.7927498552810338,0.00027357828913477473,-0.023091905635051757,-0.0012268358763859594,0.0,0.0,-101.76876993549396,0.0
10.302148342132568,0.036269538,0.013823379,-2.9801528,0.0020023574076419547,nan,nan,nan,nan,nan,0.2997138500213623,1.4997138500213623,0.0004394054412841797,0.0422839424025527,0.0,0.0,-5.347436423270356,0.801351226755835,-0.0003244756434368165,-0.008618381486508148,-0.001626722852995412,0.0,0.0,-72.23942649527572,0.0
10.402190923690796,0.046193093,0.009597407,-3.0199194,0.0028374422121595893,nan,nan,nan,nan,nan,0.39975905418395996,1.59975905418396,0.0005209445953369141,0.008538804880989423,0.0,0.0,-5.349895825655587,0.8090523709300507,0.0012587105847446615,0.006587381289998212,-0.002067625493221627,0.0,0.0,-39.66130757791566,0.0
10.502256155014038,0.054139283,0.0018586798,-3.0746608,0.003972577178867076,nan,nan,nan,nan,nan,0.4998452663421631,1.699845266342163,0.0005435943603515625,-0.025299966968771362,0.0,0.0,-5.349084390472245,0.8159553156155077,0.006186806274131247,0.020865755463542912,-0.002969631364516622,0.0,0.0,-2.8726632380484167,0.0
10.602186918258667,0.061596736,-0.0073588258,-3.1583219,0.005171140175529712,nan,nan,nan,nan,nan,0.599729061126709,1.799729061126709,0.00043964385986328125,-0.05883460538484382,0.0,0.0,-5.345019549024704,0.8070435521248478,0.011774305292074244,0.030704462866951936,-0.004060310517953974,0.0,0.0,0.0,0.0
10.702049732208252,0.07281636,-0.013953573,-3.2586246,0.00618696221443735,nan,nan,nan,nan,nan,0.6995959281921387,1.8995959281921386,0.0005137920379638672,-0.0918156694017506,0.0,0.0,-5.337742332040727,0.7904072833157186,0.015333029912686194,0.03933916767054248,-0.005180072702668267,0.0,0.0,0.0,0.0
10.802067756652832,0.07655508,-0.018953975,-3.38175,0.006325160751437515,nan,nan,nan,nan,nan,0.7996153831481934,1.9996153831481933,0.0004165172576904297,-0.12399003230681677,0.0,0.0,-5.32730180550763,0.7748181955207603,0.01595508626679192,0.043169410078159914,-0.005627811575031838,0.0,0.0,0.0,0.0
10.902023553848267,0.08218524,-0.025010359,-3.5139978,0.005859360883969567,nan,nan,nan,nan,nan,0.8995559215545654,2.0995559215545656,0.0004374980926513672,-0.15498234479889475,0.0,0.0,-5.313815985572177,0.763422535506293,0.014681368258390394,0.04321121784398207,-0.005398214111057768,0.0,0.0,7.85834870465648,0.0
11.002028465270996,0.08853072,-0.03176784,-3.6666298,0.0049569772325193905,nan,nan,nan,nan,nan,0.9995560646057129,2.199556064605713,0.0005369186401367188,-0.18454648293764406,0.0,0.0,-5.297392998632022,0.7534985982034547,0.012883671472335921,0.042636393599905176,-0.004798045898577671,0.0,0.0,15.615343089163797,0.0
11.102038621902466,0.09177922,-0.036449794,-3.7972424,0.00377875069153182,nan,nan,nan,nan,nan,1.0995891094207764,2.2995891094207765,0.0007236003875732422,-0.21239640299621107,0.0,0.0,-5.278186570477928,0.7444111575416723,0.010658858072733162,0.040079460053410905,-0.003773448351250734,0.0,0.0,21.18923761406057,0.0
11.202404975891113,0.08920784,-0.039948437,-3.9574194,0.00223998971591445,nan,nan,nan,nan,nan,1.2000253200531006,2.4000253200531008,0.0011653900146484375,-0.23836182342211573,0.0,0.0,-5.256288199367205,0.7360973296441596,0.007533849180742537,0.03336291445473653,-0.0025760517165268676,0.0,0.0,25.789509980907038,0.0
11.302165031433105,0.087394945,-0.04242372,-4.0865326,0.0016836214436855561,nan,nan,nan,nan,nan,1.2996916770935059,2.499691677093506,0.0005207061767578125,-0.2619095776071933,0.0,0.0,-5.232170999820437,0.7284978582648359,0.004367504982044909,0.02417719938944925,-0.001713688382401238,0.0,0.0,30.365958163452,0.0
11.402110815048218,0.08333783,-0.045504194,-4.250336,0.0012109596115719053,nan,nan,nan,nan,nan,1.39963960647583,2.5996396064758303,0.00042319297790527344,-0.2830842620359437,0.0,0.0,-5.205823469477038,0.7215570536243987,0.0017732412855086185,0.014307745813476748,-0.0012209886630994268,0.0,0.0,34.62693780051988,0.0
11.5021231174469,0.075193495,-0.047135364,-4.378318,0.0007383975955214343,nan,nan,nan,nan,nan,1.499654769897461,2.699654769897461,0.000614166259765625,-0.3016301536487885,0.0,0.0,-5.177536617095765,0.7152227128563321,-0.00040359965643435954,0.00345892997798099,-0.0008360732155866538,0.0,0.0,39.31208833938015,0.0
11.602084875106812,0.058196556,-0.04819625,-4.5292993,-0.00022528777474342156,nan,nan,nan,nan,nan,1.5996193885803223,2.7996193885803224,0.0004830360412597656,-0.31735174078664447,0.0,0.0,-5.147607156397264,0.7094460237417248,-0.003123584890626293,-0.010795088731182234,6.225968961718763e-07,0.0,0.0,43.4844640719937,0.0
11.702104091644287,0.040111236,-0.050862964,-4.6704617,-0.00029239296821429936,nan,nan,nan,nan,nan,1.699632167816162,2.8996321678161623,0.00054168701171875,-0.330117808848591,0.0,0.0,-5.116285133533935,0.704181453799443,-0.0037678383275456086,-0.02556257635390706,0.00029074625095789025,0.0,0.0,46.94116752076098,0.0
11.802167892456055,0.017363248,-0.04899669,-4.8125634,-0.001657066601999082,nan,nan,nan,nan,nan,1.799698829650879,2.999698829650879,0.00052642822265625,-0.339805236971777,0.0,0.0,-5.083859411675461,0.6993866270401208,-0.006171597468478836,-0.03956958697703433,0.000983206347642777,0.0,0.0,49.68713218119545,0.0
11.902125358581543,-0.0053207725,-0.04701652,-4.9405103,-0.0033620133238015763,nan,nan,nan,nan,nan,1.8996665477752686,3.0996665477752687,0.00042819976806640625,-0.3463109212351258,0.0,0.0,-5.0506827962259235,0.6950221908038733,-0.009696877295971473,-0.051649280515033785,0.0022678888697113225,0.0,0.0,51.224663836010066,0.0
12.00202989578247,-0.032557175,-0.04629796,-5.0638103,-0.00444172937915267,nan,nan,nan,nan,nan,1.9995605945587158,3.199560594558716,0.0005877017974853516,-0.34958406549252863,0.0,0.0,-5.017058169705905,0.6910516751022394,-0.011470919105763977,-0.06127479846738626,0.0034456521281829968,0.0,0.0,52.11479858550052,0.0
12.102152585983276,-0.06864313,-0.047265396,-5.1889925,-0.003601715323869404,nan,nan,nan,nan,nan,2.0996806621551514,3.2996806621551515,0.0005018711090087891,-0.3495964825174512,0.0,0.0,-4.983198231895855,0.6874413467964003,-0.00969764655451944,-0.07226089109574352,0.003015039575721991,0.0,0.0,52.15945253324273,0.0
12.202462196350098,-0.10078663,-0.048426576,-5.296536,-0.0018679439296858291,nan,nan,nan,nan,nan,2.1999988555908203,3.3999988555908205,0.0004601478576660156,-0.34632729575130916,0.0,0.0,-4.949429215770514,0.6841600607880137,-0.006855775398854628,-0.07929541592544838,0.001718147536406662,0.0,0.0,51.06905139583787,0.0
12.302406072616577,-0.13932769,-0.046694104,-5.397299,-0.0005986205751175374,nan,nan,nan,nan,nan,2.300018072128296,3.500018072128296,0.0005428791046142578,-0.3398281728092237,0.0,0.0,-4.91623358092204,0.681179110196558,-0.005443736157003545,-0.08197897988928238,0.0005123833899126555,0.0,0.0,48.18314751651839,0.0
12.402113437652588,-0.1679992,-0.042871725,-5.4805846,-2.2220600114382437e-05,nan,nan,nan,nan,nan,2.399641990661621,3.5996419906616213,0.0003552436828613281,-0.3301993167560943,0.0,0.0,-4.883946515718793,0.6784720772661078,-0.005891815921791768,-0.07918377234810463,-0.00018828238414972444,0.0,0.0,44.52629652115371,0.0
12.502040386199951,-0.19247305,-0.03873012,-5.5523987,0.00039359794626065597,nan,nan,nan,nan,nan,2.499567747116089,3.699567747116089,0.0003542900085449219,-0.31746762517733834,0.0,0.0,-4.85264224837403,0.676014686500302,-0.007202237253518321,-0.0676025593678167,-0.0006248788048145638,0.0,0.0,38.66794489597395,0.0
12.602179527282715,-0.21677306,-0.036030516,-5.609305,0.0007769935233724765,nan,nan,nan,nan,nan,2.5997138023376465,3.7997138023376467,0.0003752708435058594,-0.30173845973453944,0.0,0.0,-4.822647520691061,0.6737846612792769,-0.0068813010065406025,-0.05484063599715522,-0.0009506093943904539,0.0,0.0,32.28302845905884,0.0
12.702239513397217,-0.24059987,-0.031412996,-5.6634064,0.000633615712505708,nan,nan,nan,nan,nan,2.699802875518799,3.899802875518799,0.00036978721618652344,-0.28319514358886166,0.0,0.0,-4.794329120564714,0.6717615849759221,-0.006848862911486425,-0.041698549933592156,-0.000881918425302189,0.0,0.0,24.60186888939989,0.0
12.802145004272461,-0.25842956,-0.024523856,-5.709485,-0.00027783836101980485,nan,nan,nan,nan,nan,2.799720525741577,3.9997205257415773,0.0003628730773925781,-0.2620414526883561,0.0,0.0,-4.7679778521929945,0.6699267673676991,-0.00783026556440678,-0.02775999258356543,-0.00027175144549335275,0.0,0.0,15.65411839759714,0.0
12.902112007141113,-0.27175042,-0.017296059,-5.7513065,-0.001127022392898373,nan,nan,nan,nan,nan,2.8996403217315674,4.099640321731568,0.00041222572326660156,-0.23844464468213397,0.0,0.0,-4.7437888538287005,0.6682631169388447,-0.008861589621085228,-0.013809781391366781,0.0006506829919485875,0.0,0.0,5.778289990550211,0.0
13.002208948135376,-0.2793483,-0.010535641,-5.780331,-0.001582056282025953,nan,nan,nan,nan,nan,2.999735116958618,4.199735116958618,0.00034046173095703125,-0.2125780781604099,0.0,0.0,-4.721952233086423,0.668473306753062,-0.008484015168272015,-0.0012275895122340387,0.0011585821681799298,0.0,0.0,0.0,0.0
13.102089166641235,-0.2853303,-0.00093985506,-5.798361,-0.002485706427777156,nan,nan,nan,nan,nan,3.0996217727661133,4.2996217727661135,0.0003387928009033203,-0.18478277429299367,0.0,0.0,-4.702753761462682,0.6744235863289593,-0.009710341924931193,0.007496730107240248,0.0019407151194632433,0.0,0.0,0.0,0.0
13.202087879180908,-0.28842753,0.009877711,-5.7963557,-0.0035174467182268786,nan,nan,nan,nan,nan,3.199612855911255,4.399612855911255,0.0003383159637451172,-0.15523444469073328,0.0,0.0,-4.686308643438236,0.6816985511738677,-0.011147711352050782,0.013633577826519883,0.0029055331020015856,0.0,0.0,0.0,0.0
13.302154779434204,-0.28606892,0.02169985,-5.780942,-0.004669222212652162,nan,nan,nan,nan,nan,3.2996835708618164,4.499683570861817,0.0003380775451660156,-0.12421180375906633,0.0,0.0,-4.672782292950215,0.6885109378899663,-0.011624400572520678,0.016956407123126713,0.0038815278768505757,0.0,0.0,0.0,0.0
13.40205979347229,-0.28211296,0.030743126,-5.759403,-0.0056008338726652555,nan,nan,nan,nan,nan,3.399585723876953,4.599585723876953,0.00033664703369140625,-0.09208281206619073,0.0,0.0,-4.662330404504666,0.695409121325114,-0.010083007625680025,0.019635908266880654,0.0047715894128850965,0.0,0.0,0.0,0.0
13.502004623413086,-0.27557516,0.038579904,-5.729528,-0.0065785913614496766,nan,nan,nan,nan,nan,3.4995291233062744,4.699529123306275,0.00034332275390625,-0.05908199391888679,0.0,0.0,-4.655022728292764,0.7014453534004966,-0.00672549389178211,0.01942833548403206,0.0055297050762042116,0.0,0.0,0.0,0.0
13.60201096534729,-0.2665081,0.044266798,-5.69901,-0.007406266814453243,nan,nan,nan,nan,nan,3.5995395183563232,4.799539518356323,0.00034046173095703125,-0.025507560915150558,0.0,0.0,-4.650930716997098,0.7073775324042828,-0.0025140534822356794,0.01935386821612073,0.006358628722939674,0.0,0.0,0.0,0.0
13.70267653465271,-0.25069475,0.05378564,-5.65586,-0.007798088918884441,nan,nan,nan,nan,nan,3.7002058029174805,4.900205802917481,0.000347137451171875,0.00852691868103549,0.0,0.0,-4.650103884477397,0.7127278056121554,-0.00027360049745281953,0.01935076437725177,0.00678140404944379,0.0,0.0,0.0,0.0
13.80225396156311,-0.23161861,0.059160084,-5.620162,-0.008164507529684464,nan,nan,nan,nan,nan,3.7998158931732178,4.999815893173218,0.0003409385681152344,0.04212600356237659,0.0,0.0,-4.652544391578057,0.7174281887557353,0.0017562670441097956,0.019874402120111587,0.006995670808022543,0.0,0.0,0.0,0.0
13.902088403701782,-0.20580088,0.062389903,-5.570741,-0.00853492207571585,nan,nan,nan,nan,nan,3.899615526199341,5.099615526199341,0.0003440380096435547,0.07539745089715946,0.0,0.0,-4.658217577400167,0.7218318691251749,0.004494104268761586,0.02190410901496917,0.007338870224900263,0.0,0.0,0.0,0.0
14.002224445343018,-0.1853804,0.06313114,-5.52948,-0.008801877681434594,nan,nan,nan,nan,nan,3.999763250350952,5.199763250350952,0.0003490447998046875,0.10807976708402875,0.0,0.0,-4.667105476243507,0.7259294532826094,0.00790549771321428,0.021900523622327535,0.0075518777428754055,0.0,0.0,0.0,0.0
14.102134227752686,-0.15747763,0.065419085,-5.4800673,-0.008287021139540593,nan,nan,nan,nan,nan,4.0996623039245605,5.299662303924561,0.0003490447998046875,0.13967285224259787,0.0,0.0,-4.679077120874162,0.7296964087728925,0.00902340869026861,0.022359293026426804,0.007344376079024174,0.0,0.0,0.0,0.0
14.2021644115448,-0.1300922,0.06965341,-5.436601,-0.006033705164365698,nan,nan,nan,nan,nan,4.199696779251099,5.399696779251099,0.00034618377685546875,0.17000452933527765,0.0,0.0,-4.694061346009546,0.7330503012843227,0.007866492981654457,0.023072411537618676,0.00592647164827685,0.0,0.0,0.0,0.0
14.302229404449463,-0.10360314,0.07159279,-5.3929324,-0.0030103427722581546,nan,nan,nan,nan,nan,4.29978084564209,5.49978084564209,0.0003342628479003906,0.19876163636316652,0.0,0.0,-4.71191353396899,0.7358941335910741,0.006085018328898853,0.022882177311104115,0.0035070614539375556,0.0,0.0,0.0,0.0
14.402159690856934,-0.07296667,0.071512915,-5.347265,-0.0006312183608081006,nan,nan,nan,nan,nan,4.399692535400391,5.599692535400391,0.0003333091735839844,0.22561525802131008,0.0,0.0,-4.732422431156912,0.7384483773239764,0.005465720405520287,0.022220099862107892,0.001047969967595567,0.0,0.0,0.0,0.0
14.502044677734375,-0.04228879,0.07000181,-5.3066435,-0.0008084505279190228,nan,nan,nan,nan,nan,4.499578237533569,5.6995782375335695,0.0003788471221923828,0.25035994280826357,0.0,0.0,-4.755418931564516,0.7405604206089672,0.006744093891799189,0.022776230914603356,0.0006762863416141249,0.0,0.0,0.0,0.0
14.602343320846558,-0.011097934,0.0696245,-5.257002,-0.001445895814585818,nan,nan,nan,nan,nan,4.599905252456665,5.799905252456665,0.00036263465881347656,0.27286595009994596,0.0,0.0,-4.780810188931936,0.7428541127016011,0.006794596597824635,0.022125222367713616,0.0011006259233687678,0.0,0.0,0.0,0.0
14.70211935043335,0.018770186,0.06825984,-5.2205715,-0.0006151910614762253,nan,nan,nan,nan,nan,4.6996495723724365,5.899649572372437,0.0003418922424316406,0.29269955993779345,0.0,0.0,-4.808096462741767,0.7445925415355442,0.006020476593786943,0.021310423755834116,0.000871355267494129,0.0,0.0,0.0,0.0
14.80233883857727,0.047481045,0.06430619,-5.1854744,0.0002412468492826482,nan,nan,nan,nan,nan,4.799888610839844,5.999888610839844,0.0003566741943359375,0.3098920937278731,0.0,0.0,-4.837313521628394,0.7458033331087857,0.00565911081966632,0.0201272895734926,-1.6344788877521116e-05,0.0,0.0,0.0,0.0
14.902429580688477,0.07105052,0.059711397,-5.155819,0.00028268684308918645,nan,nan,nan,nan,nan,4.900081396102905,6.1000813961029055,0.00035953521728515625,0.3241715107075989,0.0,0.0,-4.868042311154094,0.7467252075566703,0.006429851730612878,0.017025334335228987,-0.00019392542594840365,0.0,0.0,0.0,0.0
15.00209665298462,0.09294596,0.05556031,-5.128342,0.000228525784315977,nan,nan,nan,nan,nan,4.999640941619873,6.199640941619873,0.0003464221954345703,0.3353512837193582,0.0,0.0,-4.899802612270686,0.7474578813805187,0.006525748616861117,0.013759321929241704,-0.00019542786434538934,0.0,0.0,0.0,0.0
15.102549076080322,0.11711225,0.053234953,-5.1044526,0.0004996116312701662,nan,nan,nan,nan,nan,5.10029149055481,6.30029149055481,0.0006613731384277344,0.3434984777906633,0.0,0.0,-4.932852432988996,0.7480514614938633,0.005744713430873713,0.012785055810132834,-0.0003444078882925889,0.0,0.0,0.0,0.0
15.20232105255127,0.14230719,0.047302444,-5.0883136,-0.00012874745923496366,nan,nan,nan,nan,nan,5.199849843978882,6.399849843978882,0.00034046173095703125,0.34836116542087736,0.0,0.0,-4.966169563606005,0.748125337559296,0.005894042954792104,0.013676406768233063,-0.00010123873716197667,0.0,0.0,0.0,0.0
15.302192211151123,0.17295766,0.03852822,-5.073651,-0.001969829062839857,nan,nan,nan,nan,nan,5.299732208251953,6.499732208251953,0.00034427642822265625,0.34999998827357987,0.0,0.0,-4.999909399260727,0.7479027987919428,0.0072029784046424485,0.015543998045929746,0.0010280107956386442,0.0,0.0,0.0,0.0
15.40218997001648,0.19620672,0.032221522,-5.0646496,-0.003739903843537827,nan,nan,nan,nan,nan,5.399730443954468,6.599730443954468,0.0003380775451660156,0.3483748621675781,0.0,0.0,-5.03368909927144,0.747608888632064,0.008780506114593923,0.018051912787113662,0.0025688899101386662,0.0,0.0,0.0,0.0
15.502210140228271,0.21396917,0.028478967,-5.0598316,-0.005050760648554316,nan,nan,nan,nan,nan,5.499737977981567,6.699737977981568,0.0003647804260253906,0.34349656491386005,0.0,0.0,-5.067157351737381,0.7469766033644356,0.007586928230305272,0.017022674579571108,0.0038913247649998693,0.0,0.0,0.0,0.0
15.602347135543823,0.23127337,0.02722497,-5.056704,-0.006465292353486115,nan,nan,nan,nan,nan,5.5998828411102295,6.79988284111023,0.0003437995910644531,0.3353973723018296,0.0,0.0,-5.100043004018412,0.7463665842933642,0.004157876437282591,0.015322551959525019,0.005027378522874394,0.0,0.0,0.0,0.0
15.702196598052979,0.24295823,0.02499274,-5.0614414,-0.007463738974463391,nan,nan,nan,nan,nan,5.699768781661987,6.8997687816619875,0.0003561973571777344,0.3241906180470333,0.0,0.0,-5.131910739404654,0.745383065497018,0.001205685856172822,0.012939106352346259,0.006043505561831922,0.0,0.0,0.0,0.0
15.802213191986084,0.25053966,0.023495588,-5.0676107,-0.00793340479117727,nan,nan,nan,nan,nan,5.799766540527344,6.999766540527344,0.00034427642822265625,0.30994630736771006,0.0,0.0,-5.162583168099041,0.7442928634602538,-0.000997872106762156,0.0103713535735339,0.006603925554266448,0.0,0.0,0.0,0.0
15.902050733566284,0.25585157,0.023010893,-5.076612,-0.00793306358459496,nan,nan,nan,nan,nan,5.899593114852905,7.0995931148529055,0.00034332275390625,0.29283996482036523,0.0,0.0,-5.191689214626194,0.7430991948684448,-0.0034292448545709658,0.00652866207133793,0.00673113296412749,0.0,0.0,0.0,0.0
16.00208568572998,0.26519454,0.02270892,-5.0951686,-0.00787072517593186,nan,nan,nan,nan,nan,5.999705791473389,7.199705791473389,0.0004417896270751953,0.2729483422371994,0.0,0.0,-5.219087202889545,0.7414874962082619,-0.005163975356417203,0.006071618001665014,0.006653577576492972,0.0,0.0,0.0,0.0
16.102081775665283,0.27764505,0.02136946,-5.116734,-0.007706268645824427,nan,nan,nan,nan,nan,6.099673748016357,7.299673748016358,0.0003733634948730469,0.2505367250140624,0.0,0.0,-5.2443999783535755,0.7394926946715606,-0.005676959107518046,0.009896511547821939,0.0065830512169386575,0.0,0.0,0.0,0.0
16.20224928855896,0.28687528,0.020325419,-5.1452246,-0.007528964132717114,nan,nan,nan,nan,nan,6.199787139892578,7.399787139892578,0.00035452842712402344,0.22574981261996516,0.0,0.0,-5.267464057589147,0.7376207684077029,-0.005710034819544784,0.014040229220700005,0.006420933809871142,0.0,0.0,0.0,0.0
16.30223798751831,0.29452345,0.01985898,-5.1734138,-0.007218741866544275,nan,nan,nan,nan,nan,6.299784898757935,7.499784898757935,0.00034117698669433594,0.19888254905476402,0.0,0.0,-5.2880030063757655,0.7355355155682194,-0.005552997422527129,0.01594805637773374,0.006283158590313047,0.0,0.0,0.0,0.0
16.4023494720459,0.30177101,0.020682411,-5.206718,-0.006427359187491174,nan,nan,nan,nan,nan,6.400037050247192,7.600037050247193,0.0005257129669189453,0.17008323930304847,0.0,0.0,-5.30589490304381,0.733627470094341,-0.004746950761790823,0.017753604942935687,0.00577083715370624,0.0,0.0,0.0,0.0
16.502237558364868,0.30361003,0.023208046,-5.232255,-0.005866727282100559,nan,nan,nan,nan,nan,6.499779224395752,7.699779224395752,0.00033926963806152344,0.13984607992818016,0.0,0.0,-5.320847430921179,0.7317515460638472,-0.00540821135379776,0.016573862856216346,0.005191146204796084,0.0,0.0,0.0,0.0
16.602249145507812,0.3042565,0.030048221,-5.26619,-0.005058575280380518,nan,nan,nan,nan,nan,6.599781513214111,7.7997815132141115,0.0004227161407470703,0.10822624735587195,0.0,0.0,-5.332846930860517,0.7299012484796864,-0.00752904236132505,0.015232559384493884,0.004589791631007093,0.0,0.0,0.0,0.0
16.702206134796143,0.29747918,0.035657916,-5.3005404,-0.004262157892930735,nan,nan,nan,nan,nan,6.699743986129761,7.899743986129761,0.00034046173095703125,0.07560904196150647,0.0,0.0,-5.3417356767644595,0.7280571028187031,-0.009081336418420717,0.011698830494761989,0.0038879736004852733,0.0,0.0,0.0,0.0
16.802413940429688,0.290184,0.0413919,-5.3309565,-0.0038753166838344753,nan,nan,nan,nan,nan,6.799943208694458,7.999943208694458,0.00034046173095703125,0.04220691187358003,0.0,0.0,-5.347445789426344,0.7264805563690222,-0.009567298795303786,0.006477953860725962,0.003406703822703972,0.0,0.0,0.0,0.0
16.90226650238037,0.2835748,0.048566297,-5.3627853,-0.003762465460748506,nan,nan,nan,nan,nan,6.899899005889893,8.099899005889892,0.00035309791564941406,0.008491469684393866,0.0,0.0,-5.349896977612838,0.7249762467844413,-0.010996307711320487,0.0036781822386447484,0.00324413833819198,0.0,0.0,0.0,0.0
17.00217318534851,0.27647567,0.053140543,-5.389957,-0.003451711458313603,nan,nan,nan,nan,nan,6.999758005142212,8.199758005142211,0.00041365623474121094,-0.025270521433805492,0.0,0.0,-5.349086523295391,0.7237091341725903,-0.010441826453263503,0.0024169504831729324,0.003062211260131276,0.0,0.0,0.0,0.0
17.10231590270996,0.25891054,0.061135642,-5.419453,-0.003787112661744614,nan,nan,nan,nan,nan,7.0998499393463135,8.299849939346313,0.0003979206085205078,-0.05887491920387085,0.0,0.0,-5.3450126720697915,0.72247173077679,-0.010325053579961777,-0.001401305527002097,0.0030271629526250118,0.0,0.0,0.0,0.0
17.202252864837646,0.23496671,0.06568651,-5.4451423,-0.004253090161720116,nan,nan,nan,nan,nan,7.199791193008423,8.399791193008422,0.00034117698669433594,-0.09187941715186572,0.0,0.0,-5.337724995675229,0.721294138845508,-0.009789941887968856,-0.008426029653999283,0.003387996423152395,0.0,0.0,0.0,0.0
17.302156686782837,0.20573726,0.068259664,-5.4703255,-0.0038440453721487544,nan,nan,nan,nan,nan,7.299736499786377,8.499736499786376,0.00035071372985839844,-0.12402835085873874,0.0,0.0,-5.3272872869258165,0.7202228080536354,-0.006942511968501273,-0.017275608636114718,0.003270816114152558,0.0,0.0,0.0,0.0
17.40224051475525,0.17836928,0.07025784,-5.490929,-0.0027487236058741046,nan,nan,nan,nan,nan,7.39979887008667,8.59979887008667,0.0003464221954345703,-0.15505603855010608,0.0,0.0,-5.313779580134125,0.7192866959842108,-0.003296623323776079,-0.023394956150135766,0.0022732465886015816,0.0,0.0,0.0,0.0
17.50207829475403,0.14744814,0.07527137,-5.5115995,-0.002492400724380414,nan,nan,nan,nan,nan,7.499637126922607,8.699637126922607,0.0003464221954345703,-0.1845697856087028,0.0,0.0,-5.297378536953085,0.7184166949503323,-0.0025894151035552207,-0.028288069950793814,0.0018297751545118773,0.0,0.0,0.0,0.0
17.602219343185425,0.11055669,0.08208241,-5.530136,-0.0033833280492815616,nan,nan,nan,nan,nan,7.599790811538696,8.799790811538696,0.0003676414489746094,-0.21245063814068724,0.0,0.0,-5.278145153388684,0.7175748138757425,-0.0035276033554436413,-0.03300405174260203,0.0021176570434572523,0.0,0.0,0.0,0.0
17.70196557044983,0.07877532,0.081071764,-5.547719,-0.0033997616899172807,nan,nan,nan,nan,nan,7.699502229690552,8.899502229690551,0.0003466606140136719,-0.23823220285165725,0.0,0.0,-5.2564086923730295,0.7167792888275994,-0.0025860389251328433,-0.03724666860744115,0.00254408826195149,0.0,0.0,0.0,0.0
17.802175521850586,0.05135575,0.07899154,-5.5658646,-0.0025093019410456375,nan,nan,nan,nan,nan,7.79970908164978,8.99970908164978,0.0003647804260253906,-0.261913483616894,0.0,0.0,-5.232166593418741,0.7159194757146121,0.0021062508383109264,-0.03633858936369321,0.001959766467492779,0.0,0.0,0.0,0.0
17.9027042388916,0.025071183,0.079307705,-5.5860605,-0.00190412915389693,nan,nan,nan,nan,nan,7.900256872177124,9.100256872177123,0.00034117698669433594,-0.2832070215858201,0.0,0.0,-5.205654523228858,0.7148316936520555,0.003496292939171133,-0.03086220419071903,0.00150458996574094,0.0,0.0,0.0,0.0
18.00242853164673,-0.0025664635,0.07043905,-5.594967,0.0006471861951711918,nan,nan,nan,nan,nan,8.000026941299438,9.200026941299438,0.0005035400390625,-0.30169400420670744,0.0,0.0,-5.177428091985805,0.7143699160458,0.00923820657048632,-0.026769407347002942,-2.0106199223549035e-05,0.0,0.0,0.0,0.0
18.10222101211548,-0.032322258,0.052501395,-5.59848,0.006212627099518873,nan,nan,nan,nan,nan,8.099804639816284,9.299804639816283,0.0003821849822998047,-0.3173781680034462,0.0,0.0,-5.14755032522762,0.7144159833536748,0.019360769632870367,-0.02423874305148564,-0.003614956699722105,0.0,0.0,0.0,0.0
18.20214557647705,-0.059954703,0.038448993,-5.60331,0.011305566495296862,nan,nan,nan,nan,nan,8.199684143066406,9.399684143066406,0.0003600120544433594,-0.33012365077825523,0.0,0.0,-5.1162685477540535,0.7143986900117439,0.027678378673306255,-0.022439653751823843,-0.008085134807335487,0.0,0.0,0.0,0.0
18.302196741104126,-0.088347286,0.025370235,-5.608325,0.014967289092473541,nan,nan,nan,nan,nan,8.299753189086914,9.499753189086913,0.0003597736358642578,-0.33980964299749034,0.0,0.0,-5.0838415560800145,0.7142251921976243,0.030394662838695945,-0.021321791956741533,-0.011536296558218886,0.0,0.0,0.0,0.0
18.40225887298584,-0.11242621,0.014408032,-5.609207,0.01667642360533904,nan,nan,nan,nan,nan,8.39979076385498,9.59979076385498,0.0003597736358642578,-0.3463170043595922,0.0,0.0,-5.050641213368147,0.7141247793922919,0.029087810060143836,-0.019663957248925643,-0.013456444322441708,0.0,0.0,0.0,0.0
18.50208878517151,-0.13888972,0.010131724,-5.6066628,0.01519510225768047,nan,nan,nan,nan,nan,8.499627828598022,9.699627828598022,0.0003609657287597656,-0.34958517338810646,0.0,0.0,-5.017035449721317,0.7143212341474481,0.020762238742964047,-0.018737160880911357,-0.013058022698928057,0.0,0.0,0.0,0.0
18.602078199386597,-0.16453551,0.0042386064,-5.600408,0.013587596445005727,nan,nan,nan,nan,nan,8.599633932113647,9.799633932113647,0.00043320655822753906,-0.3495972411186475,0.0,0.0,-4.98321402364382,0.7147050877906288,0.012955444181712097,-0.020107732323735573,-0.011606104567945004,0.0,0.0,0.0,0.0
18.702285766601562,-0.1911741,-0.0057440633,-5.58425,0.012168539760147352,nan,nan,nan,nan,nan,8.69983696937561,9.89983696937561,0.0003554821014404297,-0.34633520514684335,0.0,0.0,-4.94948341187398,0.7154625878200377,0.007559017263518798,-0.021718506007553217,-0.01034540397346716,0.0,0.0,0.0,0.0
18.802428007125854,-0.20797138,-0.01407611,-5.5685296,0.011669590541270702,nan,nan,nan,nan,nan,8.799985885620117,9.999985885620116,0.00037407875061035156,-0.33983077886025953,0.0,0.0,-4.9162441539996795,0.7164352905065338,0.005214641754921435,-0.020171858960455234,-0.009808857661926802,0.0,0.0,0.0,0.0
18.902304649353027,-0.22610423,-0.023401259,-5.5496564,0.01098956004621335,nan,nan,nan,nan,nan,8.89986777305603,10.09986777305603,0.0003523826599121094,-0.33017398008295723,0.0,0.0,-4.883874452095248,0.7172158662208258,0.0037922518016469705,-0.0175372848572913,-0.009357243684237376,0.0,0.0,0.0,0.0
19.002391815185547,-0.23386979,-0.028101299,-5.533545,0.010229025940217988,nan,nan,nan,nan,nan,8.999933958053589,10.199933958053588,0.000400543212890625,-0.31741544129628446,0.0,0.0,-4.852529875477488,0.7180179288241691,0.001338972816126709,-0.01285097891653963,-0.008784388399228727,0.0,0.0,0.0,0.0
19.102229595184326,-0.24518019,-0.028325755,-5.5156546,0.009065863326520473,nan,nan,nan,nan,nan,9.099773645401001,10.299773645401,0.0006837844848632812,-0.3017281999329295,0.0,0.0,-4.822630066343717,0.7188062313176311,-0.002908843277595284,-0.009088614107820647,-0.007937575299706016,0.0,0.0,0.0,0.0
19.20236825942993,-0.25597262,-0.0275752,-5.4917674,0.007553876386249727,nan,nan,nan,nan,nan,9.199911832809448,10.399911832809448,0.00038695335388183594,-0.2831734801647769,0.0,0.0,-4.794299294771824,0.7197687933075806,-0.007820161549160405,-0.0078114699733686085,-0.006775869221926421,0.0,0.0,0.0,0.0
19.3021981716156,-0.26406136,-0.025227124,-5.4651213,0.006050356312350013,nan,nan,nan,nan,nan,9.299804925918579,10.499804925918578,0.0003476142883300781,-0.26202252230892065,0.0,0.0,-4.767956474335372,0.7209895240459474,-0.010916188959001453,-0.006680389139451051,-0.0055617151269818895,0.0,0.0,0.0,0.0
19.40223002433777,-0.26961774,-0.019911354,-5.440452,0.004839908021247054,nan,nan,nan,nan,nan,9.399796962738037,10.599796962738036,0.0003571510314941406,-0.23840584746344418,0.0,0.0,-4.74375275241432,0.7220484990134217,-0.014461967445346825,-0.006283375215153144,-0.004434491386696653,0.0,0.0,0.0,0.0
19.5021755695343,-0.27564508,-0.012712944,-5.4069557,0.0037997464078063014,nan,nan,nan,nan,nan,9.499707460403442,10.699707460403442,0.00037741661071777344,-0.2125855114246145,0.0,0.0,-4.721957916256666,0.7235934429486183,-0.01728569705681869,-0.006855702355316819,-0.0035020898257569683,0.0,0.0,0.0,0.0
19.602188110351562,-0.2803448,-0.006418726,-5.367949,0.002949799800733539,nan,nan,nan,nan,nan,9.599725484848022,10.799725484848022,0.0003631114959716797,-0.18475297364114637,0.0,0.0,-4.702735237993545,0.7253818838589137,-0.01788783425601586,-0.00802981190275311,-0.002784248779205694,0.0,0.0,0.0,0.0
19.702515125274658,-0.2790039,0.0016085266,-5.33092,0.0023721102002222036,nan,nan,nan,nan,nan,9.700045108795166,10.900045108795165,0.0003592967987060547,-0.15510336003785488,0.0,0.0,-4.68624380849939,0.727176443414595,-0.01748342972302484,-0.007888089796071739,-0.0022063644712237685,0.0,0.0,0.0,0.0
19.802263975143433,-0.26963624,0.0131811695,-5.289899,0.0020843415767950765,nan,nan,nan,nan,nan,9.7998046875,10.9998046875,0.0003502368927001953,-0.12417349335206637,0.0,0.0,-4.672767752889872,0.7288593435336824,-0.018339133144266252,-0.004739186124422015,-0.0019054693664617229,0.0,0.0,0.0,0.0
19.902368307113647,-0.25268757,0.025402969,-5.2506657,0.0016542146369049528,nan,nan,nan,nan,nan,9.89997410774231,11.099974107742309,0.00037598609924316406,-0.09195603465776443,0.0,0.0,-4.6622958577541285,0.7305317264370663,-0.019186403275148464,0.002454386987166361,-0.0014821692439661016,0.0,0.0,0.0,0.0
20.00210475921631,-0.23442814,0.034304135,-5.2177606,0.0012743349246352497,nan,nan,nan,nan,nan,9.999646186828613,11.199646186828613,0.0003948211669921875,-0.059042956347647724,0.0,0.0,-4.655016044857548,0.7318799754886002,-0.017254128321940617,0.009157646696149204,-0.001022372903590176,0.0,0.0,0.0,0.0
20.102280855178833,-0.2190116,0.043108888,-5.1852913,0.0012445395175549505,nan,nan,nan,nan,nan,10.099817276000977,11.299817276000976,0.0003535747528076172,-0.025413837431758367,0.0,0.0,-4.650923880984402,0.7330335851599513,-0.014108012084472087,0.012617965339363229,-0.0008099437244636535,0.0,0.0,0.0,0.0
20.20238757133484,-0.20433106,0.053306468,-5.154903,0.0018559798486221628,nan,nan,nan,nan,nan,10.199914455413818,11.399914455413818,0.0003533363342285156,0.008428377351245553,0.0,0.0,-4.650101496923429,0.7341345344682578,-0.01115970589429902,0.01274499197387698,-0.001100346547427863,0.0,0.0,0.0,0.0
20.302491903305054,-0.1904543,0.06301533,-5.1331787,0.0031559317244482235,nan,nan,nan,nan,nan,10.300034523010254,11.500034523010253,0.0003654956817626953,0.04219943291541113,0.0,0.0,-4.6525533021287755,0.7347238775289828,-0.01000284015273699,0.009986956007837475,-0.002125416296394307,0.0,0.0,0.0,0.0
20.402538776397705,-0.16982834,0.07085823,-5.113142,0.004869699848875024,nan,nan,nan,nan,nan,10.4000985622406,11.6000985622406,0.00037360191345214844,0.0755570290334265,0.0,0.0,-4.658252819523494,0.7350908579107472,-0.007836237680477452,0.009459295902200477,-0.003484714319745865,0.0,0.0,0.0,0.0
20.50223731994629,-0.14303333,0.0774659,-5.0881195,0.005766045565950514,nan,nan,nan,nan,nan,10.49976921081543,11.699769210815429,0.0003490447998046875,0.10808168510283209,0.0,0.0,-4.667106098966454,0.7359100099808754,-0.004887200463998438,0.011887203770082094,-0.0044731524736406755,0.0,0.0,0.0,0.0
20.602354764938354,-0.115622215,0.08265862,-5.0625725,0.006040639710612699,nan,nan,nan,nan,nan,10.599910259246826,11.799910259246825,0.0006079673767089844,0.13974976846906656,0.0,0.0,-4.6791106075096245,0.7369213254225128,-0.001120290286909349,0.015170568149360542,-0.004845412888380847,0.0,0.0,0.0,0.0
20.70215654373169,-0.093692616,0.084722355,-5.0391884,0.006167402151709628,nan,nan,nan,nan,nan,10.699689149856567,11.899689149856567,0.0003561973571777344,0.17000227306133903,0.0,0.0,-4.694060092250164,0.7378504506948428,0.00325749995631075,0.015928164684842684,-0.004958520095172446,0.0,0.0,0.0,0.0
20.802178859710693,-0.07211906,0.08368793,-5.0142174,0.006412679656941839,nan,nan,nan,nan,nan,10.799749612808228,11.999749612808227,0.0003490447998046875,0.1987529386459833,0.0,0.0,-4.711907533282131,0.7389003666571247,0.007866426805488292,0.013201664095308955,-0.005229064434429142,0.0,0.0,0.0,0.0
20.9022159576416,-0.048513535,0.07828756,-4.996219,0.006388911601903793,nan,nan,nan,nan,nan,10.89978837966919,12.099788379669189,0.00036334991455078125,0.2256400473861681,0.0,0.0,-4.732443334944599,0.7395937573739817,0.013876683528505442,0.011964929216781505,-0.005351427593410462,0.0,0.0,0.0,0.0
21.002204656600952,-0.019391634,0.07214765,-4.9773335,0.006089732940276997,nan,nan,nan,nan,nan,10.999752283096313,12.199752283096313,0.0003972053527832031,0.25040108760350277,0.0,0.0,-4.755461055602624,0.74028390715675,0.018431720293522892,0.012469574827898426,-0.005217226895178012,0.0,0.0,0.0,0.0
21.102128982543945,0.0065575694,0.06826475,-4.961371,0.005953184115460343,nan,nan,nan,nan,nan,11.099658727645874,12.299658727645873,0.0004413127899169922,0.2728137090474835,0.0,0.0,-4.780745170735615,0.7410025728453512,0.020258394277201306,0.014724307968917726,-0.005050430210490794,0.0,0.0,0.0,0.0
21.20286226272583,0.038794417,0.06280426,-4.942498,0.005563829446907483,nan,nan,nan,nan,nan,11.200413227081299,12.400413227081298,0.00046324729919433594,0.29284113994488425,0.0,0.0,-4.808312580601176,0.7417320595568491,0.019422005877296686,0.017025041038979664,-0.005006781594877119,0.0,0.0,0.0,0.0
21.30244731903076,0.06218845,0.05721699,-4.9302793,0.0044993608544691074,nan,nan,nan,nan,nan,11.299978971481323,12.499978971481323,0.0003674030303955078,0.3099063026503231,0.0,0.0,-4.837340590258029,0.7423309766417575,0.019053193759570267,0.018139792006082147,-0.0041530255809395945,0.0,0.0,0.0,0.0
21.40240454673767,0.08693835,0.053024843,-4.9246054,0.003460192473997369,nan,nan,nan,nan,nan,11.400013446807861,12.60001344680786,0.0003838539123535156,0.32416284266165696,0.0,0.0,-4.868021018955616,0.7425120059114546,0.01638218692495997,0.016785141600302023,-0.0033369075980041324,0.0,0.0,0.0,0.0
21.50240397453308,0.10354471,0.054164547,-4.9167957,0.003639238708635818,nan,nan,nan,nan,nan,11.499942302703857,12.699942302703857,0.0004024505615234375,0.33538045787579557,0.0,0.0,-4.899900307318045,0.7427256430215541,0.010882520944488138,0.014214738403137946,-0.00302046671205289,0.0,0.0,0.0,0.0
21.602386236190796,0.122444525,0.05732564,-4.9113445,0.0048151113916792155,nan,nan,nan,nan,nan,11.599915742874146,12.799915742874145,0.00039649009704589844,0.3434740661833582,0.0,0.0,-4.932727673895799,0.743004038091767,0.0032092965145349033,0.012057936419999188,-0.003642377019024512,0.0,0.0,0.0,0.0
21.702362298965454,0.14245935,0.06365958,-4.910796,0.006726068916091163,nan,nan,nan,nan,nan,11.69988751411438,12.89988751411438,0.0003693103790283203,0.3483623970781188,0.0,0.0,-4.966182248714809,0.7429942074223219,-0.005703615469935309,0.011143485655945272,-0.005051075292608559,0.0,0.0,0.0,0.0
21.80231213569641,0.1597092,0.071216084,-4.9152093,0.008808365454579812,nan,nan,nan,nan,nan,11.799859046936035,12.999859046936034,0.0003666877746582031,0.3499999967512214,0.0,0.0,-4.999952312003658,0.7426049385032426,-0.01374970442097914,0.010599101563053609,-0.006872169735763382,0.0,0.0,0.0,0.0
21.902637481689453,0.17623343,0.07841623,-4.9152565,0.010056264107907314,nan,nan,nan,nan,nan,11.900203466415405,13.100203466415405,0.00044989585876464844,0.34835942160262934,0.0,0.0,-5.033848388154852,0.7425005543996677,-0.017472589230348664,0.01030809455551403,-0.00810875031143133,0.0,0.0,0.0,0.0
22.002295970916748,0.19423671,0.080180995,-4.916518,0.010410569011928047,nan,nan,nan,nan,nan,11.999933958053589,13.199933958053588,0.0003590583801269531,0.3434838362639805,0.0,0.0,-5.067222423530985,0.7424153092453586,-0.016906484158478827,0.012039929108114193,-0.008603139908234478,0.0,0.0,0.0,0.0
22.102364540100098,0.2154833,0.08289798,-4.922102,0.010469343245328867,nan,nan,nan,nan,nan,12.099905967712402,13.299905967712402,0.000560760498046875,0.33539513573778224,0.0,0.0,-5.100050501864981,0.7421803869999025,-0.01415816700685757,0.01601015629876354,-0.008609952145416148,0.0,0.0,0.0,0.0
22.202325105667114,0.23543718,0.086412445,-4.9324813,0.010556201927686073,nan,nan,nan,nan,nan,12.199856281280518,13.399856281280517,0.00034928321838378906,0.32417945974887996,0.0,0.0,-5.131938159290344,0.7416389605836632,-0.011860212070050979,0.020641516180491655,-0.008612507254439232,0.0,0.0,0.0,0.0
22.302314043045044,0.25735876,0.090121955,-4.950361,0.010795648090721902,nan,nan,nan,nan,nan,12.299869775772095,13.499869775772094,0.00036263465881347656,0.309930081370642,0.0,0.0,-5.1626140973642425,0.7405806781852877,-0.00949261085262767,0.02458406033012655,-0.008767554976146449,0.0,0.0,0.0,0.0
22.40258026123047,0.28316373,0.09318989,-4.9719043,0.010910986917200386,nan,nan,nan,nan,nan,12.400115728378296,13.600115728378295,0.0003650188446044922,0.29274308967464824,0.0,0.0,-5.1918371273965,0.7393993727056203,-0.006663161359273393,0.029336053696044327,-0.008854019981740796,0.0,0.0,0.0,0.0
22.502193212509155,0.30439502,0.09244138,-4.997537,0.010542822360244283,nan,nan,nan,nan,nan,12.499819278717041,13.69981927871704,0.00038051605224609375,0.27292430634506193,0.0,0.0,-5.219117144482277,0.7378663613591947,-0.0023458376069326794,0.032903824655163456,-0.008689498652940095,0.0,0.0,0.0,0.0
22.60246253013611,0.32190418,0.09322378,-5.028466,0.009933339561677452,nan,nan,nan,nan,nan,12.59999966621399,13.799999666213989,0.00040078163146972656,0.250459715142112,0.0,0.0,-5.244478897025759,0.7362452127494683,0.0015905735500838381,0.03410911591848565,-0.008251894412837645,0.0,0.0,0.0,0.0
22.70218777656555,0.33654523,0.09503339,-5.0622163,0.009329520152137156,nan,nan,nan,nan,nan,12.699721574783325,13.899721574783324,0.00036072731018066406,0.22576676353368608,0.0,0.0,-5.2674497494549675,0.7343116036153914,0.0025907722548322884,0.03212954201795882,-0.007761892494449708,0.0,0.0,0.0,0.0
22.802462339401245,0.35048532,0.09496583,-5.094511,0.00880810255242681,nan,nan,nan,nan,nan,12.799991130828857,13.999991130828857,0.0003654956817626953,0.19882513084792763,0.0,0.0,-5.288042648479881,0.7326416330612858,0.0039724375516381515,0.02995538159959802,-0.00734244332061018,0.0,0.0,0.0,0.0
22.9025661945343,0.3641658,0.09586802,-5.129766,0.008156851114092815,nan,nan,nan,nan,nan,12.900109767913818,14.100109767913818,0.00039315223693847656,0.17006173689131554,0.0,0.0,-5.305906857794181,0.7311620323415706,0.004313443026484038,0.027806070417841472,-0.006879903391158066,0.0,0.0,0.0,0.0
23.002471446990967,0.3722214,0.09870024,-5.167042,0.007375466938903504,nan,nan,nan,nan,nan,13.0000741481781,14.2000741481781,0.00037550926208496094,0.1397546050481251,0.0,0.0,-5.320887286080086,0.7294531637966186,0.002689823093052512,0.024100324022256803,-0.006277018936042005,0.0,0.0,0.0,0.0
23.102458715438843,0.37598285,0.09988266,-5.206262,0.006282061620448422,nan,nan,nan,nan,nan,13.100003719329834,14.300003719329833,0.00044918060302734375,0.10815475127463832,0.0,0.0,-5.332870169550714,0.7276696621786584,0.000275839374165721,0.018688649073186445,-0.005447891399443324,0.0,0.0,0.0,0.0
23.20245361328125,0.37549055,0.09823703,-5.238424,0.005520832593975594,nan,nan,nan,nan,nan,13.19999074935913,14.39999074935913,0.00041961669921875,0.07552752485916248,0.0,0.0,-5.341753702231078,0.7262528446173628,0.0007123004877975082,0.011630737953642112,-0.00473415315665895,0.0,0.0,0.0,0.0
23.30241823196411,0.37169352,0.09659999,-5.269211,0.005112852619004377,nan,nan,nan,nan,nan,13.2999587059021,14.499958705902099,0.00037932395935058594,0.04220170703324138,0.0,0.0,-5.347446421658765,0.7252046777115957,0.0016427324499595252,0.005152227707576201,-0.004380127401706734,0.0,0.0,0.0,0.0
23.402352333068848,0.3534285,0.10084286,-5.3037815,0.003973950284372116,nan,nan,nan,nan,nan,13.399897575378418,14.599897575378417,0.000362396240234375,0.008491953520240797,0.0,0.0,-5.34989696587054,0.7239392529458266,-0.00011854616280538973,-0.004809646388866561,-0.0037482616952334044,0.0,0.0,0.0,0.0
23.502328634262085,0.32951725,0.101021804,-5.3349266,0.0025553347710762417,nan,nan,nan,nan,nan,13.499890089035034,14.699890089035033,0.0003619194030761719,-0.02531509192769355,0.0,0.0,-5.349083293958179,0.722681692633362,-0.0017257627283299743,-0.01595768060082019,-0.0027691009415001817,0.0,0.0,0.0,0.0
23.602436304092407,0.29925838,0.09607594,-5.3713813,0.0011082937968856306,nan,nan,nan,nan,nan,13.600351572036743,14.800351572036742,0.0003752708435058594,-0.05904220898147149,0.0,0.0,-5.344984083051071,0.7213150592619898,-0.0010582364558160886,-0.027670465228888844,-0.0015406972846647826,0.0,0.0,0.0,0.0
23.702194690704346,0.2691825,0.08746706,-5.4062033,0.00042054036229956715,nan,nan,nan,nan,nan,13.699745655059814,14.899745655059814,0.0003750324249267578,-0.09186455075304388,0.0,0.0,-5.3377290397862485,0.7196495709570409,0.003297233809942274,-0.03626187402975431,-0.0005752382497257845,0.0,0.0,0.0,0.0
23.802175521850586,0.24077637,0.07820214,-5.4347167,0.0011002174207039319,nan,nan,nan,nan,nan,13.79971718788147,14.999717187881469,0.0005075931549072266,-0.12402224112480355,0.0,0.0,-5.327289602197169,0.7182346573452743,0.009066465756490333,-0.04123274275094792,-0.0008106866098686039,0.0,0.0,0.0,0.0
23.902690172195435,0.2050532,0.06384515,-5.4682126,0.0022458665269402944,nan,nan,nan,nan,nan,13.90021562576294,15.100215625762939,0.00038242340087890625,-0.15518243342690866,0.0,0.0,-5.313717089677472,0.7170930973664632,0.014377272362698602,-0.04289471013101219,-0.001444028435223114,0.0,0.0,0.0,0.0
24.002439975738525,0.17586367,0.052918017,-5.4924254,0.0029646308843162446,nan,nan,nan,nan,nan,13.999979019165039,15.199979019165038,0.0003848075866699219,-0.18466805557964028,0.0,0.0,-5.297317522605774,0.7161422780869675,0.018030118918477712,-0.04187435948413625,-0.00208785162833695,0.0,0.0,0.0,0.0
24.10244345664978,0.13922282,0.03880971,-5.5176163,0.0034515185501678997,nan,nan,nan,nan,nan,14.100060224533081,15.30006022453308,0.00035881996154785156,-0.2125230672836211,0.0,0.0,-5.278089816196784,0.7153363297120161,0.019741752197375784,-0.03934796900948209,-0.002394539086537157,0.0,0.0,0.0,0.0
24.20243000984192,0.1113605,0.028770685,-5.532205,0.003614517969548239,nan,nan,nan,nan,nan,14.199961185455322,15.399961185455322,0.0004744529724121094,-0.23834593429582346,0.0,0.0,-5.256302976191559,0.7148973311006563,0.019719882956199874,-0.03529737157212604,-0.0026506608368082963,0.0,0.0,0.0,0.0
24.302481174468994,0.080070466,0.023158858,-5.544638,0.001963388855438995,nan,nan,nan,nan,nan,14.300013780593872,15.500013780593871,0.0005376338958740234,-0.26198185352960396,0.0,0.0,-5.2320894405637475,0.7146610339099104,0.01449251876931247,-0.031226667052898914,-0.0017531935036939244,0.0,0.0,0.0,0.0
24.402363061904907,0.052602153,0.016190201,-5.551417,0.00013115645915788782,nan,nan,nan,nan,nan,14.399891138076782,15.599891138076782,0.00038242340087890625,-0.2831342978920284,0.0,0.0,-5.205754633865651,0.714735491353329,0.008004860461142732,-0.025815158622017872,-0.00032902047715659133,0.0,0.0,0.0,0.0
24.50246238708496,0.026002772,0.0119205015,-5.5573916,-0.0016865818566855588,nan,nan,nan,nan,nan,14.500035047531128,15.700035047531127,0.0004947185516357422,-0.30169539449547217,0.0,0.0,-5.1774257279546045,0.7147247206272593,0.0023115459630190854,-0.020212039239270174,0.0010114697266414565,0.0,0.0,0.0,0.0
24.602409839630127,-0.004384256,0.007396952,-5.5635805,-0.0035308265806740873,nan,nan,nan,nan,nan,14.599997758865356,15.799997758865356,0.00038909912109375,-0.31740570677684987,0.0,0.0,-5.147491075341827,0.7146180333375936,-0.0029085247878657726,-0.01729958302059715,0.0027109394596705415,0.0,0.0,0.0,0.0
24.702180862426758,-0.032327984,0.00042612228,-5.56802,-0.003741044066550116,nan,nan,nan,nan,nan,14.699732065200806,15.899732065200805,0.0005946159362792969,-0.3301290364062345,0.0,0.0,-5.1162532551006255,0.714401818387298,-0.0031046246745846267,-0.01572589309781796,0.003207312583590351,0.0,0.0,0.0,0.0
24.802260160446167,-0.060262773,-0.008067995,-5.567898,-0.002881890762886994,nan,nan,nan,nan,nan,14.799821615219116,15.999821615219116,0.00036406517028808594,-0.3398151878451256,0.0,0.0,-5.0838190796285785,0.7144495694387946,-0.001373090211436553,-0.014246889904867655,0.0027356826330706043,0.0,0.0,0.0,0.0
24.90260672569275,-0.08164731,-0.012063361,-5.5579596,-0.0019739470399234536,nan,nan,nan,nan,nan,14.900144100189209,16.10014410018921,0.0004429817199707031,-0.3463342806863384,0.0,0.0,-5.050522925701869,0.7149656015506409,-0.0007710579428633123,-0.012329301093346007,0.0019508686825671156,0.0,0.0,0.0,0.0
25.002431869506836,-0.10433806,-0.012859106,-5.5395503,-0.0014808827882099257,nan,nan,nan,nan,nan,14.999963283538818,16.199963283538818,0.00037384033203125,-0.34959067901701346,0.0,0.0,-5.016922090427115,0.7158643550518962,-0.002459751493370653,-0.010534428444942973,0.0013198846348285538,0.0,0.0,0.0,0.0
25.102431774139404,-0.12492979,-0.012693155,-5.516488,-0.0016027398899706932,nan,nan,nan,nan,nan,15.099997520446777,16.299997520446777,0.0004162788391113281,-0.34959131992019854,0.0,0.0,-4.983091155082225,0.7170649502206111,-0.005649641058714423,-0.00992859232274377,0.0013689251941816987,0.0,0.0,0.0,0.0
25.202041149139404,-0.14530124,-0.013969804,-5.4871745,-0.0013742732456249623,nan,nan,nan,nan,nan,15.19969892501831,16.39969892501831,0.00040841102600097656,-0.3463419429835057,0.0,0.0,-4.949529627201594,0.7185712532947142,-0.006376397965406557,-0.010101736356951996,0.0012282032190780682,0.0,0.0,0.0,0.0
25.302375316619873,-0.15646882,-0.011418706,-5.4599977,-0.0013177870327730312,nan,nan,nan,nan,nan,15.299905776977539,16.49990577697754,0.0003707408905029297,-0.3398372636034643,0.0,0.0,-4.916270469567126,0.7196649417792788,-0.00763344267953635,-0.008704309794970373,0.0011087391578894338,0.0,0.0,0.0,0.0
25.40247368812561,-0.16991603,-0.010205857,-5.4291425,-0.0014231871211643212,nan,nan,nan,nan,nan,15.400002002716064,16.600002002716064,0.00042891502380371094,-0.33015890974890744,0.0,0.0,-4.883831612245789,0.7208444725571695,-0.008390794733787423,-0.007233273830357487,0.0011380993487156202,0.0,0.0,0.0,0.0
25.502483367919922,-0.18045773,-0.0061999094,-5.4025707,-0.001972491818963735,nan,nan,nan,nan,nan,15.500056028366089,16.700056028366088,0.00047588348388671875,-0.3173980378297798,0.0,0.0,-4.852492421951259,0.7218619583299872,-0.009001945281078913,-0.007011711956504327,0.0014239246631178356,0.0,0.0,0.0,0.0
25.602405786514282,-0.1892817,0.0027898087,-5.3769903,-0.0030252328236023964,nan,nan,nan,nan,nan,15.599939823150635,16.799939823150634,0.0004723072052001953,-0.30169970427292253,0.0,0.0,-4.822581600611349,0.7225865249474362,-0.011504523899973028,-0.007067821722656672,0.002145917912462337,0.0,0.0,0.0,0.0
25.702096700668335,-0.19546786,0.016075227,-5.3579626,-0.004402132611340891,nan,nan,nan,nan,nan,15.699672937393188,16.899672937393188,0.0005030632019042969,-0.2832209744185804,0.0,0.0,-4.79436469260025,0.722935341939548,-0.01735076623756254,-0.006697005378413886,0.0032912275819722467,0.0,0.0,0.0,0.0
25.802401781082153,-0.19832657,0.023723155,-5.3354516,-0.005470878831524912,nan,nan,nan,nan,nan,15.799949645996094,16.999949645996093,0.0003998279571533203,-0.26199005853144053,0.0,0.0,-4.7679198215471805,0.723360523500703,-0.018664371703026227,-0.005703486790867328,0.00428279703166755,0.0,0.0,0.0,0.0
25.902398824691772,-0.2045653,0.03165817,-5.3078394,-0.006105789169076316,nan,nan,nan,nan,nan,15.899941444396973,17.099941444396972,0.0004534721374511719,-0.23837005705506145,0.0,0.0,-4.743719458601386,0.7241370293081046,-0.018262110484759807,-0.006309479098837745,0.004904381207756218,0.0,0.0,0.0,0.0
26.002390384674072,-0.20857236,0.04012122,-5.2769847,-0.006448518478175094,nan,nan,nan,nan,nan,15.999951839447021,17.19995183944702,0.00040435791015625,-0.21251982430456418,0.0,0.0,-4.721907705468927,0.7251872482385266,-0.016667641498218293,-0.00859669113060293,0.005212715516295278,0.0,0.0,0.0,0.0
26.102497577667236,-0.20725214,0.04762804,-5.251359,-0.0065560105201821215,nan,nan,nan,nan,nan,16.1001455783844,17.3001455783844,0.0004558563232421875,-0.18463224488372196,0.0,0.0,-4.702660237860462,0.7262189582724023,-0.014174982544709586,-0.008503962884644755,0.005379016194683044,0.0,0.0,0.0,0.0
26.202978372573853,-0.19732592,0.0611402,-5.217942,-0.006587736121081521,nan,nan,nan,nan,nan,16.20093536376953,17.40093536376953,0.0006899833679199219,-0.15483329675718221,0.0,0.0,-4.686110449018604,0.7271912998860643,-0.014024747681716606,-0.005482864941308226,0.005471941267112134,0.0,0.0,0.0,0.0
26.302720546722412,-0.17981017,0.07021822,-5.1896477,-0.006577513799634364,nan,nan,nan,nan,nan,16.300275802612305,17.500275802612304,0.00040411949157714844,-0.1240244587369336,0.0,0.0,-4.672711238147396,0.7283570309900572,-0.01270977159593155,0.0006847309421560481,0.005588023194108062,0.0,0.0,0.0,0.0
26.402493953704834,-0.16371568,0.0772857,-5.16439,-0.006026791453612302,nan,nan,nan,nan,nan,16.40004253387451,17.60004253387451,0.0004134178161621094,-0.09193369745419365,0.0,0.0,-4.662289776180228,0.7290698076815338,-0.009844210712366838,0.005041753253470922,0.0054127158425907405,0.0,0.0,0.0,0.0
26.50255012512207,-0.15427953,0.08220615,-5.145062,-0.0055299823237699,nan,nan,nan,nan,nan,16.500213623046875,17.700213623046874,0.00042319297790527344,-0.05885372075542192,0.0,0.0,-4.654983711176932,0.7295655799035765,-0.005312754696515265,0.005688519696838164,0.004896081826803871,0.0,0.0,0.0,0.0
26.602582454681396,-0.14560767,0.08728162,-5.1219563,-0.00514706402681283,nan,nan,nan,nan,nan,16.600147247314453,17.800147247314452,0.0003979206085205078,-0.025302493162024032,0.0,0.0,-4.650915792623348,0.7303052334454573,-0.0016704624596804172,0.0028189397636284755,0.004483721939570282,0.0,0.0,0.0,0.0
26.702529191970825,-0.13779645,0.08745985,-5.0975323,-0.005252618627804621,nan,nan,nan,nan,nan,16.700077295303345,17.900077295303344,0.00045943260192871094,0.008483454134839962,0.0,0.0,-4.65010282795378,0.7311365211180444,0.003667428230671006,-0.0009133666825599389,0.004402312386052995,0.0,0.0,0.0,0.0
26.802420139312744,-0.12429874,0.09152351,-5.0709147,-0.005413833818002507,nan,nan,nan,nan,nan,16.799959897994995,17.999959897994994,0.00038814544677734375,0.04217436945481651,0.0,0.0,-4.652550258942263,0.7322574631245348,0.006865988021792644,-0.0025713853717416733,0.004502197966448414,0.0,0.0,0.0,0.0
26.9026038646698,-0.11005496,0.09191665,-5.0469785,-0.005781596186723945,nan,nan,nan,nan,nan,16.900172472000122,18.10017247200012,0.0004119873046875,0.07558144476888393,0.0,0.0,-4.658258218523622,0.7333225173240164,0.009427389549707142,-0.002495299728456506,0.0047239410133932645,0.0,0.0,0.0,0.0
27.00222611427307,-0.09782363,0.09039292,-5.025796,-0.006167381440050018,nan,nan,nan,nan,nan,16.999842405319214,18.199842405319213,0.0007259845733642578,0.10810523808116032,0.0,0.0,-4.667113746905319,0.7341889273930698,0.012557463722162458,-0.0024974862270916833,0.005119952646565527,0.0,0.0,0.0,0.0
27.102423429489136,-0.0843069,0.088935785,-5.0000167,-0.006168332508593638,nan,nan,nan,nan,nan,17.10000443458557,18.30000443458557,0.00039577484130859375,0.13977897974008396,0.0,0.0,-4.679123330821916,0.7353652842491273,0.013845041766065944,-0.003102675715487634,0.005216236114601214,0.0,0.0,0.0,0.0
27.20279026031494,-0.06644331,0.087609045,-4.9740105,-0.005928694025198257,nan,nan,nan,nan,nan,17.20050072669983,18.40050072669983,0.0005013942718505859,0.1702422323547792,0.0,0.0,-4.694193554150895,0.7367518560612478,0.013721156380924145,-0.0007285072070060117,0.005085752332468487,0.0,0.0,0.0,0.0
27.302647352218628,-0.04050981,0.08556664,-4.9464474,-0.00494049845950038,nan,nan,nan,nan,nan,17.300203323364258,18.500203323364257,0.0003917217254638672,0.1988792701237122,0.0,0.0,-4.711994729362361,0.7380956944461873,0.01251589678851309,0.004563107994375478,0.004517146029916387,0.0,0.0,0.0,0.0
27.402533531188965,-0.013613106,0.08037667,-4.925104,-0.0040872330423205126,nan,nan,nan,nan,nan,17.400160551071167,18.600160551071166,0.00041675567626953125,0.2257362882224787,0.0,0.0,-4.732524527891737,0.7392083067307982,0.011598701663044898,0.011577834316960587,0.0036771169199708736,0.0,0.0,0.0,0.0
27.50242805480957,0.014525437,0.073229834,-4.909393,-0.0035183915726581852,nan,nan,nan,nan,nan,17.500004529953003,18.700004529953002,0.00103759765625,0.2504607067951567,0.0,0.0,-4.755522118890746,0.7399438632720263,0.012293595413279944,0.0183536944727798,0.003089220249267376,0.0,0.0,0.0,0.0
27.602542638778687,0.036060944,0.067067206,-4.9021173,-0.0033173173916220926,nan,nan,nan,nan,nan,17.60026264190674,18.800262641906738,0.0004520416259765625,0.27294165695325606,0.0,0.0,-4.780904468553986,0.7401458796913888,0.012625228035272862,0.020888227227821788,0.0028124142337946517,0.0,0.0,0.0,0.0
27.703460931777954,0.06154776,0.06450191,-4.8906507,-0.002769187668784163,nan,nan,nan,nan,nan,17.701053619384766,18.901053619384765,0.0003857612609863281,0.2929597443432314,0.0,0.0,-4.808493895151229,0.7404701418205806,0.010674975558449495,0.02206214245832431,0.0024512171438450434,0.0,0.0,0.0,0.0
27.80273461341858,0.0842499,0.058281317,-4.876671,-0.002300246087396547,nan,nan,nan,nan,nan,17.800262212753296,19.000262212753295,0.00039315223693847656,0.3099508261143405,0.0,0.0,-4.837425446668189,0.7410766494268263,0.009640969585658394,0.02250182043470951,0.0019833179372944487,0.0,0.0,0.0,0.0
27.902199506759644,0.112697974,0.051526126,-4.863265,-0.0015468676918926544,nan,nan,nan,nan,nan,17.89975094795227,19.09975094795227,0.000423431396484375,0.3241293434948558,0.0,0.0,-4.867938769180377,0.7417749839332973,0.008947201183606276,0.0227878372382101,0.0015371122093786748,0.0,0.0,0.0,0.0
28.002488136291504,0.14250028,0.04561447,-4.8561296,-0.00046377508474807,nan,nan,nan,nan,nan,18.000154972076416,19.200154972076415,0.0004012584686279297,0.33540102883825024,0.0,0.0,-4.899969255454919,0.7421999056349158,0.007561333495141378,0.02599445974703053,0.0006110477590410036,0.0,0.0,0.0,0.0
28.10225796699524,0.17691518,0.038367797,-4.858032,0.0006341948887655772,nan,nan,nan,nan,nan,18.099812507629395,19.299812507629394,0.0005276203155517578,0.3434673512520875,0.0,0.0,-4.932693398363347,0.7420016158259831,0.006167873102905062,0.030613503401417518,-0.0003444265843960373,0.0,0.0,0.0,0.0
28.202277898788452,0.20618841,0.031202331,-4.865398,0.0010680553975006095,nan,nan,nan,nan,nan,18.19988775253296,19.39988775253296,0.0005235671997070312,0.34836240487194675,0.0,0.0,-4.966182329000449,0.741379289370502,0.00526078978987961,0.03333568278850468,-0.0009225015734140123,0.0,0.0,0.0,0.0
28.302313804626465,0.23354512,0.02598221,-4.870453,0.0017601903545553521,nan,nan,nan,nan,nan,18.299928426742554,19.499928426742553,0.0004813671112060547,0.3499999991623306,0.0,0.0,-4.999975784951734,0.7409542514872943,0.003945677158832723,0.03348777778355105,-0.00139375111471699,0.0,0.0,0.0,0.0
28.402193069458008,0.2567919,0.022731487,-4.88376,0.0027297220003839884,nan,nan,nan,nan,nan,18.399747848510742,19.59974784851074,0.0004017353057861328,0.3483742953325979,0.0,0.0,-5.0336949603281536,0.7403327748067423,0.0011119443356639059,0.031177476327385576,-0.002136847756514512,0.0,0.0,0.0,0.0
28.50208878517151,0.27447584,0.021433001,-4.902857,0.0034123050755760676,nan,nan,nan,nan,nan,18.499664545059204,19.699664545059203,0.0003917217254638672,0.3435013311114112,0.0,0.0,-5.06713296898461,0.7393842897677716,-0.002459781798118441,0.025645289314542224,-0.0027452693245633795,0.0,0.0,0.0,0.0
28.60266947746277,0.28748637,0.021224499,-4.919286,0.0035013202590203595,nan,nan,nan,nan,nan,18.6005220413208,19.8005220413208,0.0004551410675048828,0.3353354938133932,0.0,0.0,-5.10025021989466,0.7384241059355258,-0.0050317928200160995,0.019099615459234904,-0.0029266757532307977,0.0,0.0,0.0,0.0
28.70240330696106,0.3096668,0.027473787,-4.9332814,0.0038313767937519696,nan,nan,nan,nan,nan,18.69998574256897,19.89998574256897,0.0006062984466552734,0.3241629460781674,0.0,0.0,-5.131978727035546,0.7380811336401791,-0.008971858335589663,0.01608061642418642,-0.0030695905041444194,0.0,0.0,0.0,0.0
28.802287817001343,0.32356602,0.03173742,-4.940433,0.004029950822746417,nan,nan,nan,nan,nan,18.79987668991089,19.999876689910888,0.00044345855712890625,0.30992899453076683,0.0,0.0,-5.162616168781422,0.737908695752924,-0.01215752824905951,0.014561175218339642,-0.003245684402678328,0.0,0.0,0.0,0.0
28.902549505233765,0.3352441,0.036682516,-4.953327,0.00438720592985632,nan,nan,nan,nan,nan,18.900158643722534,20.100158643722533,0.00046324729919433594,0.2927351312790969,0.0,0.0,-5.191849271343442,0.7377699175076315,-0.01277500414912278,0.012729610059328668,-0.003430402592407466,0.0,0.0,0.0,0.0
29.00217890739441,0.3424935,0.040091556,-4.9706993,0.004765573266018855,nan,nan,nan,nan,nan,18.999758005142212,20.19975800514221,0.0004367828369140625,0.272937284114958,0.0,0.0,-5.219100978865797,0.7370301650047723,-0.012744297798318184,0.009981824831297581,-0.0038218900228090794,0.0,0.0,0.0,0.0
29.102426290512085,0.34653822,0.03976957,-5.0006313,0.0048200774457532744,nan,nan,nan,nan,nan,19.100022315979004,20.300022315979003,0.00057220458984375,0.25045436239827057,0.0,0.0,-5.2444843805965435,0.7354407634673267,-0.010052135156605998,0.00689389835705903,-0.004008439035412905,0.0,0.0,0.0,0.0
29.202940464019775,0.34924766,0.04488176,-5.035117,0.004709862752196502,nan,nan,nan,nan,nan,19.20066237449646,20.40066237449646,0.0005104541778564453,0.22552344651211206,0.0,0.0,-5.267654955256387,0.7335654099854656,-0.008446555855808842,0.0039619693845565525,-0.003978391667356454,0.0,0.0,0.0,0.0
29.30221199989319,0.3503034,0.050270714,-5.069143,0.0045770388259124,nan,nan,nan,nan,nan,19.299816370010376,20.499816370010375,0.0004985332489013672,0.19887378748100842,0.0,0.0,-5.288009056546767,0.7318177230743182,-0.007925525336880117,0.0027028752226430997,-0.003879133722593995,0.0,0.0,0.0,0.0
29.402750253677368,0.34514165,0.05440942,-5.1049805,0.004512679334051551,nan,nan,nan,nan,nan,19.40049171447754,20.60049171447754,0.0004489421844482422,0.16994878255982426,0.0,0.0,-5.305969624810101,0.7300245678528243,-0.007263327521125393,0.0016422185631847941,-0.003767797694826243,0.0,0.0,0.0,0.0
29.50246262550354,0.33443895,0.055839706,-5.137944,0.004625068093800275,nan,nan,nan,nan,nan,19.50006651878357,20.70006651878357,0.0005357265472412109,0.13975697155842087,0.0,0.0,-5.320886255394055,0.728488442369476,-0.004599467748791015,-0.0024753358196150477,-0.003909632882883489,0.0,0.0,0.0,0.0
29.60224747657776,0.31940225,0.0558519,-5.1797714,0.004513401010199371,nan,nan,nan,nan,nan,19.599841117858887,20.799841117858886,0.0004980564117431641,0.10820706971240752,0.0,0.0,-5.332853165921933,0.7266102330290805,-0.0016208766346451475,-0.006992293692672274,-0.003920010774538175,0.0,0.0,0.0,0.0
