time,x,y,z,yaw,platform,trajectory,traj_double,traj_short,traj_spin,traj_time,ref_time,comptime,x_ref,y_ref,yaw_ref,z_ref,throttle_input,p_input,q_input,r_input,cbf_term_pitch_cbf,cbf_term_roll_cbf,cbf_term_thrust_cbf,cbf_term_yaw_cbf
10.00749683380127,0.11029341,0.1929953,-2.874156,0.019266135274542205,SIM,CIRCLE_HORIZONTAL,NormSpd,Not Short,NoSpin,9.5367431640625e-07,1.2000009536743164,0.009813308715820312,0.23961824304498358,0.5500755380854844,0.0,-5.0,0.7726611484367588,0.007999999999999998,-0.029816698555036842,-0.004808954256668164,0.0,-5.980611086514455,0.0,0.0
10.116937637329102,0.097864136,0.17883553,-2.8770201,0.014697563187423176,nan,nan,nan,nan,nan,0.10945415496826172,1.3094541549682617,0.0005538463592529297,0.18018761691186894,0.5723044842665672,0.0,-5.0,0.8007729766159767,0.06180424445766392,-0.07287890425480666,-0.005711191708527682,0.0,-3.249773299045727,-73.0633469011959,0.0
10.216876745223999,0.08599727,0.15993759,-2.8942878,0.011821130322433008,nan,nan,nan,nan,nan,0.20935797691345215,1.409357976913452,0.0006289482116699219,0.12416566054815469,0.5870118301539079,0.0,-5.0,0.8085343497834002,0.1323889908399299,-0.06336780481073823,-0.0032359051646456234,0.0,-0.642106445352551,-42.77156376992672,0.0
10.316710948944092,0.07585788,0.14058444,-2.9316566,0.011592383604714481,nan,nan,nan,nan,nan,0.3092923164367676,1.5092923164367675,0.0008504390716552734,0.06696904089612543,0.5962509099040881,0.0,-5.0,0.8154907582545172,0.14643434713030856,-0.03455934942648303,-0.00603111746868253,0.0,0.0,-7.548904753675943,0.0
10.416705131530762,0.06706507,0.1274312,-2.982652,0.012366068274595144,nan,nan,nan,nan,nan,0.4091329574584961,1.609132957458496,0.0004830360412597656,0.00920230705438103,0.5999294271369566,0.0,-5.0,0.8106736200606146,0.11126286030053678,-0.006634489111388965,-0.009573711537793909,0.0,0.0,0.0,0.0
10.516692399978638,0.062791534,0.11751979,-3.051772,0.0144319243596387,nan,nan,nan,nan,nan,0.5091245174407959,1.7091245174407959,0.0005135536193847656,-0.04873731504401269,0.5980172858056033,0.0,-5.0,0.7960977081628537,0.06934077388404691,0.019327001686103254,-0.013519153088656791,0.0,0.0,0.0,0.0
10.616722106933594,0.058050323,0.116491154,-3.1494908,0.016238814262798478,nan,nan,nan,nan,nan,0.6091494560241699,1.8091494560241699,0.0008089542388916016,-0.10624101999801695,0.5905191323486318,0.0,-5.0,0.7816197941458015,0.027295390823999982,0.040380597156215225,-0.016429973175044302,0.0,0.0,0.0,0.0
10.71716570854187,0.05431046,0.12308344,-3.2625597,0.01769375491488544,nan,nan,nan,nan,nan,0.7097499370574951,1.909749937057495,0.0004940032958984375,-0.16307355316500063,0.577414076948373,0.0,-5.0,0.7691450482378568,-0.010470129383722115,0.0557718631984011,-0.017788964287089322,0.0,0.0,0.48328262860974736,0.0
10.8167085647583,0.053364385,0.13606584,-3.374606,0.018822162098037894,nan,nan,nan,nan,nan,0.8091275691986084,2.0091275691986086,0.0005567073822021484,-0.21770443670359482,0.5591107030272006,0.0,-5.0,0.7587425911036653,-0.044524121215402425,0.06575174670746116,-0.01813817143282462,0.0,0.0,5.991360241643141,0.0
10.91673231124878,0.055173323,0.15444371,-3.4809406,0.019315532472218643,nan,nan,nan,nan,nan,0.9091625213623047,2.109162521362305,0.0005648136138916016,-0.27066817108113445,0.5354799166762407,0.0,-5.0,0.749212065627065,-0.07335263548593185,0.07342459205463069,-0.017528707760853936,0.0,0.0,6.098491605307784,0.0
11.016721963882446,0.048801128,0.18683407,-3.6107903,0.019107068484299466,nan,nan,nan,nan,nan,1.009155511856079,2.2091555118560793,0.0004210472106933594,-0.3210824252020951,0.5068590299346959,0.0,-5.0,0.7404886129642564,-0.09981935710848022,0.07329090758383011,-0.015802227422674512,0.0,0.0,9.76212821632945,0.0
11.116772174835205,0.03986509,0.22320433,-3.731021,0.018687671497651444,nan,nan,nan,nan,nan,1.1091997623443604,2.3091997623443605,0.0004162788391113281,-0.3685227010240973,0.473488140115361,0.0,-5.0,0.7325110268290927,-0.12160700043302695,0.0670661122426515,-0.014076978519691231,0.0,0.0,8.992969545365254,0.0
11.216780185699463,0.024784947,0.26397446,-3.86303,0.017944366379024718,nan,nan,nan,nan,nan,1.2092115879058838,2.409211587905884,0.00039076805114746094,-0.41250547997229714,0.43570543833285436,0.0,-5.0,0.7252217027599253,-0.13677337968853437,0.056118935527317296,-0.012648876129627644,0.0,0.0,8.930271911254506,0.0
11.31672739982605,0.0071550612,0.30097035,-3.9875126,0.01744329393409337,nan,nan,nan,nan,nan,1.3092060089111328,2.509206008911133,0.0004477500915527344,-0.45262926987945784,0.3938613259110227,0.0,-5.0,0.7185665683058732,-0.14186471982081086,0.038704336518090035,-0.01236851482055994,0.0,0.0,9.47589249506614,0.0
11.416764974594116,-0.011619543,0.34006414,-4.1256843,0.01722224955293299,nan,nan,nan,nan,nan,1.4091858863830566,2.609185886383057,0.00042748451232910156,-0.4885225562520541,0.34834711428826076,0.0,-5.0,0.7124949955385907,-0.14004491041078435,0.021188975931210195,-0.012928918578333278,0.0,0.0,9.161819588428134,0.0
11.516757488250732,-0.03184048,0.37657875,-4.2550707,0.017794827736865155,nan,nan,nan,nan,nan,1.509185552597046,2.709185552597046,0.00042247772216796875,-0.5198622036925283,0.2995718430893467,0.0,-5.0,0.7069596977658238,-0.1311610138446107,0.0027119123707763926,-0.014689765516153098,0.0,0.0,9.262864200854022,0.0
11.617012023925781,-0.06121417,0.40392736,-4.37152,0.01923783950204658,nan,nan,nan,nan,nan,1.6094467639923096,2.8094467639923097,0.0005764961242675781,-0.5464107522342286,0.2478614327458476,0.0,-5.0,0.7019166126420672,-0.11669597616754813,-0.01570337091304136,-0.01744246731053433,0.0,0.0,7.214081120795372,0.0
11.716770648956299,-0.09849989,0.42488852,-4.4899006,0.021998044936287056,nan,nan,nan,nan,nan,1.7092115879058838,2.909211587905884,0.0005218982696533203,-0.5677378762352047,0.1940971506435358,0.0,-5.0,0.6973247740512225,-0.09213367800310623,-0.03691542883473699,-0.021399720525534332,0.0,0.0,4.499202783160298,0.0
11.817279815673828,-0.13879994,0.43968898,-4.6022696,0.025723422370646926,nan,nan,nan,nan,nan,1.8099236488342285,3.0099236488342287,0.00047659873962402344,-0.5839156667390746,0.137994543865553,0.0,-5.0,0.6931461751939115,-0.06521004987765143,-0.05495989238378716,-0.02580820897607504,0.0,0.0,0.7141588439339013,0.0
11.916709899902344,-0.17940445,0.4509707,-4.697869,0.02870707499548522,nan,nan,nan,nan,nan,1.9091289043426514,3.1091289043426515,0.0004677772521972656,-0.5944457314943138,0.08145104240088114,0.0,-5.0,0.6913852991883057,-0.041061054031947854,-0.07000363221379939,-0.029683028226478426,0.0,0.0,0.0,0.0
12.016694068908691,-0.21717744,0.455336,-4.789011,0.030225236642207772,nan,nan,nan,nan,nan,2.009112596511841,3.209112596511841,0.0003342628479003906,-0.599531427489228,0.023707961800384602,0.0,-5.0,0.6916809337261186,-0.020270838976885346,-0.07732442421684746,-0.031474123293162334,0.0,0.0,0.0,0.0
12.116729736328125,-0.2513133,0.4461195,-4.8619704,0.031138890012075596,nan,nan,nan,nan,nan,2.1091575622558594,3.3091575622558596,0.00036454200744628906,-0.599019254177387,-0.03429188132440514,0.0,-5.0,0.6924044103741698,0.0022069826298890946,-0.07956860326495949,-0.03162945086050574,0.0,0.0,0.0,0.0
12.216752290725708,-0.29270357,0.42525196,-4.9484487,0.032331200060895106,nan,nan,nan,nan,nan,2.2091808319091797,3.40918083190918,0.0003399848937988281,-0.5929111012425872,-0.09195882787042554,0.0,-5.0,0.6932769234061744,0.02200343717388046,-0.07928814690083319,-0.03156585110080575,0.0,0.0,0.0,0.0
12.316776752471924,-0.32079062,0.40345642,-5.0100245,0.03299591735954248,nan,nan,nan,nan,nan,2.3095428943634033,3.5095428943634035,0.0006022453308105469,-0.581215771368768,-0.1489571317937076,0.0,-5.0,0.6944074115560364,0.03948957072326425,-0.07429789738236381,-0.031029651234129707,0.0,0.0,0.0,0.0
12.4167320728302,-0.3441456,0.37198764,-5.068045,0.034101421516153356,nan,nan,nan,nan,nan,2.4091615676879883,3.6091615676879885,0.0004456043243408203,-0.5642012961766204,-0.20414920375211223,0.0,-5.0,0.6958964835125807,0.05273181341684595,-0.06470015444099331,-0.030753807517056437,0.0,0.0,0.0,0.0
12.516712427139282,-0.3726176,0.32675424,-5.1155453,0.03483507615353546,nan,nan,nan,nan,nan,2.509143114089966,3.709143114089966,0.0003457069396972656,-0.5418687542070021,-0.2576397741307648,0.0,-5.0,0.6980644633510695,0.06590506344825388,-0.055757791426271484,-0.03035314371096819,0.0,0.0,0.0,0.0
12.616761922836304,-0.3969255,0.28218693,-5.1497154,0.03566838719250653,nan,nan,nan,nan,nan,2.6091885566711426,3.8091885566711428,0.00033593177795410156,-0.5144597259119944,-0.30875749450751083,0.0,-5.0,0.7007072632901823,0.07485929609667935,-0.04885789236295269,-0.03014331483399401,0.0,0.0,0.0,0.0
12.716750144958496,-0.4180778,0.22883359,-5.178311,0.037389986714861226,nan,nan,nan,nan,nan,2.7091777324676514,3.9091777324676515,0.0003342628479003906,-0.48226237857168236,-0.35696358107569365,0.0,-5.0,0.7035515263068063,0.07832321320371109,-0.04134995175431652,-0.030691334084629353,0.0,0.0,0.0,0.0
12.816792964935303,-0.4326295,0.17398477,-5.1995893,0.039526943366402306,nan,nan,nan,nan,nan,2.8093667030334473,4.009366703033447,0.0003299713134765625,-0.4454856359572082,-0.4019235600904751,0.0,-5.0,0.7063648145580117,0.07998895682250193,-0.032309880445079,-0.03249412805946408,0.0,0.0,0.0,0.0
12.91672158241272,-0.4466816,0.11436715,-5.22169,0.04134655693630481,nan,nan,nan,nan,nan,2.909147024154663,4.109147024154663,0.0003333091735839844,-0.40470879915572056,-0.44295686910345416,0.0,-5.0,0.7088122023226977,0.07715432625716259,-0.025193160037656974,-0.03402924236417828,0.0,0.0,0.0,0.0
13.016775846481323,-0.44917214,0.055902,-5.2440443,0.0434314899441274,nan,nan,nan,nan,nan,3.0092079639434814,4.209207963943482,0.0003821849822998047,-0.3600396933977296,-0.4799702273871462,0.0,-5.0,0.7107762699872999,0.07200168330183128,-0.01761953971109649,-0.03558380363941847,0.0,0.0,0.0,0.0
13.116803169250488,-0.4436652,-0.002261624,-5.2614603,0.046632194062317556,nan,nan,nan,nan,nan,3.1092333793640137,4.309233379364014,0.0003349781036376953,-0.31202249753580125,-0.5124860593533457,0.0,-5.0,0.712561537051216,0.06409159882513187,-0.007927121588606669,-0.03806599916250936,0.0,0.0,0.0,0.0
13.216899156570435,-0.43211097,-0.054656032,-5.27239,0.05048209190337573,nan,nan,nan,nan,nan,3.2093324661254883,4.4093324661254885,0.0003376007080078125,-0.2610520803378548,-0.5402331083442389,0.0,-5.0,0.7143804542538366,0.05322551944350654,0.001553754440907254,-0.04148755462305885,0.0,0.0,0.0,0.0
13.316740036010742,-0.41258332,-0.11274069,-5.282631,0.054280993180399445,nan,nan,nan,nan,nan,3.3092029094696045,4.509202909469605,0.0003380775451660156,-0.2077638723964729,-0.5628802477675177,0.0,-5.0,0.7162631060561573,0.045579932781334286,0.011183894789139526,-0.04533214417879233,0.0,0.0,0.0,0.0
13.41689133644104,-0.38922203,-0.16264497,-5.2976766,0.056339033594298024,nan,nan,nan,nan,nan,3.409318685531616,4.609318685531616,0.0003306865692138672,-0.15240322973439302,-0.5803216828333453,0.0,-5.0,0.7173913049465497,0.038605627782280424,0.01845713697931351,-0.04793216701964453,0.0,0.0,0.0,0.0
13.516707181930542,-0.35908896,-0.20593436,-5.3075943,0.05923336331378487,nan,nan,nan,nan,nan,3.5091238021850586,4.709123802185059,0.00035262107849121094,-0.09579421627996516,-0.5923035270258883,0.0,-5.0,0.7185162917976722,0.030298177107561636,0.024367078363334637,-0.0502322602683569,0.0,0.0,0.0,0.0
13.61685562133789,-0.32788315,-0.24462989,-5.3184743,0.06115633889504876,nan,nan,nan,nan,nan,3.609285354614258,4.809285354614258,0.00034332275390625,-0.03808796936356402,-0.5987898684762127,0.0,-5.0,0.7194757177321189,0.022117743522170913,0.027123928499085233,-0.05238724148481919,0.0,0.0,0.0,0.0
13.716854095458984,-0.293899,-0.28111443,-5.329859,0.06178283012577303,nan,nan,nan,nan,nan,3.7092888355255127,4.909288835525513,0.000339508056640625,0.019883414973024753,-0.5996704510053922,0.0,-5.0,0.7201132909832806,0.015225710612313885,0.025953413932934218,-0.052748247250497315,0.0,0.0,0.0,0.0
13.81685757637024,-0.2619787,-0.31043014,-5.335739,0.0633899508594466,nan,nan,nan,nan,nan,3.8093016147613525,5.009301614761353,0.0003371238708496094,0.07767448782973589,-0.594950984485603,0.0,-5.0,0.7209446466044793,0.007489686779391616,0.023861151293878006,-0.05405427242299426,0.0,0.0,0.0,0.0
13.916789293289185,-0.2240381,-0.3410845,-5.336631,0.064611828490612,nan,nan,nan,nan,nan,3.9092111587524414,5.109211158752442,0.0003459453582763672,0.1346818032835245,-0.584688645232912,0.0,-5.0,0.722039718398095,0.004136417016898788,0.02205195066500925,-0.05513308845956392,0.0,0.0,0.0,0.0
14.016863822937012,-0.19378042,-0.36609882,-5.338092,0.06510708548345118,nan,nan,nan,nan,nan,4.009299993515015,5.209299993515015,0.0003447532653808594,0.19053250992421372,-0.5689440769196735,0.0,-5.0,0.7230380580405578,0.003953648401689554,0.017512663394789976,-0.055523819105523765,0.0,0.0,0.0,0.0
14.11688494682312,-0.16088055,-0.38553724,-5.3383408,0.06588999230734513,nan,nan,nan,nan,nan,4.109323740005493,5.309323740005493,0.0003418922424316406,0.24456663484268,-0.5478933848128915,0.0,-5.0,0.7238535809143316,0.0039842391819903365,0.010682758818383147,-0.055662482277133926,0.0,0.0,0.0,0.0
14.217047214508057,-0.12986358,-0.3956883,-5.3368545,0.06665858204685846,nan,nan,nan,nan,nan,4.209486961364746,5.409486961364746,0.00034356117248535156,0.29638656077814396,-0.5216847770350439,0.0,-5.0,0.72464042100849,0.0011572899548806484,0.005539304872147428,-0.056191021703017895,0.0,0.0,0.0,0.0
14.31678581237793,-0.096598454,-0.39683238,-5.333963,0.06875176778137082,nan,nan,nan,nan,nan,4.309342622756958,5.509342622756958,0.0003380775451660156,0.34528430337878596,-0.4906921130813358,0.0,-5.0,0.725352933258808,-0.00474295417886641,0.0016371052028600497,-0.05766495725997657,0.0,0.0,0.0,0.0
14.41672658920288,-0.06871225,-0.39377543,-5.3308606,0.07129674826048463,nan,nan,nan,nan,nan,4.409158229827881,5.609158229827881,0.0003402233123779297,0.3909498898018218,-0.45514633214378797,0.0,-5.0,0.72601411327326,-0.010081918398556336,-0.00018679148504521648,-0.05975490550940541,0.0,0.0,0.0,0.0
14.517086505889893,-0.03008706,-0.3939604,-5.3273206,0.07231015553624459,nan,nan,nan,nan,nan,4.509503602981567,5.709503602981568,0.00033402442932128906,0.43319137143986397,-0.4151448370268499,0.0,-5.0,0.7265825612471133,-0.009357260787168753,0.00010988036578994117,-0.06101596024944108,0.0,0.0,0.0,0.0
14.617286920547485,0.00063072995,-0.39300248,-5.321661,0.07158816791479675,nan,nan,nan,nan,nan,4.609721660614014,5.809721660614014,0.00034236907958984375,0.4713146061219805,-0.3712984541525622,0.0,-5.0,0.7271570504258565,-0.003555390456174609,0.001967847850356396,-0.06078204604137201,0.0,0.0,0.0,0.0
14.717006206512451,0.039606765,-0.38896653,-5.3114114,0.06971121880733389,nan,nan,nan,nan,nan,4.709427356719971,5.909427356719971,0.0003561973571777344,0.504857590963561,-0.32422031528957235,0.0,-5.0,0.7279580699357449,0.0025427261385175706,0.004550372335992492,-0.05955011848593877,0.0,0.0,0.0,0.0
14.8169424533844,0.070777096,-0.38552147,-5.303652,0.06813353728585486,nan,nan,nan,nan,nan,4.8093812465667725,6.009381246566773,0.00033855438232421875,0.5337802927460873,-0.2740047427981884,0.0,-5.0,0.7286510558328652,0.008063703270214287,0.008550057103384131,-0.058384703925287766,0.0,0.0,0.0,0.0
14.91698431968689,0.10645598,-0.37895358,-5.290674,0.06709759072888447,nan,nan,nan,nan,nan,4.909409046173096,6.109409046173096,0.0003490447998046875,0.5577396276160358,-0.22119337193217528,0.0,-5.0,0.7294685200335973,0.01357287406295399,0.012829636881304654,-0.05745053949591756,0.0,0.0,0.0,0.0
15.01692509651184,0.14265399,-0.37165546,-5.2793074,0.06496620730546099,nan,nan,nan,nan,nan,5.009361982345581,6.209361982345581,0.0003604888916015625,0.5764765672491237,-0.16635734853821918,0.0,-5.0,0.7301612343830811,0.018479380367301058,0.016642318543103364,-0.05623018688891696,0.0,0.0,0.0,0.0
15.11697006225586,0.17599498,-0.36724555,-5.2697663,0.061940087465030824,nan,nan,nan,nan,nan,5.10940408706665,6.309404087066651,0.00034308433532714844,0.5898456382467806,-0.10991871106071087,0.0,-5.0,0.7306352586534588,0.02352920615011866,0.020376389787073332,-0.054094102764912465,0.0,0.0,0.0,0.0
15.217194557189941,0.21234438,-0.36439863,-5.259832,0.05774973556313337,nan,nan,nan,nan,nan,5.209642171859741,6.409642171859741,0.0003459453582763672,0.5977127705886063,-0.052339696935424784,0.0,-5.0,0.7311175908238913,0.029777641703899974,0.025200307835261816,-0.0512874394788052,0.0,0.0,0.0,0.0
15.316956758499146,0.24148187,-0.3591786,-5.254528,0.05255205134436926,nan,nan,nan,nan,nan,5.309459447860718,6.509459447860718,0.0003559589385986328,0.5999749168065436,0.005486274052671205,0.0,-5.0,0.7312294020823589,0.03350118695986628,0.02841420923886813,-0.04744127643145746,0.0,0.0,0.0,0.0
15.41693639755249,0.27613407,-0.34888622,-5.248251,0.046440082411125,nan,nan,nan,nan,nan,5.4094202518463135,6.609420251846314,0.0003485679626464844,0.5966469133571151,0.06334398772912207,0.0,-5.0,0.7313177389416639,0.032904964622304265,0.03216912098426225,-0.0426324394858496,0.0,0.0,0.0,0.0
15.517016410827637,0.30666834,-0.33195904,-5.2447014,0.041570156648838556,nan,nan,nan,nan,nan,5.5095908641815186,6.709590864181519,0.0004673004150390625,0.5877280680447107,0.12072993842635647,0.0,-5.0,0.7312919728706672,0.02764367598319279,0.035998503167648355,-0.03825614593664925,0.0,0.0,0.0,0.0
15.616955518722534,0.33872122,-0.30980825,-5.239462,0.03779938240433311,nan,nan,nan,nan,nan,5.609418630599976,6.809418630599976,0.0003483295440673828,0.5733616612633267,0.17679481155666937,0.0,-5.0,0.731184307908868,0.017705926461362327,0.03884731333492261,-0.034817645144476446,0.0,0.0,0.0,0.0
15.717120170593262,0.36787507,-0.28762862,-5.231068,0.03577462860082262,nan,nan,nan,nan,nan,5.709585905075073,6.909585905075073,0.00035309791564941406,0.553584430765336,0.23139636560287374,0.0,-5.0,0.7313151552480697,0.00955547058852137,0.04166120922652606,-0.032832631399857766,0.0,0.0,0.0,0.0
15.816794157028198,0.3993066,-0.26116562,-5.2176547,0.03404051706692634,nan,nan,nan,nan,nan,5.80921745300293,7.00921745300293,0.0004143714904785156,0.5287681514389406,0.28355641770879664,0.0,-5.0,0.7318177987084571,-0.0008734167289623431,0.0434913325723413,-0.03116164438140544,0.0,0.0,0.0,0.0
15.917200565338135,0.42001027,-0.23521258,-5.205885,0.03173733084531449,nan,nan,nan,nan,nan,5.909632444381714,7.109632444381714,0.00034427642822265625,0.4987987973965066,0.3334662797282488,0.0,-5.0,0.7322300040251213,-0.006258247334279967,0.043185495387020226,-0.029309951656064658,0.0,0.0,0.0,0.0
16.01676368713379,0.44024023,-0.20743455,-5.2000313,0.029368568704059586,nan,nan,nan,nan,nan,6.009192228317261,7.209192228317261,0.00034308433532714844,0.4644477659595433,0.3798529619407874,0.0,-5.0,0.7323318093269878,-0.011947430555331153,0.040652295902294175,-0.026857108645921977,0.0,0.0,0.0,0.0
16.11703133583069,0.45821184,-0.17634776,-5.1971006,0.026887599964538714,nan,nan,nan,nan,nan,6.109458923339844,7.309458923339844,0.0003497600555419922,0.42550941663986236,0.42301505452029015,0.0,-5.0,0.7320358367345561,-0.0170464955898679,0.03833129327455534,-0.02452586549107428,0.0,0.0,0.0,0.0
16.2168927192688,0.473464,-0.13823314,-5.1939864,0.02430491699985656,nan,nan,nan,nan,nan,6.20933198928833,7.40933198928833,0.0003581047058105469,0.3827528394981859,0.4620608876068996,0.0,-5.0,0.7318164959885127,-0.023648477709932118,0.03573073898424941,-0.022182234206899475,0.0,0.0,0.0,0.0
16.31710934638977,0.4860229,-0.10394474,-5.195642,0.02216485750422159,nan,nan,nan,nan,nan,6.309661149978638,7.509661149978638,0.0003521442413330078,0.3362125977829988,0.49695179755385477,0.0,-5.0,0.7313653633425387,-0.029876753830910405,0.03251605508469285,-0.019841952305304677,0.0,0.0,0.0,0.0
16.41693425178528,0.49255913,-0.06754666,-5.1981573,0.0207697890383716,nan,nan,nan,nan,nan,6.40941047668457,7.6094104766845705,0.00040650367736816406,0.28680797761964805,0.5270115596205907,0.0,-5.0,0.7308935258129722,-0.03230606390493732,0.02924800840213565,-0.0182406741355679,0.0,0.0,0.0,0.0
16.517033100128174,0.4902205,-0.030484743,-5.201542,0.020329589438766726,nan,nan,nan,nan,nan,6.509521245956421,7.709521245956421,0.0003592967987060547,0.2345459699252922,0.5522573566660782,0.0,-5.0,0.7303906017846551,-0.03605840807671755,0.021707233622151906,-0.017411857896688133,0.0,0.0,0.0,0.0
16.616961002349854,0.47982252,0.01276932,-5.2060184,0.020711116506934947,nan,nan,nan,nan,nan,6.609403848648071,7.8094038486480715,0.0003552436828613281,0.18021544689136923,0.572295721372914,0.0,-5.0,0.729914182491411,-0.0407362850771863,0.01271391168404329,-0.017320724708127847,0.0,0.0,0.0,0.0
16.71702527999878,0.46423692,0.05348658,-5.2105145,0.02134702695230461,nan,nan,nan,nan,nan,6.70947790145874,7.90947790145874,0.0003612041473388672,0.12409761076126581,0.5870262200305412,0.0,-5.0,0.7293710774789417,-0.044443748599213566,0.0028881727170727463,-0.01781400785177703,0.0,0.0,0.0,0.0
16.816803693771362,0.44244552,0.095258616,-5.213175,0.023162122941419335,nan,nan,nan,nan,nan,6.809240341186523,8.009240341186523,0.0003635883331298828,0.06699899738641704,0.5962475445225874,0.0,-5.0,0.7290121044788154,-0.04547204363461807,-0.006421863806514169,-0.01908483001984099,0.0,0.0,0.0,0.0
16.916791915893555,0.42245266,0.12474874,-5.2130017,0.02509521477940354,nan,nan,nan,nan,nan,6.90922212600708,8.10922212600708,0.0004074573516845703,0.009150596563451944,0.5999302180941821,0.0,-5.0,0.7288906359324626,-0.04285795676347473,-0.013537581818994804,-0.02093067999256553,0.0,0.0,0.0,0.0
17.016865253448486,0.3908277,0.16576883,-5.209925,0.028262796661776723,nan,nan,nan,nan,nan,7.00933575630188,8.20933575630188,0.0003590583801269531,-0.048859424824316995,0.5980073215319667,0.0,-5.0,0.7289512039804708,-0.039844354364923326,-0.01809122717107126,-0.023094450952364568,0.0,0.0,0.0,0.0
17.11698269844055,0.36371827,0.19993404,-5.2065263,0.030435208272318236,nan,nan,nan,nan,nan,7.1094300746917725,8.309430074691772,0.00036144256591796875,-0.1064011993159918,0.5904902918627185,0.0,-5.0,0.7292107547440588,-0.04050488742831039,-0.02330409216293948,-0.025721128997034673,0.0,0.0,0.0,0.0
17.21706533432007,0.3326982,0.24048404,-5.2031074,0.03184561759198817,nan,nan,nan,nan,nan,7.209503650665283,8.409503650665282,0.0003457069396972656,-0.1629360828613674,0.5774528837072282,0.0,-5.0,0.7293801445876184,-0.041205722005861575,-0.023331580394975064,-0.027264420919590786,0.0,0.0,0.0,0.0
17.316970586776733,0.3042868,0.2695593,-5.1987762,0.03158243218599376,nan,nan,nan,nan,nan,7.30942440032959,8.50942440032959,0.0003535747528076172,-0.21786485337381462,0.559048214078541,0.0,-5.0,0.7296184520635939,-0.04166315099898672,-0.022673004788129458,-0.027580407977764752,0.0,0.0,0.0,0.0
17.417044401168823,0.26854172,0.30136883,-5.1952205,0.030245289364684427,nan,nan,nan,nan,nan,7.409482002258301,8.6094820022583,0.0003445148468017578,-0.27083352735886596,0.5353963022456865,0.0,-5.0,0.7298315061872046,-0.04256403098645956,-0.02330081280188202,-0.026765791309636706,0.0,0.0,0.0,0.0
17.516911268234253,0.22655274,0.33402693,-5.195339,0.028880087023861842,nan,nan,nan,nan,nan,7.5093419551849365,8.709341955184936,0.00037932395935058594,-0.32117376830365185,0.5068011548463875,0.0,-5.0,0.7298280671699935,-0.04324201896818421,-0.025664465548062818,-0.02573823139312965,0.0,0.0,0.0,0.0
17.616892337799072,0.18635896,0.36058763,-5.198076,0.028813914590206074,nan,nan,nan,nan,nan,7.609440326690674,8.809440326690673,0.0003521442413330078,-0.36863279601797116,0.47340243102457,0.0,-5.0,0.7295297101517633,-0.043175605930217416,-0.028182681507678206,-0.02565572605734723,0.0,0.0,0.0,0.0
17.717058897018433,0.14473009,0.3820522,-5.2001667,0.028970712587531585,nan,nan,nan,nan,nan,7.709563970565796,8.909563970565795,0.0003561973571777344,-0.4126538697484692,0.43556490191659547,0.0,-5.0,0.7292767566207955,-0.03874925493878836,-0.02879435909012153,-0.02587674963006502,0.0,0.0,0.0,0.0
17.816975831985474,0.10398601,0.4014787,-5.204497,0.02887062813993286,nan,nan,nan,nan,nan,7.809473276138306,9.009473276138305,0.00034046173095703125,-0.45273100972582,0.39374437498539516,0.0,-5.0,0.7289937831124333,-0.034833870813342785,-0.028941481126334465,-0.025901382734227776,0.0,0.0,0.0,0.0
17.916986227035522,0.062324956,0.41595367,-5.2051034,0.02762446604896876,nan,nan,nan,nan,nan,7.90947961807251,9.109479618072509,0.00035071372985839844,-0.4886214441287609,0.34820839211243054,0.0,-5.0,0.7288896376226917,-0.03100486949354657,-0.028057363772087434,-0.025175004843349474,0.0,0.0,0.0,0.0
18.01675510406494,0.021414664,0.42357722,-5.204134,0.026769469487181227,nan,nan,nan,nan,nan,8.009185552597046,9.209185552597045,0.00036644935607910156,-0.519862203692528,0.29957184308934726,0.0,-5.0,0.7289761134094155,-0.026524348054242274,-0.02657276268282456,-0.02405878234740664,0.0,0.0,0.0,0.0
18.11707043647766,-0.025966713,0.4248252,-5.2034025,0.02683819007075958,nan,nan,nan,nan,nan,8.109549522399902,9.309549522399902,0.0003566741943359375,-0.5464353698098083,0.24780715611301052,0.0,-5.0,0.7290513133665768,-0.01982870737455524,-0.028275851340528582,-0.024106579473434524,0.0,0.0,0.0,0.0
18.21724557876587,-0.06768173,0.4199687,-5.204178,0.027470913177450828,nan,nan,nan,nan,nan,8.209678649902344,9.409678649902343,0.0003681182861328125,-0.5678254498607719,0.19384080708254378,0.0,-5.0,0.7289640320134152,-0.013036138807665392,-0.029151222993364468,-0.02425051339700555,0.0,0.0,0.0,0.0
18.316860675811768,-0.11059762,0.4088999,-5.207804,0.029432784186839197,nan,nan,nan,nan,nan,8.309357166290283,9.509357166290282,0.0003502368927001953,-0.5838400151955218,0.13831426772568667,0.0,-5.0,0.7287337204192909,-0.004999866283089144,-0.029406558022775503,-0.02558761825238883,0.0,0.0,0.0,0.0
18.417052030563354,-0.14653943,0.3945753,-5.209607,0.031173223751289,nan,nan,nan,nan,nan,8.409539222717285,9.609539222717284,0.0004024505615234375,-0.5944779908049173,0.0812152599487845,0.0,-5.0,0.7285452705133033,0.0026687236639223295,-0.02964398945832221,-0.027004936419615773,0.0,0.0,0.0,0.0
18.516955852508545,-0.19086032,0.3737091,-5.214164,0.0323725882966234,nan,nan,nan,nan,nan,8.509400129318237,9.709400129318237,0.00035762786865234375,-0.5995379937660668,0.023541326023817637,0.0,-5.0,0.7284009583474527,0.009870433964656915,-0.030210418531054533,-0.028190468195259638,0.0,0.0,0.0,0.0
18.617115259170532,-0.23345684,0.3512454,-5.2209663,0.032385859966435226,nan,nan,nan,nan,nan,8.609543800354004,9.809543800354003,0.00035071372985839844,-0.5990064093928913,-0.034515525582495536,0.0,-5.0,0.7279884798156996,0.012890692899613396,-0.03354007645629535,-0.02847368083153531,0.0,0.0,0.0,0.0
18.71716547012329,-0.27615616,0.32167843,-5.2234135,0.030825307527768117,nan,nan,nan,nan,nan,8.709620237350464,9.909620237350463,0.00036787986755371094,-0.5928719883776542,-0.09221065771984614,0.0,-5.0,0.7279033406493811,0.01613167124332565,-0.03711960953359474,-0.02756902986475509,0.0,0.0,0.0,0.0
18.817076921463013,-0.31259224,0.29070413,-5.2176733,0.0292973417175375,nan,nan,nan,nan,nan,8.809540271759033,10.009540271759032,0.00036597251892089844,-0.5812161489917745,-0.14895565833888721,0.0,-5.0,0.7283120651645155,0.020052286990328797,-0.03996988163381692,-0.02601705402907196,0.0,0.0,0.0,0.0
18.917125940322876,-0.34276852,0.2525948,-5.2129335,0.027945755167185605,nan,nan,nan,nan,nan,8.90956711769104,10.10956711769104,0.00035381317138671875,-0.5641212217572572,-0.2043703676248087,0.0,-5.0,0.7288027335778755,0.022692792966152158,-0.04002637596775477,-0.024707975421357897,0.0,0.0,0.0,0.0
19.017486095428467,-0.36623204,0.2151944,-5.2087564,0.026813827341492322,nan,nan,nan,nan,nan,9.010120153427124,10.210120153427123,0.0003857612609863281,-0.5416251849189411,-0.2581514266114423,0.0,-5.0,0.7291283004861134,0.025425948556542833,-0.03592110237429333,-0.023380840830466963,0.0,0.0,0.0,0.0
19.116953134536743,-0.39039025,0.17382589,-5.2042303,0.02597031102743605,nan,nan,nan,nan,nan,9.109437942504883,10.309437942504882,0.00034928321838378906,-0.5143852796307199,-0.30888150494846084,0.0,-5.0,0.72948909269739,0.025827782632802165,-0.0323557787816445,-0.02247852833191831,0.0,0.0,0.0,0.0
19.217011213302612,-0.4102414,0.1353611,-5.2045984,0.024846394771262735,nan,nan,nan,nan,nan,9.20946979522705,10.40946979522705,0.0003528594970703125,-0.4821615811517,-0.35709971949203845,0.0,-5.0,0.729472075051024,0.02475781468769534,-0.02959855699569128,-0.02142351030188984,0.0,0.0,0.0,0.0
19.31750798225403,-0.4321935,0.09227595,-5.2072353,0.023891536277352514,nan,nan,nan,nan,nan,9.310274839401245,10.510274839401244,0.0006077289581298828,-0.4451326379781637,-0.40231447228082784,0.0,-5.0,0.7292898676334492,0.02461097960570548,-0.02900161927003133,-0.020456234561942975,0.0,0.0,0.0,0.0
19.41695547103882,-0.44970784,0.04584252,-5.2123337,0.023302933625555824,nan,nan,nan,nan,nan,9.409428596496582,10.609428596496581,0.0004000663757324219,-0.40458822008385903,-0.4430670064102887,0.0,-5.0,0.7289524930875673,0.027678357480653764,-0.0287413409428262,-0.019646341506111466,0.0,0.0,0.0,0.0
19.517072200775146,-0.46317425,-0.012126893,-5.2164903,0.022939778728978073,nan,nan,nan,nan,nan,9.509552717208862,10.709552717208862,0.0004067420959472656,-0.35987972158329795,-0.4800901852705676,0.0,-5.0,0.7286184624860333,0.031895941329053205,-0.027091451439273922,-0.019248525744063653,0.0,0.0,0.0,0.0
19.617857933044434,-0.46919724,-0.059610233,-5.216205,0.02253578606588293,nan,nan,nan,nan,nan,9.610331773757935,10.810331773757934,0.00039005279541015625,-0.3114781864944008,-0.5128170622533529,0.0,-5.0,0.7286941069493272,0.03786233708484505,-0.022668466808469064,-0.018760311408867206,0.0,0.0,0.0,0.0
19.717304706573486,-0.47113878,-0.120106384,-5.222167,0.02195322202121685,nan,nan,nan,nan,nan,9.709743022918701,10.9097430229187,0.0003581047058105469,-0.2608376616765763,-0.5403366675056357,0.0,-5.0,0.7285339258113946,0.04084599088227236,-0.019199423012728496,-0.018369989813120796,0.0,0.0,0.0,0.0
19.817344903945923,-0.4684196,-0.17371157,-5.2214227,0.02078945436569376,nan,nan,nan,nan,nan,9.809858083724976,11.009858083724975,0.00036525726318359375,-0.20740734732664132,-0.5630117159304289,0.0,-5.0,0.7285687492550391,0.044422332550895935,-0.014053799910870683,-0.017567134700121084,0.0,0.0,0.0,0.0
19.917078733444214,-0.45904973,-0.22239703,-5.220088,0.02018950492747065,nan,nan,nan,nan,nan,9.909546375274658,11.109546375274657,0.0003600120544433594,-0.1522755002015051,-0.580355211950734,0.0,-5.0,0.7287963089535082,0.046699235240627066,-0.009694031774859271,-0.016839162279264158,0.0,0.0,0.0,0.0
20.017132997512817,-0.44214484,-0.27885002,-5.219748,0.01961480511084349,nan,nan,nan,nan,nan,10.009597301483154,11.209597301483154,0.00037026405334472656,-0.09552310584798947,-0.5923473104937287,0.0,-5.0,0.7290196018232312,0.04799029947098597,-0.0021374592756029536,-0.01673012627712651,0.0,0.0,0.0,0.0
20.117717742919922,-0.42509633,-0.33023462,-5.2232027,0.01834706721504121,nan,nan,nan,nan,nan,10.11055326461792,11.31055326461792,0.00039267539978027344,-0.037354053621471435,-0.5988361000123859,0.0,-5.0,0.7288892722769498,0.04985448465041738,0.003757449485164509,-0.015989791528532506,0.0,0.0,0.0,0.0
20.2173171043396,-0.40515175,-0.38041586,-5.2322173,0.0175482964891022,nan,nan,nan,nan,nan,10.209757804870605,11.409757804870605,0.000362396240234375,0.020155259339579006,-0.5996613757121216,0.0,-5.0,0.7284348317176803,0.04886187415453232,0.007664906823325158,-0.01543249089910189,0.0,0.0,0.0,0.0
20.316909313201904,-0.3847778,-0.42400357,-5.2402706,0.016887004910318,nan,nan,nan,nan,nan,10.309375047683716,11.509375047683715,0.000362396240234375,0.07771671932887657,-0.5949454693808136,0.0,-5.0,0.728029433501414,0.04677997696288913,0.009173917644013594,-0.01494318322561763,0.0,0.0,0.0,0.0
20.417036771774292,-0.35916477,-0.46724358,-5.248011,0.016296915953516324,nan,nan,nan,nan,nan,10.409500122070312,11.609500122070312,0.0004410743713378906,0.13484511596484264,-0.584651002479623,0.0,-5.0,0.7277159099226571,0.0438481251697482,0.010764573676213949,-0.014553303217329776,0.0,0.0,0.0,0.0
20.51690101623535,-0.32888755,-0.50264025,-5.2556667,0.016134283406007095,nan,nan,nan,nan,nan,10.50939130783081,11.70939130783081,0.00041103363037109375,0.19058272897990491,-0.5689272566985801,0.0,-5.0,0.7275094578820859,0.0400605406128343,0.013215415803465266,-0.014434876323785288,0.0,0.0,0.0,0.0
20.61715006828308,-0.28488445,-0.53537226,-5.2671223,0.01605163971482465,nan,nan,nan,nan,nan,10.609602212905884,11.809602212905883,0.0003533363342285156,0.24471411018361827,-0.547827531506988,0.0,-5.0,0.727023492504065,0.03525353246339086,0.020577359463244307,-0.01493797526886154,0.0,0.0,0.0,0.0
20.71737027168274,-0.24816543,-0.5581335,-5.277114,0.016139332723404266,nan,nan,nan,nan,nan,10.709903001785278,11.909903001785278,0.0004363059997558594,0.2965963390839149,-0.5215655391626438,0.0,-5.0,0.7266355296816914,0.02896821670968932,0.025709216630867608,-0.01523817068472409,0.0,0.0,0.0,0.0
20.816946268081665,-0.20816506,-0.578957,-5.2837095,0.016048964655950494,nan,nan,nan,nan,nan,10.809457063674927,12.009457063674926,0.00035071372985839844,0.34533858340111273,-0.49065391348129767,0.0,-5.0,0.726490335935938,0.023138377782531458,0.027603772229928596,-0.015292713648054115,0.0,0.0,0.0,0.0
20.917642831802368,-0.17421347,-0.59499884,-5.2863755,0.0156765351541951,nan,nan,nan,nan,nan,10.9103422164917,12.110342216491699,0.0003962516784667969,0.3914705456511611,-0.4546985945520199,0.0,-5.0,0.7266275908579437,0.01996326410746194,0.027877687634793605,-0.015086633486750052,0.0,0.0,0.0,0.0
21.016959190368652,-0.1333656,-0.61119074,-5.286912,0.014674792548017429,nan,nan,nan,nan,nan,11.009411096572876,12.209411096572875,0.00036716461181640625,0.4331542471432107,-0.4151835716665561,0.0,-5.0,0.7269538813547279,0.018585317480277534,0.0280882894807383,-0.014472450312087371,0.0,0.0,0.0,0.0
21.117032051086426,-0.09331741,-0.61955523,-5.286207,0.012957473749678369,nan,nan,nan,nan,nan,11.10948657989502,12.309486579895019,0.0004534721374511719,0.47123022033768874,-0.371405545785861,0.0,-5.0,0.7272940887296769,0.017196996881096435,0.029259213486478763,-0.013178785285346646,0.0,0.0,0.0,0.0
21.217511892318726,-0.050708085,-0.62907565,-5.2892914,0.01056974408755296,nan,nan,nan,nan,nan,11.210416078567505,12.410416078567504,0.0003719329833984375,0.5051672312890665,-0.323737653713217,0.0,-5.0,0.7274105980564914,0.01823539508750543,0.029957494901894376,-0.011539392943112644,0.0,0.0,0.0,0.0
21.31699776649475,-0.012765823,-0.63174856,-5.292139,0.00865843805977173,nan,nan,nan,nan,nan,11.309480667114258,12.509480667114257,0.0003609657287597656,0.5338066233054832,-0.27395344297014756,0.0,-5.0,0.7274268948023378,0.018102525384545265,0.030572573274038214,-0.009772393088384502,0.0,0.0,0.0,0.0
21.417004108428955,0.031077726,-0.6286343,-5.2954245,0.007510991758280183,nan,nan,nan,nan,nan,11.409466028213501,12.6094660282135,0.0003542900085449219,0.557751810397584,-0.22116265054981013,0.0,-5.0,0.7274181671318518,0.01599933050855656,0.031201971793479732,-0.00857948327328915,0.0,0.0,0.0,0.0
21.517067432403564,0.07789272,-0.6194942,-5.298829,0.007660472284346995,nan,nan,nan,nan,nan,11.50951886177063,12.70951886177063,0.00045561790466308594,0.5765017881365194,-0.16626992594993129,0.0,-5.0,0.7274289769722325,0.011137923033170152,0.03481922606191614,-0.008532393039390572,0.0,0.0,0.0,0.0
21.617030143737793,0.12030494,-0.60467005,-5.30244,0.007909137389681062,nan,nan,nan,nan,nan,11.609477281570435,12.809477281570434,0.00034737586975097656,0.589853413851168,-0.10987697742531292,0.0,-5.0,0.7273148536621873,0.005977887673863874,0.037878230161340246,-0.008871338260268128,0.0,0.0,0.0,0.0
21.717013835906982,0.1618565,-0.592495,-5.3090434,0.007772854846729307,nan,nan,nan,nan,nan,11.709488868713379,12.909488868713378,0.0003731250762939453,0.5977050078295555,-0.052428271147072866,0.0,-5.0,0.7271271315579897,0.002590849915926563,0.040572366614922625,-0.00892538897071187,0.0,0.0,0.0,0.0
21.81693696975708,0.20588739,-0.57789344,-5.3151526,0.007245153779068977,nan,nan,nan,nan,nan,11.80939531326294,13.009395313262939,0.00039887428283691406,0.5999752557768665,0.005449078406812262,0.0,-5.0,0.7269762092189811,0.0011989422040923283,0.04265890014321689,-0.008658322418302326,0.0,0.0,0.0,0.0
21.916815042495728,0.24348554,-0.56158096,-5.318159,0.005753384197773485,nan,nan,nan,nan,nan,11.909255027770996,13.109255027770995,0.0003719329833984375,0.5966570225957757,0.06324869474656324,0.0,-5.0,0.727011383361568,0.0014223056348758964,0.04379330675743468,-0.007735728316338574,0.0,0.0,0.0,0.0
22.01680326461792,0.28110346,-0.53983754,-5.31919,0.004041061139509153,nan,nan,nan,nan,nan,12.009242534637451,13.20924253463745,0.00041675567626953125,0.5877686857806136,0.12053203730017292,0.0,-5.0,0.7272241328962612,0.0015262683670725695,0.042979949251914486,-0.006226233007785577,0.0,0.0,0.0,0.0
22.117339611053467,0.31207782,-0.515629,-5.3214974,0.003453970621641104,nan,nan,nan,nan,nan,12.109766721725464,13.309766721725463,0.0004494190216064453,0.5733021408601399,0.17698772636875235,0.0,-5.0,0.7272894919850266,-0.0025481751064613473,0.041496580799208656,-0.0051617901636260375,0.0,0.0,0.0,0.0
22.217175245285034,0.34817272,-0.47880796,-5.3193674,0.003206570095189737,nan,nan,nan,nan,nan,12.209636926651001,13.409636926651,0.0004000663757324219,0.5535730176939329,0.2314236679366065,0.0,-5.0,0.7275367580702263,-0.0069165707821712,0.04040124690263117,-0.004644680619364331,0.0,0.0,0.0,0.0
22.317111253738403,0.37553602,-0.44506976,-5.321792,0.00344501859922235,nan,nan,nan,nan,nan,12.309665441513062,13.50966544151306,0.0003681182861328125,0.5286453090729711,0.28378537170746276,0.0,-5.0,0.7277076404235205,-0.013325064587319661,0.03953240109169649,-0.004486803959686889,0.0,0.0,0.0,0.0
22.41710638999939,0.4081306,-0.39771217,-5.3294787,0.0041537491791809635,nan,nan,nan,nan,nan,12.409549713134766,13.609549713134765,0.0004673004150390625,0.49882546365161573,0.3334263888967857,0.0,-5.0,0.7275275964580078,-0.02002691432340231,0.039188341680367084,-0.00462847249958931,0.0,0.0,0.0,0.0
22.517087697982788,0.43154246,-0.35713658,-5.3357797,0.004863977093012294,nan,nan,nan,nan,nan,12.509525060653687,13.709525060653686,0.0005342960357666016,0.46432553169936375,0.38000236921906566,0.0,-5.0,0.7271399616060745,-0.02760109282996853,0.03788276041373911,-0.004977493330502955,0.0,0.0,0.0,0.0
22.61709475517273,0.45565894,-0.3055899,-5.3401775,0.006394736425653493,nan,nan,nan,nan,nan,12.609546899795532,13.809546899795532,0.0003750324249267578,0.42547344109572593,0.4230512391214117,0.0,-5.0,0.7269789293631604,-0.037395800935889636,0.03680077332764952,-0.005743789929301578,0.0,0.0,0.0,0.0
22.71724796295166,0.47416875,-0.24321277,-5.3394732,0.00840592251168984,nan,nan,nan,nan,nan,12.709702253341675,13.909702253341674,0.0006089210510253906,0.3825874371629223,0.46219785041160344,0.0,-5.0,0.7271856761997588,-0.04841401553786379,0.03402021039314824,-0.006883233374164819,0.0,0.0,0.0,0.0
22.816986560821533,0.48385322,-0.18360026,-5.3374386,0.010113798109603856,nan,nan,nan,nan,nan,12.80944013595581,14.00944013595581,0.0003962516784667969,0.3363187598134777,0.4968799571300137,0.0,-5.0,0.7275746106001151,-0.05759331860557658,0.028450315447159008,-0.008056009887995659,0.0,0.0,0.0,0.0
22.917097806930542,0.4874777,-0.116840996,-5.33296,0.012193379941770846,nan,nan,nan,nan,nan,12.909553527832031,14.10955352783203,0.0004596710205078125,0.2867350999733034,0.5270512142508541,0.0,-5.0,0.7279785095660992,-0.06331704054882398,0.02072149211633049,-0.009452054054168553,0.0,0.0,0.0,0.0
23.01697063446045,0.4850899,-0.052750364,-5.3257046,0.014502860933908866,nan,nan,nan,nan,nan,13.009432077407837,14.209432077407836,0.000392913818359375,0.23459357045322277,0.552237138104645,0.0,-5.0,0.7285488596555421,-0.06725987964851077,0.011748619601666867,-0.011440424334026473,0.0,0.0,0.0,0.0
23.117292165756226,0.4776218,0.017482486,-5.3113236,0.016337305018596184,nan,nan,nan,nan,nan,13.109723329544067,14.309723329544067,0.0004165172576904297,0.18003869949934959,0.5723513489829327,0.0,-5.0,0.7294421827834864,-0.06865643113424197,0.0040594017488637755,-0.013237208449447382,0.0,0.0,0.0,0.0
23.217157125473022,0.46855533,0.07727744,-5.300104,0.017200410680754483,nan,nan,nan,nan,nan,13.209731817245483,14.409731817245483,0.0006196498870849609,0.12395352370211482,0.5870566616280146,0.0,-5.0,0.7302112174188133,-0.06650661319445648,-0.0010787031766680989,-0.014365923001562038,0.0,0.0,0.0,0.0
23.316898107528687,0.45741042,0.13760428,-5.288841,0.01751697771695583,nan,nan,nan,nan,nan,13.309349775314331,14.50934977531433,0.0005061626434326172,0.0669359236619598,0.5962546285971458,0.0,-5.0,0.73083361678426,-0.0624098054867739,-0.004909766357783935,-0.014917972915335115,0.0,0.0,0.0,0.0
23.417123317718506,0.4434841,0.19728519,-5.2777033,0.017715999212902813,nan,nan,nan,nan,nan,13.409573078155518,14.609573078155517,0.0004253387451171875,0.008947072263310698,0.5999332878728393,0.0,-5.0,0.7313570237228103,-0.059650529513496274,-0.005522796926634245,-0.01519126342141239,0.0,0.0,0.0,0.0
23.517587900161743,0.42428476,0.25684923,-5.266531,0.017318995820590558,nan,nan,nan,nan,nan,13.510013341903687,14.710013341903686,0.0005171298980712891,-0.0492510995339346,0.5979751911197474,0.0,-5.0,0.7317872240540177,-0.0555061056020436,-0.007469247176674185,-0.015100433802471747,0.0,0.0,0.0,0.0
23.61712121963501,0.39979163,0.3076246,-5.262984,0.016743868463511086,nan,nan,nan,nan,nan,13.60957384109497,14.80957384109497,0.00035834312438964844,-0.10648325926485855,0.590475499488618,0.0,-5.0,0.7317842582891604,-0.05197768396728382,-0.009376737058622325,-0.014813331423497514,0.0,0.0,0.0,0.0
23.717187643051147,0.3636121,0.35320225,-5.261656,0.01661156723331631,nan,nan,nan,nan,nan,13.70963430404663,14.90963430404663,0.0003833770751953125,-0.16300901114299352,0.5774323010415883,0.0,-5.0,0.7315361453675082,-0.04641195643711822,-0.013642437688844999,-0.014734482800046416,0.0,0.0,0.0,0.0
23.817008018493652,0.32631,0.38965917,-5.2657638,0.016723636263886926,nan,nan,nan,nan,nan,13.809461116790771,15.00946111679077,0.0003857612609863281,-0.21788469483212414,0.5590404813230542,0.0,-5.0,0.7310150483374726,-0.03741308727761936,-0.020908393570921037,-0.015278482389181263,0.0,0.0,0.0,0.0
23.91713857650757,0.28423283,0.42404592,-5.2696695,0.01578647086593983,nan,nan,nan,nan,nan,13.909590244293213,15.109590244293212,0.0003972053527832031,-0.27088954519555486,0.5353679615962702,0.0,-5.0,0.7302452511524502,-0.029471427701350708,-0.02621942680768497,-0.015063559955755689,0.0,0.0,0.0,0.0
24.016971111297607,0.24256122,0.4485918,-5.264129,0.014729596608029302,nan,nan,nan,nan,nan,14.009437561035156,15.209437561035156,0.0004513263702392578,-0.32122060387872187,0.5067714708266333,0.0,-5.0,0.7303395215308609,-0.021452893599755773,-0.03107647719749948,-0.014291564073508112,0.0,0.0,0.0,0.0
24.116967916488647,0.2021776,0.47109193,-5.261205,0.013703059269836539,nan,nan,nan,nan,nan,14.109541654586792,15.309541654586791,0.00047206878662109375,-0.36867916306713483,0.4733663219116005,0.0,-5.0,0.730410963775559,-0.015199223762657156,-0.03218499731397524,-0.013483108706378198,0.0,0.0,0.0,0.0
24.216862201690674,0.16685362,0.48791698,-5.263961,0.012359822182484765,nan,nan,nan,nan,nan,14.209365606307983,15.409365606307983,0.00036597251892089844,-0.41257034363900225,0.4356440192974025,0.0,-5.0,0.7301789357604552,-0.010593483428151872,-0.031014448562737402,-0.012309731949235812,0.0,0.0,0.0,0.0
24.316807508468628,0.12666571,0.4965733,-5.2674623,0.011551495493596456,nan,nan,nan,nan,nan,14.309278964996338,15.509278964996337,0.0003654956817626953,-0.4526570448605979,0.39382940435938835,0.0,-5.0,0.7297746283176137,-0.007129009551461321,-0.029251423721974056,-0.011219155883326034,0.0,0.0,0.0,0.0
24.417187690734863,0.075749286,0.49749562,-5.2710657,0.011510428289711536,nan,nan,nan,nan,nan,14.409749984741211,15.60974998474121,0.0003948211669921875,-0.4887124311081794,0.3480806798435284,0.0,-5.0,0.7293478026261355,-0.0005572980730965545,-0.031660606156756865,-0.011123376021233346,0.0,0.0,0.0,0.0
24.517561435699463,0.021686362,0.49852097,-5.2737823,0.010739669432261935,nan,nan,nan,nan,nan,14.510332584381104,15.710332584381103,0.00041031837463378906,-0.5201940407248365,0.2989952507889833,0.0,-5.0,0.7290317862403214,0.0005960742923180211,-0.03658770480026895,-0.010806847301442402,0.0,0.0,0.0,0.0
24.61675262451172,-0.027457818,0.49543852,-5.275893,0.009821304652766037,nan,nan,nan,nan,nan,14.609198570251465,15.809198570251464,0.0003693103790283203,-0.5463512708426115,0.24799251772717523,0.0,-5.0,0.7288464483394392,0.0012743665683415976,-0.043310093963585546,-0.010219445877408577,0.0,0.0,0.0,0.0
24.718308210372925,-0.08819417,0.49144268,-5.277418,0.008623355583863079,nan,nan,nan,nan,nan,14.711177110671997,15.911177110671996,0.00042366981506347656,-0.5681056282240601,0.19301812137762092,0.0,-5.0,0.7287779334484135,-0.0014469584124800834,-0.048454813368895296,-0.0095669090356998,0.0,0.0,0.0,0.0
24.8171124458313,-0.13612522,0.48545772,-5.2793818,0.007854871125749913,nan,nan,nan,nan,nan,14.809620141983032,16.00962014198303,0.0003924369812011719,-0.5838751563504118,0.13816584888018543,0.0,-5.0,0.728739692382383,-0.005168611119107819,-0.05196776267405284,-0.008979820883264709,0.0,0.0,0.0,0.0
24.916800498962402,-0.19621587,0.47172672,-5.282009,0.007469064742122692,nan,nan,nan,nan,nan,14.90933871269226,16.10933871269226,0.0003695487976074219,-0.5944622383515114,0.08133048121160254,0.0,-5.0,0.7286688469123792,-0.0073001758205657186,-0.05496993246664218,-0.008565179654495981,0.0,0.0,0.0,0.0
25.01762628555298,-0.23968077,0.45538366,-5.2828035,0.008095813952293718,nan,nan,nan,nan,nan,15.010103702545166,16.210103702545165,0.0004146099090576172,-0.5995538656769048,0.023133571965432555,0.0,-5.0,0.7286701633801707,-0.005607530496452045,-0.05453068379769476,-0.00877552886874295,0.0,0.0,0.0,0.0
25.117133617401123,-0.2910908,0.43481,-5.2848024,0.008893286917088296,nan,nan,nan,nan,nan,15.10960841178894,16.30960841178894,0.0005052089691162109,-0.5990042525143346,-0.03455293720862543,0.0,-5.0,0.7286768893635815,-0.0026316623763900154,-0.053723814338509666,-0.009338775183799409,0.0,0.0,0.0,0.0
25.216939449310303,-0.34618294,0.4094579,-5.2862506,0.008875905071666343,nan,nan,nan,nan,nan,15.209377527236938,16.409377527236938,0.0003936290740966797,-0.5928936059946994,-0.09207155896693636,0.0,-5.0,0.7286854570648815,0.0001904214034757251,-0.05393746100237748,-0.009481697729291643,0.0,0.0,0.0,0.0
25.317023992538452,-0.39165536,0.3840753,-5.2852554,0.00789036147195719,nan,nan,nan,nan,nan,15.309557914733887,16.509557914733886,0.00039649009704589844,-0.5812136085468621,-0.14896557065286897,0.0,-5.0,0.7287674806466842,0.0027773981950369453,-0.05334441562767091,-0.00867401759749398,0.0,0.0,0.0,0.0
25.416847705841064,-0.43256417,0.35441062,-5.281555,0.006558615822235634,nan,nan,nan,nan,nan,15.409335374832153,16.609335374832153,0.0003495216369628906,-0.5641669891848314,-0.20424399211267466,0.0,-5.0,0.7290401754772751,0.0047214597022263785,-0.049175592917308164,-0.007378269025631684,0.0,0.0,0.0,0.0
25.516845226287842,-0.46741244,0.3232296,-5.278912,0.005309938754806037,nan,nan,nan,nan,nan,15.50928282737732,16.70928282737732,0.0005071163177490234,-0.5418339542420542,-0.2577129527796761,0.0,-5.0,0.7291832357486123,0.008018990530068944,-0.04362603108234151,-0.005972954108310475,0.0,0.0,0.0,0.0
25.61717414855957,-0.50198966,0.28615403,-5.277828,0.0038591399909957223,nan,nan,nan,nan,nan,15.609641551971436,16.809641551971435,0.0003955364227294922,-0.5143244762752412,-0.3089827391687095,0.0,-5.0,0.7292128329889148,0.01272822834531414,-0.03809598141696359,-0.004482185604571947,0.0,0.0,0.0,0.0
25.71750521659851,-0.53323394,0.24580054,-5.2804546,0.0027035137798853883,nan,nan,nan,nan,nan,15.709955215454102,16.9099552154541,0.0005726814270019531,-0.4819939667127029,-0.35732592412607544,0.0,-5.0,0.7291118760858118,0.017980569977409835,-0.034803270839797056,-0.003199581119431831,0.0,0.0,0.0,0.0
25.81696605682373,-0.56725526,0.19727959,-5.283352,0.00139935291061658,nan,nan,nan,nan,nan,15.809418439865112,17.00941843986511,0.0005598068237304688,-0.44546553476381395,-0.4019458388111379,0.0,-5.0,0.7288694574611766,0.026218104559120464,-0.03365876053685012,-0.0019594434097367753,0.0,0.0,0.0,0.0
25.916847705841064,-0.5972843,0.14980271,-5.282889,-5.02208546272892e-05,nan,nan,nan,nan,nan,15.909302711486816,17.109302711486816,0.0004215240478515625,-0.40464213212935246,-0.4430177704176342,0.0,-5.0,0.7288737115241928,0.03353629970902723,-0.03526217496359365,-0.0004576120642867193,0.0,0.0,0.0,0.0
26.016998767852783,-0.6244649,0.09652583,-5.279437,-0.0013473604774025191,nan,nan,nan,nan,nan,16.009448766708374,17.209448766708373,0.0004279613494873047,-0.3599279607244135,-0.4800540210109327,0.0,-5.0,0.7291611172625855,0.0419897152571402,-0.0362987688292092,0.0010246060677453453,0.0,0.0,0.0,0.0
26.117413759231567,-0.6458252,0.041321777,-5.269542,-0.00226410829624369,nan,nan,nan,nan,nan,16.109967947006226,17.309967947006225,0.0004901885986328125,-0.3116585203260202,-0.5127074864951706,0.0,-5.0,0.7297681684582289,0.04886957945265593,-0.03454784144988342,0.0021607072742970954,0.0,0.0,0.0,0.0
26.217339515686035,-0.66066074,-0.016165264,-5.257456,-0.0030918202717881717,nan,nan,nan,nan,nan,16.209819793701172,17.40981979370117,0.0004572868347167969,-0.26079756256992565,-0.5403560227827443,0.0,-5.0,0.7304782921506533,0.05279210272736714,-0.031108417521025587,0.0030142790664811022,0.0,0.0,0.0,0.0
26.317071437835693,-0.66725516,-0.067154415,-5.247331,-0.0036705616154747837,nan,nan,nan,nan,nan,16.309525966644287,17.509525966644286,0.0004146099090576172,-0.20758808532417622,-0.5629451010813066,0.0,-5.0,0.7310451257832369,0.05358185576044958,-0.02356922872010781,0.003575886935209099,0.0,0.0,0.0,0.0
26.416964292526245,-0.6683741,-0.12218452,-5.239022,-0.0042905353703746344,nan,nan,nan,nan,nan,16.409422159194946,17.609422159194946,0.0003819465637207031,-0.15234518392954052,-0.5803369236344302,0.0,-5.0,0.7313816794896723,0.05270935839174275,-0.01625377170848479,0.0039821320433590796,0.0,0.0,0.0,0.0
26.517049551010132,-0.66008323,-0.1769323,-5.2404594,-0.004670185283753504,nan,nan,nan,nan,nan,16.509703874588013,17.709703874588012,0.0008039474487304688,-0.09546208276322075,-0.5923571479728323,0.0,-5.0,0.7311236523977502,0.0546937931956801,-0.006032123430138958,0.0041024445314681015,0.0,0.0,0.0,0.0
26.61689305305481,-0.64407843,-0.23549774,-5.243854,-0.00527192980121108,nan,nan,nan,nan,nan,16.609347343444824,17.809347343444824,0.0003616809844970703,-0.03805208913293355,-0.5987921496751767,0.0,-5.0,0.7306834038279252,0.056912296399122174,0.003667593495531725,0.004096433903542644,0.0,0.0,0.0,0.0
26.716941833496094,-0.62457615,-0.29293445,-5.247388,-0.006005110823177581,nan,nan,nan,nan,nan,16.709444999694824,17.909444999694824,0.0005919933319091797,0.019973938083399898,-0.5996674426692186,0.0,-5.0,0.73021622113764,0.0579995777359052,0.01284570592170924,0.004105539584744084,0.0,0.0,0.0,0.0
26.817023754119873,-0.60486734,-0.34444803,-5.250516,-0.006876028369407906,nan,nan,nan,nan,nan,16.809502124786377,18.009502124786376,0.0005965232849121094,0.07778980083554114,-0.5949359183021032,0.0,-5.0,0.7298132205761277,0.05807650098623376,0.017882154723806117,0.004471651053388525,0.0,0.0,0.0,0.0
26.91701602935791,-0.5841611,-0.38898975,-5.2528477,-0.007511443120063067,nan,nan,nan,nan,nan,16.90948748588562,18.10948748588562,0.00038909912109375,0.13483797462357863,-0.584652649527402,0.0,-5.0,0.7295228448735708,0.05620032846673385,0.02033404499995317,0.004955880228274112,0.0,0.0,0.0,0.0
27.0170578956604,-0.55528456,-0.44134712,-5.264669,-0.008160343040143531,nan,nan,nan,nan,nan,17.009548664093018,18.209548664093017,0.0005548000335693359,0.1906692648604487,-0.5688982610604255,0.0,-5.0,0.7289063551310464,0.05375964493006232,0.0208315362417628,0.005338607193736128,0.0,0.0,0.0,0.0
27.117912769317627,-0.5295118,-0.4815811,-5.276837,-0.008857991142495709,nan,nan,nan,nan,nan,17.11039090156555,18.31039090156555,0.0011875629425048828,0.24513169236949442,-0.5476408069127678,0.0,-5.0,0.7281197777361313,0.05155182975578175,0.0225275702438457,0.0056943727701449535,0.0,0.0,0.0,0.0
27.21699619293213,-0.48754144,-0.52921486,-5.289296,-0.009511797191041348,nan,nan,nan,nan,nan,17.209455728530884,18.409455728530883,0.0003871917724609375,0.2963708104432898,-0.5216937250122792,0.0,-5.0,0.7275050131206011,0.05074626215943701,0.024436103904183496,0.006057510141617488,0.0,0.0,0.0,0.0
27.31725549697876,-0.4471184,-0.5633706,-5.296537,-0.009484484439232731,nan,nan,nan,nan,nan,17.309756994247437,18.509756994247436,0.000560760498046875,0.3454808222392113,-0.4905537702076282,0.0,-5.0,0.72713974911315,0.04742464174231594,0.031730579950158225,0.00556395460665239,0.0,0.0,0.0,0.0
27.41709542274475,-0.3960721,-0.59877783,-5.3065977,-0.009030528942530602,nan,nan,nan,nan,nan,17.409594535827637,18.609594535827636,0.00035858154296875,0.39114181414323496,-0.45498140756380256,0.0,-5.0,0.7267118550491417,0.04529970776058991,0.04015796299453974,0.004505775253655213,0.0,0.0,0.0,0.0
27.516858100891113,-0.3396727,-0.62893033,-5.3215685,-0.008221803095993817,nan,nan,nan,nan,nan,17.50933337211609,18.709333372116088,0.0004029273986816406,0.4331230524019411,-0.4152161141839576,0.0,-5.0,0.7261124659106699,0.04013558223182804,0.048986442189049545,0.0031347869405249197,0.0,0.0,0.0,0.0
27.616983890533447,-0.28485096,-0.6504635,-5.32818,-0.007291645801142291,nan,nan,nan,nan,nan,17.609516143798828,18.809516143798827,0.0003669261932373047,0.471240834086443,-0.3713920789267234,0.0,-5.0,0.7258992060230769,0.033241205368720675,0.05565824271809456,0.0018447520294650977,0.0,0.0,0.0,0.0
27.71712017059326,-0.22219543,-0.66805667,-5.326487,-0.0061569386866398915,nan,nan,nan,nan,nan,17.709752798080444,18.909752798080444,0.00035953521728515625,0.504959561121346,-0.32406147816755015,0.0,-5.0,0.7262758971061871,0.025645039241330325,0.060730764150433075,0.0005815921441387172,0.0,0.0,0.0,0.0
27.81711435317993,-0.16157234,-0.67944425,-5.3192945,-0.005357146802644007,nan,nan,nan,nan,nan,17.80964994430542,19.00964994430542,0.0004203319549560547,0.5338514433698754,-0.2738660921178462,0.0,-5.0,0.7271596128526743,0.01887361547265564,0.06467667487252689,-0.0003524810810084245,0.0,0.0,0.0,0.0
27.91700291633606,-0.09193159,-0.68655354,-5.314234,-0.004494487034904612,nan,nan,nan,nan,nan,17.909559965133667,19.109559965133666,0.00040531158447265625,0.5577718904519967,-0.22111200379356558,0.0,-5.0,0.7277897311718966,0.012586217905617777,0.06842702415743035,-0.0011931027391258327,0.0,0.0,0.0,0.0
28.01703715324402,-0.034540843,-0.68647325,-5.3086686,-0.0036559333678127526,nan,nan,nan,nan,nan,18.009681224822998,19.209681224822997,0.0006499290466308594,0.5765278766442382,-0.16617944353043804,0.0,-5.0,0.7283347052043156,0.006254232283682042,0.06858449036397235,-0.001684982153204005,0.0,0.0,0.0,0.0
28.11717677116394,0.027358213,-0.6799045,-5.3037257,-0.0027554635304711875,nan,nan,nan,nan,nan,18.109747171401978,19.309747171401977,0.00039649009704589844,0.589882059291775,-0.10972308838933999,0.0,-5.0,0.7287508314436897,-0.00042184625570079623,0.06541212977828685,-0.001925886369807953,0.0,0.0,0.0,0.0
28.217456817626953,0.084236495,-0.6691584,-5.3002524,-0.002103747237276736,nan,nan,nan,nan,nan,18.20995569229126,19.40995569229126,0.0005033016204833984,0.5977286053445079,-0.0521585501419418,0.0,-5.0,0.72898582075799,-0.0047379499094847895,0.06139322145760129,-0.00208224070519197,0.0,0.0,0.0,0.0
28.31721544265747,0.14468637,-0.65330976,-5.297289,-0.0018665791318350292,nan,nan,nan,nan,nan,18.309781074523926,19.509781074523925,0.00041937828063964844,0.5999731821363308,0.005672805056162564,0.0,-5.0,0.729118183319697,-0.00907980055055056,0.058188235145387866,-0.001907224733261627,0.0,0.0,0.0,0.0
28.417300939559937,0.19766937,-0.6362526,-5.296587,-0.0015661135177080093,nan,nan,nan,nan,nan,18.40984296798706,19.60984296798706,0.00040411949157714844,0.5966209801822829,0.06358778189504634,0.0,-5.0,0.729072272166563,-0.01099989306449389,0.055095149948115846,-0.001791118549184203,0.0,0.0,0.0,0.0
28.51687526702881,0.24563682,-0.61310714,-5.2869396,-0.0011303256579418032,nan,nan,nan,nan,nan,18.509358882904053,19.709358882904052,0.0003857612609863281,0.5877551261455369,0.12059814131919219,0.0,-5.0,0.7294617564616426,-0.014945194976237003,0.05071833940832249,-0.0016418283025074342,0.0,0.0,0.0,0.0
28.617125511169434,0.2948713,-0.58351034,-5.280167,-0.00040622957723618,nan,nan,nan,nan,nan,18.60970640182495,19.80970640182495,0.00037789344787597656,0.5733124596617627,0.17695429804494617,0.0,-5.0,0.7298830704867402,-0.019428007778875347,0.046312553737686564,-0.0017028901571579209,0.0,0.0,0.0,0.0
28.71704864501953,0.34415618,-0.5438561,-5.2767606,0.0004988206658184877,nan,nan,nan,nan,nan,18.709497690200806,19.909497690200805,0.0004067420959472656,0.5536041604690453,0.23134915930550423,0.0,-5.0,0.7299993873668728,-0.02427592268508142,0.044066501521416335,-0.002014931513509017,0.0,0.0,0.0,0.0
28.816833019256592,0.3811257,-0.5001013,-5.276296,0.0013184298345033062,nan,nan,nan,nan,nan,18.809301137924194,20.009301137924194,0.0005240440368652344,0.5287452118326886,0.2835991906970209,0.0,-5.0,0.7297582480137359,-0.032412370225558394,0.03848994157495249,-0.002248954009539655,0.0,0.0,0.0,0.0
28.916945457458496,0.4107578,-0.44564104,-5.2730775,0.002692095767430649,nan,nan,nan,nan,nan,18.90948224067688,20.10948224067688,0.0004367828369140625,0.49884720927301107,0.333393853873356,0.0,-5.0,0.7296628705913722,-0.04041340251037293,0.029822996299278315,-0.0026526740772521216,0.0,0.0,0.0,0.0
29.016873359680176,0.43671435,-0.39752313,-5.27101,0.004013093202631077,nan,nan,nan,nan,nan,19.009360313415527,20.209360313415527,0.0005252361297607422,0.46438604191494537,0.37992841967214114,0.0,-5.0,0.7296182970990542,-0.04544058362179015,0.02101735921753029,-0.0034164174463752234,0.0,0.0,0.0,0.0
29.11708664894104,0.46205598,-0.34195134,-5.268571,0.005141326280164532,nan,nan,nan,nan,nan,19.109631299972534,20.309631299972533,0.0003781318664550781,0.4254389250800866,0.4230859499282627,0.0,-5.0,0.7296006454468822,-0.04680079423633543,0.015024832264679135,-0.004204633917998942,0.0,0.0,0.0,0.0
29.216875791549683,0.4841836,-0.2881059,-5.2653317,0.005673125315997939,nan,nan,nan,nan,nan,19.20934772491455,20.40934772491455,0.0007090568542480469,0.38274581116265166,0.46206670951004875,0.0,-5.0,0.7296537706065696,-0.04833083277439621,0.011489415478583889,-0.004759256394798819,0.0,0.0,0.0,0.0
29.31694793701172,0.50709295,-0.22873534,-5.261119,0.005484156767827066,nan,nan,nan,nan,nan,19.30943202972412,20.50943202972412,0.0005640983581542969,0.33632265327467914,0.4968773217749829,0.0,-5.0,0.7298267203400275,-0.04743379326414395,0.01280966553987178,-0.004713855869447894,0.0,0.0,0.0,0.0
29.416799783706665,0.5191192,-0.17440167,-5.264471,0.005549529363752276,nan,nan,nan,nan,nan,19.409281730651855,20.609281730651855,0.0009448528289794922,0.28687356281247817,0.5269758618374044,0.0,-5.0,0.7295523395160997,-0.047749804042250765,0.01280285390378228,-0.004588904702605993,0.0,0.0,0.0,0.0
29.51675510406494,0.52431506,-0.10409883,-5.2685966,0.005825907613753289,nan,nan,nan,nan,nan,19.50923442840576,20.70923442840576,0.00041222572326660156,0.23469907450055813,0.552192307469582,0.0,-5.0,0.7292256003275105,-0.04935037770739894,0.010588634453001407,-0.0046676820929634965,0.0,0.0,0.0,0.0
29.616812705993652,0.52383345,-0.04491215,-5.2742147,0.006163877552857228,nan,nan,nan,nan,nan,19.609277963638306,20.809277963638305,0.00060272216796875,0.18028508592032394,0.5722737874433018,0.0,-5.0,0.7288632455701994,-0.05260118717285094,0.006651779344476891,-0.004994050244299195,0.0,0.0,0.0,0.0
29.71675944328308,0.52015775,0.031217096,-5.283721,0.006271667987011221,nan,nan,nan,nan,nan,19.709205627441406,20.909205627441406,0.0006134510040283203,0.12425210707576606,0.5869935381988735,0.0,-5.0,0.7284191182598054,-0.056690892538744715,0.004254819597122124,-0.005157470953472701,0.0,0.0,0.0,0.0
