time,x,y,z,yaw,platform,trajectory,traj_double,traj_short,traj_spin,traj_time,ref_time,comptime,x_ref,y_ref,yaw_ref,z_ref,throttle_input,p_input,q_input,r_input,cbf_term_pitch_cbf,cbf_term_roll_cbf,cbf_term_thrust_cbf,cbf_term_yaw_cbf
10.088191032409668,-0.06866598,0.01913319,-2.6980999,-0.0005406412723869321,SIM,FIG8_VERTICAL,DblSpd,Not Short,NoSpin,0.07998061180114746,1.2799806118011474,0.0006518363952636719,0.0,0.216527092182926,0.0,-5.330714593142898,0.7825729081461007,0.045766220657526564,0.009570290889289106,9.48203568060432e-05,0.0,0.0,-129.2107642578113,0.0
10.187866687774658,-0.07301944,0.015279922,-2.7043128,-0.0005215885400203317,nan,nan,nan,nan,nan,0.17972016334533691,1.3797201633453369,0.0004730224609375,0.0,0.1598183174333915,0.0,-5.340208272810361,0.7913320071305283,0.03946788597437901,0.009381641165386409,0.00016765387562101176,0.0,0.0,-110.28667125873588,0.0
10.288142919540405,-0.07775503,0.007937009,-2.7212899,-0.0005068433962491766,nan,nan,nan,nan,nan,0.28017163276672363,1.4801716327667236,0.00043201446533203125,0.0,0.09672276607266882,0.0,-5.34657572288445,0.800082672792292,0.013732666446759797,0.006084456626834169,0.00032792881758172623,0.0,0.0,-80.38999023437171,0.0
10.387816667556763,-0.083761744,0.0021099893,-2.7557435,-0.0006499204055891257,nan,nan,nan,nan,nan,0.37967920303344727,1.5796792030334472,0.0006563663482666016,0.0,0.030627127917583367,0.0,-5.349664187631194,0.8079160006868455,-0.012506771263841416,0.0026174534453852734,0.0004914072614345929,0.0,0.0,-48.22751985558983,0.0
10.488391399383545,-0.091269396,-0.00063671276,-2.8096275,-0.0007863101850785559,nan,nan,nan,nan,nan,0.4805319309234619,1.6805319309234619,0.0007302761077880859,0.0,-0.037503579976976585,0.0,-5.349495858633539,0.8149362702150144,-0.03610060226672161,-0.0017600825809901243,0.0006196276459739513,0.0,0.0,-11.606411942322264,0.0
10.587772846221924,-0.10180093,0.0014362559,-2.8931243,-0.0007787248932281752,nan,nan,nan,nan,nan,0.5795667171478271,1.779566717147827,0.0004057884216308594,0.0,-0.1030380975312402,0.0,-5.346100625310754,0.810763465493583,-0.05552386874546388,-0.006227077458374767,0.0005265770837507981,0.0,0.0,0.0,0.0
10.688021183013916,-0.10886736,0.0022183394,-2.9871168,-0.0007468803322786261,nan,nan,nan,nan,nan,0.679840087890625,1.879840087890625,0.0005185604095458984,0.0,-0.16554585895341437,0.0,-5.339434032892333,0.7944762050707926,-0.06797948738493087,-0.00941376037229965,0.00030240050669571217,0.0,0.0,0.0,0.0
10.787931680679321,-0.117247105,-4.312332e-05,-3.1083272,-0.0007928903227748039,nan,nan,nan,nan,nan,0.7797768115997314,1.9797768115997314,0.0005290508270263672,0.0,-0.22167552692491857,0.0,-5.329619215113948,0.7787218805343711,-0.07204952128989461,-0.010823670559765644,0.00016961822880167318,0.0,0.0,0.0,0.0
10.888062477111816,-0.12218996,-0.0076661613,-3.2326465,-0.0008561155431304696,nan,nan,nan,nan,nan,0.8803577423095703,2.0803577423095705,0.0007369518280029297,0.0,-0.2698338695140745,0.0,-5.316637915957315,0.7660802767871228,-0.06616876081236667,-0.0115614419421674,0.000139947973397227,0.0,0.0,5.709626812458486,0.0
10.98781967163086,-0.12185562,-0.02140689,-3.3764822,-0.0008803547900697681,nan,nan,nan,nan,nan,0.9798307418823242,2.1798307418823244,0.00040984153747558594,0.0,-0.3074639946035226,0.0,-5.300857541048024,0.7559337539577619,-0.05060765076923199,-0.008578616977695018,0.00033627462095623507,0.0,0.0,11.254403980910745,0.0
11.087826013565063,-0.1171765,-0.036109157,-3.513995,-0.0008351041218115675,nan,nan,nan,nan,nan,1.079664707183838,2.279664707183838,0.00046753883361816406,0.0,-0.3338316059925884,0.0,-5.2822254365324675,0.7466402584079581,-0.028859113027375264,-0.002720963647631369,0.0006105228679249776,0.0,0.0,18.057756238882973,0.0
11.18800663948059,-0.106058486,-0.051001746,-3.6664505,-0.014753376388768896,nan,nan,nan,nan,nan,1.179797887802124,2.379797887802124,0.0004229545593261719,0.0,-0.3478244751014905,0.0,-5.260899536236634,0.7381359788182922,-0.006149180160371991,0.004267120050906592,0.011363584250321052,0.0,0.0,23.117937784911035,0.0
11.2884840965271,-0.09887026,-0.06728778,-3.8116999,-0.01560492821517103,nan,nan,nan,nan,nan,1.2803544998168945,2.4803544998168947,0.0004994869232177734,0.0,-0.3487994631670337,0.0,-5.237025812856427,0.7303607439387649,0.01803180482530325,0.011419834246848606,0.013379385842165204,0.0,0.0,29.460271873051557,0.0
11.387769222259521,-0.091844134,-0.08609987,-3.9695303,-0.013579061297314026,nan,nan,nan,nan,nan,1.37957763671875,2.57957763671875,0.00034689903259277344,0.0,-0.33687950379063836,0.0,-5.211274214529998,0.7232579662946067,0.042885217979044606,0.015465069663804195,0.012134704130856142,0.0,0.0,34.26424716093797,0.0
11.488106727600098,-0.0849422,-0.10215457,-4.101567,-0.012568845171659933,nan,nan,nan,nan,nan,1.4801912307739258,2.680191230773926,0.00045299530029296875,0.0,-0.31217687643205533,0.0,-5.183179824760133,0.7167745671561853,0.06568951661087616,0.018094686735043438,0.010645777307702671,0.0,0.0,39.32273710785068,0.0
11.588226556777954,-0.07949123,-0.12450112,-4.261165,-0.014888763882165512,nan,nan,nan,nan,nan,1.580078125,2.780078125,0.0005905628204345703,0.0,-0.27600253798588575,0.0,-5.153575064417085,0.7108608843292247,0.0876503491269621,0.01785672594887113,0.011480734016768008,0.0,0.0,44.16474734538788,0.0
11.688576936721802,-0.07274343,-0.14592251,-4.403072,-0.017658426966169757,nan,nan,nan,nan,nan,1.6803336143493652,2.8803336143493654,0.0006139278411865234,0.0,-0.22937926888669358,0.0,-5.1224228344044365,0.7054705647478186,0.10617867041005537,0.016084567302781533,0.013570127299239164,0.0,0.0,47.17773141392875,0.0
11.788350105285645,-0.072773166,-0.16539332,-4.540955,-0.01903119450830095,nan,nan,nan,nan,nan,1.780395746231079,2.9803957462310793,0.0004019737243652344,0.0,-0.17427927004868002,0.0,-5.090184942180051,0.7005604441304009,0.12012206416314222,0.012880854243794168,0.01466596385589529,0.0,0.0,49.04553625580367,0.0
11.888154745101929,-0.07970566,-0.18373121,-4.685036,-0.022588829708401894,nan,nan,nan,nan,nan,1.880256175994873,3.0802561759948732,0.0005228519439697266,0.0,-0.1128068302739793,0.0,-5.05717129706671,0.696090416101629,0.12441822551532221,0.003369944772325321,0.01789250168099185,0.0,0.0,51.31293173461472,0.0
11.988102197647095,-0.087658465,-0.20052952,-4.8230724,-0.025247033740385262,nan,nan,nan,nan,nan,1.9799058437347412,3.1799058437347414,0.0004985332489013672,0.0,-0.04728423330590868,0.0,-5.023696489805575,0.6920232932098442,0.12109060606456795,-0.007070603522163912,0.021631804936419703,0.0,0.0,52.7272997591521,0.0
12.087756395339966,-0.0966465,-0.21689104,-4.9392037,-0.02736618104470746,nan,nan,nan,nan,nan,2.0796315670013428,3.279631567001343,0.0010075569152832031,0.0,0.020039256551404094,0.0,-4.98997626011006,0.688324662201804,0.11360624220194045,-0.015968573044687778,0.02444853203781858,0.0,0.0,52.272752896917886,0.0
12.18851113319397,-0.10215949,-0.22897711,-5.0499353,-0.027517882826629356,nan,nan,nan,nan,nan,2.180619478225708,3.380619478225708,0.0007822513580322266,0.0,0.08744739937029382,0.0,-4.955925443576223,0.6849627357757148,0.1000604525750553,-0.02049858623822441,0.025686417782388532,0.0,0.0,51.26129263534881,0.0
12.287847995758057,-0.1088671,-0.2354051,-5.1583004,-0.026720389576949163,nan,nan,nan,nan,nan,2.2796733379364014,3.4796733379364015,0.0003895759582519531,0.0,0.150352062937799,0.0,-4.922932447473634,0.6819082028411815,0.07710359806243061,-0.0209430874244526,0.0251168179612656,0.0,0.0,49.10858460468724,0.0
12.387861251831055,-0.116725475,-0.23508437,-5.2503443,-0.025348724919945758,nan,nan,nan,nan,nan,2.379899501800537,3.5798995018005373,0.0004172325134277344,0.0,0.2083976640485425,0.0,-4.890268775104136,0.6791340790893736,0.04671364370301237,-0.020723548530856544,0.023955752065689014,0.0,0.0,46.04018979212669,0.0
12.487659454345703,-0.127106,-0.22846109,-5.3457274,-0.023715209078631387,nan,nan,nan,nan,nan,2.4794392585754395,3.6794392585754396,0.0004203319549560547,0.0,0.2583302235209912,0.0,-4.858846744105219,0.67661555943461,0.01222962766889399,-0.02068763995936451,0.02222970009679039,0.0,0.0,42.41448751717876,0.0
12.589171648025513,-0.1389669,-0.20840292,-5.4215827,-0.021078575963759266,nan,nan,nan,nan,nan,2.58103609085083,3.7810360908508303,0.0004496574401855469,0.0,0.2994485392985281,0.0,-4.828123926000849,0.674329873642779,-0.025148937068308206,-0.019516665427131645,0.020000453395670033,0.0,0.0,36.68858889642905,0.0
12.688348293304443,-0.14126268,-0.17550991,-5.476998,-0.016433635274690522,nan,nan,nan,nan,nan,2.6801559925079346,3.8801559925079347,0.0005295276641845703,0.0,0.3284765539831823,0.0,-4.799744198440339,0.6722561462226867,-0.06261873118355682,-0.01521249574362982,0.01626384286289053,0.0,0.0,30.772295917658056,0.0
12.788105487823486,-0.1422684,-0.13326204,-5.5201435,-0.011175907720077972,nan,nan,nan,nan,nan,2.779928207397461,3.979928207397461,0.0004086494445800781,0.0,0.3455498769414667,0.0,-4.773033419010878,0.670375261430927,-0.10322613377531936,-0.0070098735234275095,0.01129813296066001,0.0,0.0,21.58539204662516,0.0
12.887920618057251,-0.14400709,-0.08932631,-5.5469074,-0.0066358511724930735,nan,nan,nan,nan,nan,2.879817008972168,4.079817008972168,0.00040078163146972656,0.0,0.34980387350688963,0.0,-4.7484047076468565,0.6686697340341452,-0.1355222398198896,0.0008565684579394445,0.007309810549730796,0.0,0.0,11.121165581009425,0.0
12.98794960975647,-0.14617352,-0.04530773,-5.564157,-0.0017825277169172885,nan,nan,nan,nan,nan,2.9801230430603027,4.180123043060303,0.0003647804260253906,0.0,0.34098960942650686,0.0,-4.726031987742114,0.667534152703993,-0.15764487609491556,0.005115524027848443,0.0031249790196353237,0.0,0.0,0.0,0.0
13.087965726852417,-0.1429004,0.012853909,-5.5808516,0.0028467770085674124,nan,nan,nan,nan,nan,3.0799853801727295,4.27998538017273,0.00044345855712890625,0.0,0.3195151845267845,0.0,-4.706314532751143,0.6733541424340026,-0.17117133416984248,0.009950965715530793,-0.0004541824916502058,0.0,0.0,0.0,0.0
13.18778133392334,-0.14280406,0.06728094,-5.5806675,0.009035091245533148,nan,nan,nan,nan,nan,3.17960262298584,4.37960262298584,0.00036454200744628906,0.0,0.2862638103424972,0.0,-4.689369801121357,0.6808938032123082,-0.17521873397905122,0.013432106680626109,-0.00448329543857427,0.0,0.0,0.0,0.0
13.287976503372192,-0.14232998,0.12446611,-5.5674844,0.01801909578595072,nan,nan,nan,nan,nan,3.2798635959625244,4.479863595962525,0.00034880638122558594,0.0,0.24211320075603177,0.0,-4.675221956367961,0.6882219309905341,-0.17118250903142443,0.013005549387116132,-0.011114018018666419,0.0,0.0,0.0,0.0
13.387827157974243,-0.13937417,0.17362367,-5.547776,0.02532543833590051,nan,nan,nan,nan,nan,3.37973952293396,4.57973952293396,0.0004279613494873047,0.0,0.1891138023108458,0.0,-4.664158967075266,0.6953877602689187,-0.1576995757824043,0.013165251518459549,-0.018361681331291124,0.0,0.0,0.0,0.0
13.48794174194336,-0.13358967,0.22030368,-5.5202513,0.028619713342270647,nan,nan,nan,nan,nan,3.4797651767730713,4.6797651767730715,0.00041985511779785156,0.0,0.12899131541778303,0.0,-4.656214357920291,0.7017262480966601,-0.1380684260409123,0.015293841271073843,-0.02171524459332151,0.0,0.0,0.0,0.0
13.587968349456787,-0.12763283,0.25673383,-5.4885817,0.031970511819322193,nan,nan,nan,nan,nan,3.5798659324645996,4.7798659324646,0.0004329681396484375,0.0,0.06401022612732284,0.0,-4.651478894251763,0.7077167760667723,-0.11215774925138038,0.01739201765288608,-0.024131622847284557,0.0,0.0,0.0,0.0
13.68772578239441,-0.12032936,0.2838921,-5.4520154,0.03518781974534564,nan,nan,nan,nan,nan,3.6795201301574707,4.879520130157471,0.0007472038269042969,0.0,-0.0030585104223165836,0.0,-4.6500033409675865,0.7129478087063509,-0.08357325085358619,0.018377329012027998,-0.026803957494301398,0.0,0.0,0.0,0.0
13.787803888320923,-0.113503926,0.29880315,-5.410846,0.036924631074585934,nan,nan,nan,nan,nan,3.779597759246826,4.979597759246826,0.0006873607635498047,0.0,-0.0702947725327655,0.0,-4.651787499052334,0.7177113642971765,-0.050118684225311703,0.018330709701863564,-0.02894166560254557,0.0,0.0,0.0,0.0
13.888147830963135,-0.108301386,0.30198646,-5.3684034,0.035949869913387514,nan,nan,nan,nan,nan,3.879952907562256,5.079952907562256,0.0004000663757324219,0.0,-0.13508106761615996,0.0,-4.656846336876547,0.7221858786627122,-0.01630015527519226,0.016409293779606534,-0.02934238212835622,0.0,0.0,0.0,0.0
13.987781286239624,-0.10463571,0.29640305,-5.3271413,0.0336242558849837,nan,nan,nan,nan,nan,3.9795963764190674,5.179596376419068,0.00040984153747558594,0.0,-0.1943983110903247,0.0,-4.6650619344852435,0.7262594449749179,0.014289475111057201,0.012780175176852036,-0.027984015957913538,0.0,0.0,0.0,0.0
14.087679147720337,-0.09990374,0.27887112,-5.281091,0.03001976669742537,nan,nan,nan,nan,nan,4.0794677734375,5.2794677734375,0.0007648468017578125,0.0,-0.2466331742220997,0.0,-4.67641189602644,0.7298018397316415,0.04155352100029925,0.009129040721979731,-0.025630467463780924,0.0,0.0,0.0,0.0
14.187575101852417,-0.09474248,0.25174007,-5.2322617,0.02576797176169539,nan,nan,nan,nan,nan,4.179378271102905,5.3793782711029055,0.0009102821350097656,0.0,-0.28971694034081574,0.0,-4.6907815496899765,0.7330699361372087,0.06839582132781653,0.005270759001773955,-0.022659398795402904,0.0,0.0,0.0,0.0
14.287709474563599,-0.08885212,0.21994254,-5.1877193,0.021093113169025308,nan,nan,nan,nan,nan,4.279491662979126,5.479491662979126,0.0004963874816894531,0.0,-0.3220789386990424,0.0,-4.708070992258399,0.7358778997821946,0.08921583131554581,0.0016304097660083344,-0.019037959747428886,0.0,0.0,0.0,0.0
14.38768458366394,-0.080205,0.17942348,-5.1401467,0.015558523397467435,nan,nan,nan,nan,nan,4.3794639110565186,5.579463911056519,0.0004363059997558594,0.0,-0.3423934211364165,0.0,-4.728062212521148,0.7385467842344826,0.10740030697723546,-0.00030828607217230005,-0.014594691101976368,0.0,0.0,0.0,0.0
14.48766040802002,-0.073430404,0.13910735,-5.0949554,0.011226882384740094,nan,nan,nan,nan,nan,4.479429721832275,5.679429721832276,0.00041866302490234375,0.0,-0.3499574010139441,0.0,-4.750589506726232,0.7410595409349817,0.11969047389000126,-0.0015583029653909084,-0.010477681610428056,0.0,0.0,0.0,0.0
14.58777117729187,-0.06681808,0.09295058,-5.0469337,0.00641234776051295,nan,nan,nan,nan,nan,4.57954740524292,5.77954740524292,0.0010759830474853516,0.0,-0.34447276702438623,0.0,-4.775483303899011,0.7433189394430941,0.12650395861930314,-0.002594728867474354,-0.006742796055903008,0.0,0.0,0.0,0.0
14.687795877456665,-0.05693652,0.050839722,-4.999959,0.003014446353602814,nan,nan,nan,nan,nan,4.679598331451416,5.879598331451416,0.00040411949157714844,0.0,-0.32613942755156883,0.0,-4.802459641015402,0.7455147281717409,0.12822748047229676,-0.002589016230011653,-0.0031260513700564195,0.0,0.0,0.0,0.0
14.787688493728638,-0.04562984,0.005184666,-4.9499545,0.001287024468943557,nan,nan,nan,nan,nan,4.779491186141968,5.979491186141968,0.0010464191436767578,0.0,-0.2956991103349877,0.0,-4.831235382973137,0.7476362260908556,0.12541830220222833,0.00027724827170148267,-0.001478350646052948,0.0,0.0,0.0,0.0
14.887989282608032,-0.03808561,-0.0377234,-4.9076333,0.0005441256603108845,nan,nan,nan,nan,nan,4.880052328109741,6.080052328109741,0.0005314350128173828,0.0,-0.2539536817363408,0.0,-4.861791157555264,0.7494616380603181,0.1209105914801888,0.0016853246558153356,-0.0007606453225828527,0.0,0.0,0.0,0.0
14.98766303062439,-0.029068178,-0.08567119,-4.872364,-0.0023692106609392227,nan,nan,nan,nan,nan,4.979434490203857,6.179434490203858,0.00044155120849609375,0.0,-0.20328977060516543,0.0,-4.893271911837646,0.7505262009905187,0.11596038375964217,0.002231547304526905,0.0010768516897154774,0.0,0.0,0.0,0.0
15.08762812614441,-0.020127967,-0.13270232,-4.8519406,-0.00499209184166261,nan,nan,nan,nan,nan,5.079421758651733,6.279421758651734,0.0005176067352294922,0.0,-0.14477167612153574,0.0,-4.925936965689959,0.750788223355356,0.11139951863912355,0.00280011237241285,0.003336909200964921,0.0,0.0,0.0,0.0
15.187639236450195,-0.009793911,-0.18255548,-4.8375416,-0.007764830666127875,nan,nan,nan,nan,nan,5.1793882846832275,6.379388284683228,0.0004107952117919922,0.0,-0.08087445026038251,0.0,-4.959286380155283,0.7504956544186298,0.10554037639589177,0.0036185927888851,0.005349814534218071,0.0,0.0,0.0,0.0
15.287731170654297,-0.0024509951,-0.22412637,-4.830424,-0.010688414908598193,nan,nan,nan,nan,nan,5.279489517211914,6.479489517211914,0.0009806156158447266,0.0,-0.013874796420718925,0.0,-4.993061238077979,0.7500810415009613,0.09915181453586835,0.004311165766117695,0.007712177512793319,0.0,0.0,0.0,0.0
15.38766074180603,0.00078861666,-0.2607884,-4.8291574,-0.013620830241561795,nan,nan,nan,nan,nan,5.379494667053223,6.579494667053223,0.0004074573516845703,0.0,0.053578625574774615,0.0,-5.026868601316664,0.7492583212019412,0.08618128183694115,0.0026380093667179964,0.010320530604015884,0.0,0.0,0.0,0.0
15.487670660018921,-0.00016603865,-0.28612384,-4.828903,-0.01671565608944411,nan,nan,nan,nan,nan,5.479419708251953,6.679419708251953,0.0007755756378173828,0.0,0.11898454078226782,0.0,-5.060398377841856,0.748284732489549,0.06712002950222883,-0.00035021378871091634,0.013417690461348518,0.0,0.0,0.0,0.0
15.58763313293457,-0.0018392234,-0.30799308,-4.830556,-0.019557494848106916,nan,nan,nan,nan,nan,5.5793821811676025,6.779382181167603,0.0005419254302978516,0.0,0.1799854682430564,0.0,-5.093377280571238,0.747338564709675,0.04570772012063662,-0.003450672176886813,0.016235302871520467,0.0,0.0,0.0,0.0
15.687650442123413,-0.004717611,-0.31889814,-4.8358393,-0.021180093148224235,nan,nan,nan,nan,nan,5.679401874542236,6.8794018745422365,0.00037407875061035156,0.0,0.23431396216783937,0.0,-5.1255030704316535,0.7461947073049567,0.02034500044018098,-0.005911260135551434,0.01802615005547849,0.0,0.0,0.0,0.0
15.78766417503357,-0.008214998,-0.31878567,-4.84758,-0.021847382754608825,nan,nan,nan,nan,nan,5.77941632270813,6.97941632270813,0.0004322528839111328,0.0,0.27990641795150334,0.0,-5.156455023309504,0.7448471965200195,-0.006084545170903145,-0.0077080309887522505,0.019107901683183114,0.0,0.0,0.0,0.0
15.887625932693481,-0.010688873,-0.30616528,-4.864426,-0.0219391472408264,nan,nan,nan,nan,nan,5.879382848739624,7.079382848739624,0.0008683204650878906,0.0,0.31505250372233423,0.0,-5.185932039886863,0.7430793673795351,-0.0355866721988933,-0.008456831046354658,0.01911711717666648,0.0,0.0,0.0,0.0
15.987682580947876,-0.0104743745,-0.27766842,-4.8885984,-0.022001960931012553,nan,nan,nan,nan,nan,5.9794347286224365,7.179434728622437,0.0003905296325683594,0.0,0.3384823446467699,0.0,-5.213697090890893,0.7409761629429779,-0.06686730524542432,-0.007137155853482692,0.018902382583111357,0.0,0.0,0.0,0.0
16.08762788772583,-0.006844447,-0.24633324,-4.907472,-0.021550838178152683,nan,nan,nan,nan,nan,6.079365968704224,7.279365968704224,0.0004172325134277344,0.0,0.3492821542915227,0.0,-5.239435071851413,0.739313227770987,-0.09306393937157308,-0.004172059852540143,0.01848583175265395,0.0,0.0,0.0,0.0
16.1876323223114,-0.0059057022,-0.204815,-4.930728,-0.02002866624490652,nan,nan,nan,nan,nan,6.179383277893066,7.379383277893067,0.00035691261291503906,0.0,0.34707812944261623,0.0,-5.262959801017082,0.7378437538489107,-0.11474360064338596,-0.0009243603291952805,0.01752527642171002,0.0,0.0,0.0,0.0
16.287596464157104,-0.010209376,-0.15914884,-4.9534116,-0.017419066133932907,nan,nan,nan,nan,nan,6.279345273971558,7.479345273971558,0.00038886070251464844,0.0,0.3319494640553876,0.0,-5.2840175603976745,0.736246975473945,-0.13330785369238535,-0.0016368500007442825,0.015534358654122197,0.0,0.0,0.0,0.0
16.38762927055359,-0.01929953,-0.103180215,-4.9749846,-0.013304714865644903,nan,nan,nan,nan,nan,6.379389524459839,7.579389524459839,0.000396728515625,0.0,0.3044343586518786,0.0,-5.302439545070647,0.7352228459932346,-0.14753881408391967,-0.005962176598994174,0.012144953537175712,0.0,0.0,0.0,0.0
16.487603664398193,-0.027174043,-0.05137219,-4.997506,-0.009458202396390489,nan,nan,nan,nan,nan,6.479353189468384,7.679353189468384,0.00033545494079589844,0.0,0.26560161097606255,0.0,-5.318023851489531,0.7340711331396553,-0.1554613550672225,-0.010146993773963428,0.008315406238338565,0.0,0.0,0.0,0.0
16.587610244750977,-0.031002255,-0.0018404573,-5.0217333,-0.006930564608268198,nan,nan,nan,nan,nan,6.57935905456543,7.77935905456543,0.00033926963806152344,0.0,0.21685736962978985,0.0,-5.330645692866638,0.732832248204914,-0.158522564609132,-0.011265369266910236,0.005341830345472356,0.0,0.0,0.0,0.0
16.687591075897217,-0.03630695,0.057814155,-5.0499134,-0.005084952442914139,nan,nan,nan,nan,nan,6.679347038269043,7.879347038269043,0.0003592967987060547,0.0,0.1600428930304109,0.0,-5.3401785995909865,0.7315380992424969,-0.1567873828864738,-0.009376448043130928,0.003799788230350217,0.0,0.0,0.0,0.0
16.78770160675049,-0.044250805,0.11601147,-5.076517,-0.003355844387851614,nan,nan,nan,nan,nan,6.779446840286255,7.979446840286255,0.00033926963806152344,0.0,0.0971940033759517,0.0,-5.346541420284589,0.7303762869642234,-0.14876512375036308,-0.009073624768220689,0.0022009984232555665,0.0,0.0,0.0,0.0
16.887671947479248,-0.05028661,0.16533583,-5.1026006,-0.0020846693096529256,nan,nan,nan,nan,nan,6.879422664642334,8.079422664642333,0.0003504753112792969,0.0,0.030800045150297817,0.0,-5.349660375755916,0.7292384839054992,-0.13796215201246526,-0.00840713265738677,0.001020358941950487,0.0,0.0,0.0,0.0
16.987814903259277,-0.05704379,0.20740819,-5.123086,-0.0005907795045427197,nan,nan,nan,nan,nan,6.979617118835449,8.179617118835449,0.0003790855407714844,0.0,-0.03688807729971398,0.0,-5.349512328062448,0.7281241380428881,-0.11919927529105404,-0.007408135409322511,-6.881362595539057e-05,0.0,0.0,0.0,0.0
17.08766484260559,-0.06283117,0.2420092,-5.1509147,0.0005378367780431506,nan,nan,nan,nan,nan,7.079416036605835,8.279416036605834,0.00034117698669433594,0.0,-0.10294065344129395,0.0,-5.346108210161148,0.7267326499241189,-0.092789707996864,-0.005831374966506443,-0.0009685468828694088,0.0,0.0,0.0,0.0
17.187731742858887,-0.06758698,0.26327634,-5.178539,0.0012535511595434326,nan,nan,nan,nan,nan,7.179489374160767,8.379489374160766,0.0003447532653808594,0.0,-0.16533673386828285,0.0,-5.33946294817139,0.7249556504340422,-0.061403410280537155,-0.0035635874883157355,-0.0012892418491513183,0.0,0.0,0.0,0.0
17.287708282470703,-0.073280156,0.27464667,-5.207933,0.0022050466829184254,nan,nan,nan,nan,nan,7.279467821121216,8.479467821121215,0.00035119056701660156,0.0,-0.22151369012721842,0.0,-5.329654352802698,0.7232474040123156,-0.026128292486901794,-0.002020546196168696,-0.0018370029673547641,0.0,0.0,0.0,0.0
17.387612342834473,-0.07858619,0.27636626,-5.238707,0.003264605619372876,nan,nan,nan,nan,nan,7.37935471534729,8.57935471534729,0.00034165382385253906,0.0,-0.2694011052706089,0.0,-5.3167823612504845,0.7213123271107132,0.00821524283953531,-0.001660568641463482,-0.0026805942449443358,0.0,0.0,0.0,0.0
17.487613916397095,-0.078694806,0.2667682,-5.2708335,0.0036875393634724363,nan,nan,nan,nan,nan,7.479369878768921,8.67936987876892,0.0005166530609130859,0.0,-0.30731487377518574,0.0,-5.300937183953106,0.7194101607489931,0.04145668620706727,0.00020774764648244179,-0.0030659505593790717,0.0,0.0,0.0,0.0
17.587547063827515,-0.0760578,0.24493064,-5.297789,0.002862029916918904,nan,nan,nan,nan,nan,7.579284906387329,8.779284906387328,0.00037288665771484375,0.0,-0.333754308345174,0.0,-5.282301413684998,0.717758053657289,0.07374572078911272,0.003600316628780713,-0.002522660074533396,0.0,0.0,0.0,0.0
17.68756914138794,-0.07117109,0.20912603,-5.3225102,0.0005203119007393814,nan,nan,nan,nan,nan,7.679307460784912,8.879307460784911,0.0003364086151123047,0.0,-0.3477873762884711,0.0,-5.261010109627803,0.7164811932926078,0.10550142511002512,0.006943166391099004,-0.0009410570264918447,0.0,0.0,0.0,0.0
17.78773593902588,-0.06428027,0.16827363,-5.341394,-0.0023160865114806514,nan,nan,nan,nan,nan,7.779482126235962,8.979482126235961,0.00034236907958984375,0.0,-0.3488478169009006,0.0,-5.237242892252748,0.715652235518756,0.13289464640871174,0.00944588650386044,0.0012386090317739536,0.0,0.0,0.0,0.0
17.887799501419067,-0.045260444,0.11779871,-5.3570905,-0.0046479052126103815,nan,nan,nan,nan,nan,7.879568815231323,9.079568815231323,0.0003387928009033203,0.0,-0.33688112276732063,0.0,-5.211276593960754,0.715134155179249,0.15373695221631695,0.015338887828598399,0.0028383152422001372,0.0,0.0,0.0,0.0
17.987765550613403,-0.02717646,0.06337487,-5.3688664,-0.008191197129118848,nan,nan,nan,nan,nan,7.979525566101074,9.179525566101074,0.00033736228942871094,0.0,-0.31238028348474806,0.0,-5.18337169044229,0.7149085082416287,0.16965901745097048,0.021628417670698313,0.004674024608087128,0.0,0.0,0.0,0.0
18.087781190872192,-0.009657239,0.0073930766,-5.3782606,-0.011091737055343664,nan,nan,nan,nan,nan,8.07954478263855,9.279544782638549,0.0003533363342285156,0.0,-0.27622431255670654,0.0,-5.153737188794269,0.7147966889320562,0.17922342303943473,0.025159493096882944,0.006768027314824729,0.0,0.0,0.0,0.0
18.18774724006653,0.007224552,-0.048514657,-5.385326,-0.012632330476820443,nan,nan,nan,nan,nan,8.1795072555542,9.379507255554199,0.0003383159637451172,0.0,-0.22980131151186714,0.0,-5.122684713079322,0.7149364478179929,0.1803767479132368,0.027097511418971355,0.007818691655657451,0.0,0.0,0.0,0.0
18.287766933441162,0.02475263,-0.10746761,-5.3900347,-0.012994080828791882,nan,nan,nan,nan,nan,8.279535055160522,9.479535055160522,0.00035190582275390625,0.0,-0.17478408118737826,0.0,-5.090466271714554,0.7152620192981773,0.17328265391117956,0.027329466876480815,0.007982971028967925,0.0,0.0,0.0,0.0
18.38778829574585,0.038123313,-0.15957022,-5.393369,-0.010984305357850319,nan,nan,nan,nan,nan,8.379550695419312,9.57955069541931,0.00034499168395996094,0.0,-0.11325861501000621,0.0,-5.057406759929192,0.7154724788307858,0.1619320256265951,0.025874870594502344,0.006717906004870316,0.0,0.0,0.0,0.0
18.487725496292114,0.053391602,-0.21613349,-5.389415,-0.007950968282327848,nan,nan,nan,nan,nan,8.479471445083618,9.679471445083617,0.00034356117248535156,0.0,-0.047575458031257865,0.0,-5.023843118565421,0.7159148230441313,0.14630907556530653,0.023239117791137666,0.004645848723138859,0.0,0.0,0.0,0.0
18.587759971618652,0.06534428,-0.26211837,-5.382816,-0.006035611607040935,nan,nan,nan,nan,nan,8.57952094078064,9.779520940780639,0.00038552284240722656,0.0,0.019964523574883326,0.0,-4.990013672471183,0.7165824964165618,0.1249112166485172,0.019125763989655174,0.002834225053640381,0.0,0.0,0.0,0.0
18.687653303146362,0.073360294,-0.30233315,-5.3746204,-0.0060619213095976995,nan,nan,nan,nan,nan,8.679393768310547,9.879393768310546,0.00035190582275390625,0.0,0.08664408111554792,0.0,-4.956336862026331,0.7170826574975293,0.09969874647194281,0.012657728550949047,0.00331263023616711,0.0,0.0,0.0,0.0
18.78773021697998,0.0756298,-0.33013076,-5.367288,-0.006872105900612019,nan,nan,nan,nan,nan,8.779485702514648,9.979485702514648,0.000354766845703125,0.0,0.15023740105819888,0.0,-4.922994372485789,0.7174527782542941,0.06799949992441766,0.0033323654666846097,0.00524917616669146,0.0,0.0,0.0,0.0
18.887789249420166,0.07147644,-0.34739587,-5.357561,-0.007848906840295454,nan,nan,nan,nan,nan,8.879547119140625,10.079547119140624,0.00035834312438964844,0.0,0.2082060498750557,0.0,-4.8903819906647295,0.7176698571058517,0.03398237742548652,-0.00675053510971449,0.007254487830507276,0.0,0.0,0.0,0.0
18.987709760665894,0.06578097,-0.34340754,-5.345144,-0.009126831642052184,nan,nan,nan,nan,nan,8.979466676712036,10.179466676712035,0.0003466606140136719,0.0,0.25834274064728924,0.0,-4.8588382557356615,0.7178461925360261,-0.004009888167523858,-0.015232530579811563,0.008945963614210645,0.0,0.0,0.0,0.0
19.08772563934326,0.061067592,-0.3284933,-5.3316436,-0.009941775405975496,nan,nan,nan,nan,nan,9.07948350906372,10.27948350906372,0.0003788471221923828,0.0,0.298903327285414,0.0,-4.828581698117013,0.7181846191051491,-0.045625089308973896,-0.021090560863153703,0.009909988655458706,0.0,0.0,0.0,0.0
19.187618017196655,0.055314872,-0.29853436,-5.3124228,-0.01068750497145557,nan,nan,nan,nan,nan,9.179367780685425,10.379367780685424,0.0005400180816650391,0.0,0.3282920264719641,0.0,-4.799962965605731,0.7187578703103287,-0.08424386733500819,-0.023969300578215166,0.010118502538917329,0.0,0.0,0.0,0.0
19.287787437438965,0.045806117,-0.25664237,-5.28753,-0.011173410149031011,nan,nan,nan,nan,nan,9.279535293579102,10.4795352935791,0.0003402233123779297,0.0,0.34550751584393946,0.0,-4.7731346284298715,0.7199276096583902,-0.12121836242624019,-0.025883360989023805,0.009864152093814428,0.0,0.0,0.0,0.0
19.387737274169922,0.041413754,-0.2107462,-5.269312,-0.010993173828586035,nan,nan,nan,nan,nan,9.37948203086853,10.57948203086853,0.0003447532653808594,0.0,0.3498113871379946,0.0,-4.7484835057526125,0.7207050977175735,-0.1475893536499258,-0.02467570486620268,0.009289321180501789,0.0,0.0,0.0,0.0
19.487767219543457,0.03458362,-0.15507053,-5.24841,-0.010727124669234579,nan,nan,nan,nan,nan,9.479517221450806,10.679517221450805,0.00034308433532714844,0.0,0.34108179187989746,0.0,-4.726159587692038,0.7216413973519609,-0.16761185072723622,-0.021378462065633853,0.008467100827295277,0.0,0.0,0.0,0.0
19.58768320083618,0.027769757,-0.09871178,-5.2252574,-0.010144688042526964,nan,nan,nan,nan,nan,9.579437971115112,10.779437971115112,0.0003426074981689453,0.0,0.3196661981537575,0.0,-4.706415319345779,0.7228079257588296,-0.17980119804939082,-0.017959722185881558,0.00779823372047808,0.0,0.0,0.0,0.0
19.68780255317688,0.020302854,-0.03783754,-5.1990533,-0.009083882616482046,nan,nan,nan,nan,nan,9.679565191268921,10.87956519126892,0.00035572052001953125,0.0,0.28627838255767013,0.0,-4.689375636677,0.7244394683749292,-0.1845187787166833,-0.01483190670374571,0.006851998343486217,0.0,0.0,0.0,0.0
19.787705183029175,0.008955968,0.03469577,-5.173494,-0.007298432511932119,nan,nan,nan,nan,nan,9.77945852279663,10.97945852279663,0.00034689903259277344,0.0,0.2423110587195034,0.0,-4.6752730634935284,0.7259841158547858,-0.18566127602652474,-0.013784495028981525,0.0052818096969215675,0.0,0.0,0.0,0.0
19.88768219947815,-0.01096316,0.104719706,-5.142857,-0.003441608481880949,nan,nan,nan,nan,nan,9.879432678222656,11.079432678222656,0.0003516674041748047,0.0,0.18928847782044886,0.0,-4.664188210761542,0.7276915366668018,-0.17929587048550566,-0.016124565817752012,0.002281516390178244,0.0,0.0,0.0,0.0
19.987802028656006,-0.026147036,0.16772406,-5.115222,-0.0003685745193812151,nan,nan,nan,nan,nan,9.979573249816895,11.179573249816894,0.0003352165222167969,0.0,0.1291120325801834,0.0,-4.656226545687405,0.7294075951817024,-0.16607830570433166,-0.01858187629283533,-0.0013114730179077125,0.0,0.0,0.0,0.0
20.087632656097412,-0.037430376,0.22182935,-5.0876465,0.0016887822426715146,nan,nan,nan,nan,nan,10.079386472702026,11.279386472702026,0.00034928321838378906,0.0,0.06432915361580263,0.0,-4.651493827934452,0.7309148739201051,-0.14659115366500372,-0.017258268177567853,-0.0032985193939101955,0.0,0.0,0.0,0.0
20.187758207321167,-0.04567033,0.26747155,-5.0581527,0.003069561121548478,nan,nan,nan,nan,nan,10.179516553878784,11.379516553878783,0.00035071372985839844,0.0,-0.0030560906230715484,0.0,-4.650003335683011,0.7322612516854057,-0.11722805644697844,-0.012880654017846127,-0.00406002017742973,0.0,0.0,0.0,0.0
20.287618160247803,-0.049683053,0.29891238,-5.03328,0.004283862445128607,nan,nan,nan,nan,nan,10.279373407363892,11.479373407363891,0.0003428459167480469,0.0,-0.07014605135788762,0.0,-4.651779845756026,0.7332830717071819,-0.08428411394746527,-0.007085107747953227,-0.004320410499480743,0.0,0.0,0.0,0.0
20.3881618976593,-0.059508726,0.32334617,-4.9979796,0.005271860036549267,nan,nan,nan,nan,nan,10.379901647567749,11.579901647567748,0.00033164024353027344,0.0,-0.1350490691939592,0.0,-4.6568429238838425,0.7346676525338216,-0.049659884081095035,-0.0031085340783958883,-0.004624488413327688,0.0,0.0,0.0,0.0
20.487797021865845,-0.06857317,0.3367945,-4.9672456,0.00601835624477761,nan,nan,nan,nan,nan,10.479552745819092,11.679552745819091,0.00034928321838378906,0.0,-0.19437376030076484,0.0,-4.665057651036998,0.7360629040641267,-0.019559803826244636,-0.0011781101220171624,-0.00500201335712117,0.0,0.0,0.0,0.0
20.58782935142517,-0.075505614,0.33659756,-4.9362917,0.006729024605025967,nan,nan,nan,nan,nan,10.579609394073486,11.779609394073486,0.0003349781036376953,0.0,-0.24670115846757273,0.0,-4.6764301586074914,0.737283431322693,0.014868014084067752,0.00028990060444198713,-0.00547066533818153,0.0,0.0,0.0,0.0
20.687901735305786,-0.07731872,0.32173532,-4.907384,0.007265947639369191,nan,nan,nan,nan,nan,10.67967939376831,11.87967939376831,0.0003371238708496094,0.0,-0.28983121369070736,0.0,-4.690829288949282,0.7383213150776091,0.04950174949166112,0.0032445552705863256,-0.005770658752988398,0.0,0.0,0.0,0.0
20.787867784500122,-0.07317518,0.29907042,-4.8715954,0.0072766320571719945,nan,nan,nan,nan,nan,10.77962327003479,11.97962327003479,0.0003387928009033203,0.0,-0.32211378220588105,0.0,-4.708095556908063,0.7399107047109915,0.0800275047016045,0.008156426366825155,-0.0057571563559855495,0.0,0.0,0.0,0.0
20.887824058532715,-0.069463335,0.2714703,-4.8381014,0.006664837877826797,nan,nan,nan,nan,nan,10.879597425460815,12.079597425460815,0.00033855438232421875,0.0,-0.34241214223168087,0.0,-4.728090652097311,0.7414531362181417,0.1061338934423207,0.01245266755520664,-0.005435121082349974,0.0,0.0,0.0,0.0
20.98788285255432,-0.06468248,0.23541296,-4.8062177,0.006242616774280618,nan,nan,nan,nan,nan,10.97964859008789,12.17964859008789,0.0003371238708496094,0.0,-0.3499596802316124,0.0,-4.750641462576469,0.7427461784883227,0.12437638241506559,0.01502273124417662,-0.005307462281768851,0.0,0.0,0.0,0.0
21.087695837020874,-0.060230445,0.19404784,-4.7811036,0.005948559532181531,nan,nan,nan,nan,nan,11.079451560974121,12.27945156097412,0.0004336833953857422,0.0,-0.344484241170568,0.0,-4.775458429068155,0.7437604263131367,0.13712479427836846,0.016073656471897717,-0.005365924358246077,0.0,0.0,0.0,0.0
21.188292264938354,-0.055723526,0.13984981,-4.7584686,0.0054631696243856755,nan,nan,nan,nan,nan,11.180269718170166,12.380269718170165,0.00035262107849121094,0.0,-0.3259742881123532,0.0,-4.802647192749385,0.744617960047956,0.14814176289299197,0.015166366233928797,-0.005315950670438322,0.0,0.0,0.0,0.0
21.287871837615967,-0.04787165,0.088849716,-4.7423825,0.005478886444945617,nan,nan,nan,nan,nan,11.279635667800903,12.479635667800903,0.00033473968505859375,0.0,-0.29564679565636276,0.0,-4.831278208487702,0.7451371044241817,0.15342225041494606,0.015029047932114693,-0.0054921459213463485,0.0,0.0,0.0,0.0
21.38774085044861,-0.038577557,0.028236091,-4.723246,0.005977902928148855,nan,nan,nan,nan,nan,11.379487037658691,12.57948703765869,0.000339508056640625,0.0,-0.25421674484516515,0.0,-4.8616154688392585,0.7457547937413802,0.15521049582049354,0.01523994064987453,-0.0060244697584627615,0.0,0.0,0.0,0.0
21.487924337387085,-0.024985267,-0.025183357,-4.707951,0.006857112276786958,nan,nan,nan,nan,nan,11.479692697525024,12.679692697525024,0.0003325939178466797,0.0,-0.20314752171151818,0.0,-4.893355112590714,0.7463216630160902,0.15185491076768157,0.015728119608331585,-0.006947828099885171,0.0,0.0,0.0,0.0
21.587865829467773,-0.008874322,-0.07960767,-4.6961956,0.008190255987434206,nan,nan,nan,nan,nan,11.579697132110596,12.779697132110595,0.0003440380096435547,0.0,-0.14460201116559468,0.0,-4.926028024349168,0.7467250394088857,0.14282353253396332,0.01794889236827288,-0.008313620414609701,0.0,0.0,0.0,0.0
21.6876802444458,0.0033540686,-0.12638853,-4.691611,0.009807968618356432,nan,nan,nan,nan,nan,11.679435014724731,12.87943501472473,0.0003693103790283203,0.0,-0.08084368573858834,0.0,-4.959302082825151,0.7468446285021125,0.13010691052319107,0.01808148809459824,-0.009882910007438012,0.0,0.0,0.0,0.0
21.787668228149414,0.012766005,-0.16204648,-4.698482,0.010210870903228843,nan,nan,nan,nan,nan,11.779417991638184,12.979417991638183,0.00034356117248535156,0.0,-0.01392315607547311,0.0,-4.993037043934849,0.746130691386731,0.11265578766358891,0.016064784056903016,-0.010464592665370016,0.0,0.0,0.0,0.0
21.88807463645935,0.01894961,-0.19715239,-4.708331,0.009476066849473424,nan,nan,nan,nan,nan,11.879831552505493,13.079831552505492,0.0003402233123779297,0.0,0.053803881208688856,0.0,-5.026982240440031,0.7450381450382138,0.08982596931242871,0.01136000923226703,-0.009596008382034872,0.0,0.0,0.0,0.0
21.98803186416626,0.024712533,-0.22214293,-4.722522,0.008309559842170633,nan,nan,nan,nan,nan,11.979793548583984,13.179793548583984,0.0003337860107421875,0.0,0.11922240311453311,0.0,-5.060522956090443,0.7439842828585266,0.06642181855541118,0.005863535226170536,-0.007978555787238398,0.0,0.0,0.0,0.0
22.08790349960327,0.031991623,-0.24017477,-4.742933,0.00756320220190973,nan,nan,nan,nan,nan,12.079689741134644,13.279689741134643,0.0003333091735839844,0.0,0.18016392124788952,0.0,-5.093477560197892,0.7424634514646831,0.03935249521290289,0.0023558878563988356,-0.006844406325768813,0.0,0.0,0.0,0.0
22.187938928604126,0.03777278,-0.24713533,-4.763052,0.007047922307026708,nan,nan,nan,nan,nan,12.179716348648071,13.37971634864807,0.00034356117248535156,0.0,0.2344719872343291,0.0,-5.125602383844166,0.7409691482426705,0.010246958502687432,-0.0003631613009287714,-0.006082498546491878,0.0,0.0,0.0,0.0
22.28783345222473,0.046656232,-0.2504294,-4.7861805,0.006312191805503846,nan,nan,nan,nan,nan,12.27959418296814,13.479594182968139,0.0003597736358642578,0.0,0.27997865385187826,0.0,-5.15650884882145,0.7394061339449998,-0.017241786786856093,-0.0016871068416710504,-0.005413405986220013,0.0,0.0,0.0,0.0
22.387847185134888,0.054875493,-0.24556161,-4.809514,0.00554061391912003,nan,nan,nan,nan,nan,12.379628896713257,13.579628896713256,0.00034427642822265625,0.0,0.31512498715805154,0.0,-5.186002561244619,0.7380445731979681,-0.03980579063103504,-0.0018477950421012434,-0.004769584488177417,0.0,0.0,0.0,0.0
22.488332748413086,0.06347614,-0.22792841,-4.837088,0.0047563705449259405,nan,nan,nan,nan,nan,12.480228185653687,13.680228185653686,0.0004470348358154297,0.0,0.3386185456177306,0.0,-5.213909629053487,0.7365518676851451,-0.0629442419747351,-0.0014938230597257678,-0.004164618853165475,0.0,0.0,0.0,0.0
22.588404655456543,0.07215776,-0.19755247,-4.8683615,0.003821265975235591,nan,nan,nan,nan,nan,12.580379724502563,13.780379724502563,0.0003409385681152344,0.0,0.3493253942723546,0.0,-5.239685121845697,0.7350552971053079,-0.08816300662726992,-0.0006464955844873436,-0.003509471185413093,0.0,0.0,0.0,0.0
22.687792539596558,0.08058565,-0.1609029,-4.9028435,0.002973361471204323,nan,nan,nan,nan,nan,12.679588556289673,13.879588556289672,0.0003654956817626953,0.0,0.3470601914763527,0.0,-5.263005629621585,0.733270298977841,-0.11233486856330097,0.0011786159071457269,-0.0027541114609054675,0.0,0.0,0.0,0.0
22.787734746932983,0.09133928,-0.116776496,-4.9452543,0.00230457138625708,nan,nan,nan,nan,nan,12.779503583908081,13.97950358390808,0.00036263465881347656,0.0,0.3319154917812894,0.0,-5.284048856724378,0.7312056033096072,-0.13295446578840855,0.003543384742433823,-0.0020250308531501744,0.0,0.0,0.0,0.0
22.88803791999817,0.09863922,-0.067520894,-4.9914284,0.0016038608740515624,nan,nan,nan,nan,nan,12.879862070083618,14.079862070083617,0.00035071372985839844,0.0,0.3042764733962785,0.0,-5.302519977844952,0.7290992197136307,-0.147570833426218,0.0048684971192803645,-0.0013210970787865038,0.0,0.0,0.0,0.0
22.9881911277771,0.101308756,-0.020113604,-5.0303,0.001085529759815117,nan,nan,nan,nan,nan,12.979994297027588,14.179994297027587,0.0003495216369628906,0.0,0.265318890185208,0.0,-5.318114365023649,0.7275307020037376,-0.15612241760561874,0.004028489626984526,-0.0007773724980845451,0.0,0.0,0.0,0.0
23.087910175323486,0.10224749,0.033143964,-5.069368,0.0009993559508751615,nan,nan,nan,nan,nan,13.07972502708435,14.27972502708435,0.00034165382385253906,0.0,0.21666294034830907,0.0,-5.33068627575799,0.726357217670213,-0.15864157732557405,0.0007020588293444807,-0.0007517708237629278,0.0,0.0,0.0,0.0
23.187951803207397,0.104537316,0.07941572,-5.102359,0.0016047843617658262,nan,nan,nan,nan,nan,13.179740905761719,14.379740905761718,0.00043845176696777344,0.0,0.15980583059805023,0.0,-5.3402099210774,0.7252427011788368,-0.1563988619620098,-0.00184565923824701,-0.0013739413619080093,0.0,0.0,0.0,0.0
23.287939310073853,0.10026806,0.12757467,-5.144682,0.0034718477485346563,nan,nan,nan,nan,nan,13.279753684997559,14.479753684997558,0.0003578662872314453,0.0,0.09699452582378233,0.0,-5.346555963235173,0.723900317462072,-0.14684780187683744,-0.005690643579856292,-0.003033669034328846,0.0,0.0,0.0,0.0
23.387969732284546,0.096170545,0.16699748,-5.18501,0.005526886713278965,nan,nan,nan,nan,nan,13.379781723022461,14.57978172302246,0.000347137451171875,0.0,0.030558023196721962,0.0,-5.349665704950757,0.7223944552807381,-0.13100388200683458,-0.010472025746007361,-0.005403861231769117,0.0,0.0,0.0,0.0
23.488098621368408,0.091430485,0.2031766,-5.2291474,0.007184544647136477,nan,nan,nan,nan,nan,13.479960203170776,14.679960203170776,0.00034618377685546875,0.0,-0.03711892448061064,0.0,-5.349506183519292,0.7208328214751706,-0.11111353980297595,-0.013171391847675473,-0.0074087852704844736,0.0,0.0,0.0,0.0
23.587961196899414,0.08590939,0.22907019,-5.2689486,0.00737384510509255,nan,nan,nan,nan,nan,13.57983136177063,14.77983136177063,0.0003540515899658203,0.0,-0.10320922025364215,0.0,-5.346087286044444,0.7190884388380877,-0.08482026154469288,-0.013898104554964796,-0.007974913760406424,0.0,0.0,0.0,0.0
23.688148498535156,0.07511716,0.24495228,-5.3039885,0.006691541181072097,nan,nan,nan,nan,nan,13.679921865463257,14.879921865463256,0.00034999847412109375,0.0,-0.16559461069634632,0.0,-5.339427284971571,0.7178270712723003,-0.055869930097404034,-0.01542334678225961,-0.007724352951338701,0.0,0.0,0.0,0.0
23.787933349609375,0.062264796,0.25355706,-5.326828,0.005813380043897878,nan,nan,nan,nan,nan,13.779704570770264,14.979704570770263,0.0004620552062988281,0.0,-0.22163769716409537,0.0,-5.329627432809383,0.7170561870310216,-0.023445714230445027,-0.017879457729680037,-0.007035328761887515,0.0,0.0,0.0,0.0
23.888139724731445,0.04786157,0.25597546,-5.355988,0.004938487449424996,nan,nan,nan,nan,nan,13.879947662353516,15.079947662353515,0.0003514289855957031,0.0,-0.2696570596625365,0.0,-5.316697007296972,0.7162917190242128,0.006328613885071835,-0.019963063504707824,-0.006233025310363601,0.0,0.0,0.0,0.0
23.988028287887573,0.037127487,0.24756016,-5.382197,0.004625704072527825,nan,nan,nan,nan,nan,13.97981572151184,15.17981572151184,0.0003616809844970703,0.0,-0.3074591383306263,0.0,-5.300860137697125,0.7152010189337722,0.03569444759100306,-0.020663517308174964,-0.005451383306198173,0.0,0.0,0.0,0.0
24.08804965019226,0.029150525,0.22456752,-5.4054804,0.004883040338200036,nan,nan,nan,nan,nan,14.07988715171814,15.279887151718139,0.0003502368927001953,0.0,-0.3338767946752487,0.0,-5.282180920008016,0.7143524209888032,0.06573200742561389,-0.017838310321494622,-0.004952109565201929,0.0,0.0,0.0,0.0
24.187861919403076,0.02350903,0.19252072,-5.4199758,0.005641251877960468,nan,nan,nan,nan,nan,14.179653882980347,15.379653882980346,0.00036072731018066406,0.0,-0.3478136141467407,0.0,-5.260932010149473,0.7138924960587867,0.09818093816921805,-0.013047173787888082,-0.0049480053925920475,0.0,0.0,0.0,0.0
24.28765559196472,0.018281814,0.1518771,-5.428506,0.006691530005921292,nan,nan,nan,nan,nan,14.279442071914673,15.479442071914672,0.0003554821014404297,0.0,-0.34885001319841813,0.0,-5.237252855226484,0.7138139053566964,0.12451771141779555,-0.008287038598586398,-0.005435104889962203,0.0,0.0,0.0,0.0
24.388253688812256,0.014279576,0.10300525,-5.434536,0.007835279760194006,nan,nan,nan,nan,nan,14.380005598068237,15.580005598068237,0.0003447532653808594,0.0,-0.33680084387109543,0.0,-5.211158761536184,0.7140538712660135,0.14631492277123204,-0.0031758857620108574,-0.006271544223594906,0.0,0.0,0.0,0.0
24.488548517227173,0.012224367,0.05420101,-5.438415,0.008764570305319856,nan,nan,nan,nan,nan,14.480526208877563,15.680526208877563,0.0007886886596679688,0.0,-0.31207432165220755,0.0,-5.183083244749471,0.7142333667131554,0.1611466590604655,0.0017987586760824844,-0.007342606173234411,0.0,0.0,0.0,0.0
24.587969064712524,0.010885401,-0.0028010113,-5.439973,0.008817846740089095,nan,nan,nan,nan,nan,14.579798698425293,15.779798698425292,0.000339508056640625,0.0,-0.2761187658337434,0.0,-5.153660009059087,0.7146510326597367,0.1698617824957256,0.005138198093589396,-0.007871122584159769,0.0,0.0,0.0,0.0
24.6879460811615,0.017241405,-0.054136954,-5.438654,0.009140242936806198,nan,nan,nan,nan,nan,14.679818868637085,15.879818868637084,0.0003502368927001953,0.0,-0.22964223154726734,0.0,-5.122585969976875,0.7150114550868774,0.17092273124253177,0.00975614611692126,-0.008555649258374848,0.0,0.0,0.0,0.0
24.787986278533936,0.020431267,-0.1021413,-5.4370856,0.008878682132758182,nan,nan,nan,nan,nan,14.779773473739624,15.979773473739623,0.0003733634948730469,0.0,-0.17464429270753176,0.0,-5.090388347357897,0.7153320488046843,0.16125963015405126,0.013231664228827397,-0.009037526111238996,0.0,0.0,0.0,0.0
24.887845277786255,0.023077043,-0.14216541,-5.426507,0.008246831370369793,nan,nan,nan,nan,nan,14.879605054855347,16.079605054855346,0.0003650188446044922,0.0,-0.1132238110951386,0.0,-5.057388617743383,0.7158348859315266,0.14405093610290534,0.013706784301553858,-0.00869714984156074,0.0,0.0,0.0,0.0
24.98796319961548,0.025894314,-0.17985484,-5.4079514,0.0075724753109156495,nan,nan,nan,nan,nan,14.979875326156616,16.179875326156616,0.00035071372985839844,0.0,-0.04730469365366723,0.0,-5.023706790974857,0.7170725567653933,0.12019736491626658,0.012991585433105945,-0.008065942770630562,0.0,0.0,0.0,0.0
25.08783793449402,0.027613213,-0.21026827,-5.3898954,0.00703440768479165,nan,nan,nan,nan,nan,15.079611778259277,16.279611778259277,0.000362396240234375,0.0,0.020025888435321618,0.0,-4.989982952399012,0.7178919840270509,0.09602793801293341,0.011161241446898167,-0.0074414652887994735,0.0,0.0,0.0,0.0
25.18787980079651,0.028398158,-0.23470832,-5.367077,0.006524835987571427,nan,nan,nan,nan,nan,15.179684162139893,16.379684162139892,0.00041222572326660156,0.0,0.08683444653005207,0.0,-4.956239383662671,0.7189510510305679,0.07022174165069898,0.00848540079202362,-0.006640813602343506,0.0,0.0,0.0,0.0
25.288031578063965,0.02871339,-0.25033113,-5.3400607,0.006085598052854309,nan,nan,nan,nan,nan,15.27980089187622,16.47980089187622,0.0003528594970703125,0.0,0.15042999840931953,0.0,-4.9228903525023995,0.7200540720334957,0.043564230075967804,0.005746244425574305,-0.005866679383682922,0.0,0.0,0.0,0.0
25.388295888900757,0.02784141,-0.25496587,-5.3118773,0.005593829845545503,nan,nan,nan,nan,nan,15.380076885223389,16.580076885223388,0.0003802776336669922,0.0,0.20849408276437334,0.0,-4.890211789138041,0.7209485397777345,0.016571771660707498,0.0030551295526466305,-0.005195206366045534,0.0,0.0,0.0,0.0
25.488497734069824,0.026095241,-0.24812147,-5.2872686,0.004984385772774165,nan,nan,nan,nan,nan,15.480264663696289,16.68026466369629,0.0003745555877685547,0.0,0.2587067253041525,0.0,-4.858591250739367,0.721578962240099,-0.01400952377510967,0.0003309005638510933,-0.004430994059788376,0.0,0.0,0.0,0.0
25.587942838668823,0.02357538,-0.22921413,-5.260131,0.004266469547937475,nan,nan,nan,nan,nan,15.579788208007812,16.779788208007812,0.0003600120544433594,0.0,0.299010539364321,0.0,-4.828491828449609,0.7223149517835216,-0.048026993451102326,-0.002059012288381206,-0.0037141420758953093,0.0,0.0,0.0,0.0
25.687898635864258,0.030863337,-0.19431336,-5.228272,0.0035086593381570275,nan,nan,nan,nan,nan,15.679672956466675,16.879672956466674,0.0003502368927001953,0.0,0.32836356134236544,0.0,-4.799878250681267,0.7232185035630596,-0.08120020375284588,-0.0008622042854282086,-0.003158889745886847,0.0,0.0,0.0,0.0
25.787948846817017,0.03688254,-0.15933959,-5.191379,0.0024403406482444365,nan,nan,nan,nan,nan,15.779781341552734,16.979781341552734,0.0003800392150878906,0.0,0.3455340662730364,0.0,-4.773071245884995,0.7243144098949966,-0.10736130061073694,0.0024100916906973887,-0.0024763153255271814,0.0,0.0,0.0,0.0
25.88793182373047,0.040575035,-0.12006825,-5.1562414,0.0011816276457149374,nan,nan,nan,nan,nan,15.879738569259644,17.079738569259643,0.0003542900085449219,0.0,0.3498056460812244,0.0,-4.748423156937901,0.7257780458771844,-0.12751397621478244,0.00525899596724377,-0.001266075927307028,0.0,0.0,0.0,0.0
25.98798680305481,0.04319446,-0.07101323,-5.1208816,0.00027296035966284035,nan,nan,nan,nan,nan,15.979828596115112,17.17982859611511,0.00037860870361328125,0.0,0.3410344712156915,0.0,-4.726093993301227,0.7269177511470043,-0.14167636640414574,0.005603252731231366,-0.0002997474162041797,0.0,0.0,0.0,0.0
26.088241577148438,0.04810168,-0.02048785,-5.0886946,-0.00042228312404770686,nan,nan,nan,nan,nan,16.080025672912598,17.280025672912597,0.00033974647521972656,0.0,0.31950405483501165,0.0,-4.706307117474469,0.7281594049934093,-0.15199048901047418,0.006635625661592296,0.0005524091201140983,0.0,0.0,0.0,0.0
26.188188791275024,0.046533503,0.036496896,-5.0514655,-0.0006644229384894689,nan,nan,nan,nan,nan,16.180023670196533,17.380023670196532,0.0004017353057861328,0.0,0.2860997928726334,0.0,-4.689304188429865,0.7294194029223273,-0.15717887840404657,0.005127552841727275,0.0009124071792956427,0.0,0.0,0.0,0.0
26.288081169128418,0.041477595,0.09734354,-5.0112166,-0.0006989771137247791,nan,nan,nan,nan,nan,16.27990436553955,17.47990436553955,0.0003986358642578125,0.0,0.24209327863226654,0.0,-4.675216815324579,0.7308776608498455,-0.15780994975747542,0.0009590157937783168,0.000664559333205961,0.0,0.0,0.0,0.0
26.387917518615723,0.037900575,0.15084219,-4.9734254,-0.0008318505001207368,nan,nan,nan,nan,nan,16.37972593307495,17.57972593307495,0.00040078163146972656,0.0,0.18912153993114655,0.0,-4.66416026162489,0.7324496634938866,-0.15464499080000732,-0.0034469656352983133,0.0002276313990153148,0.0,0.0,0.0,0.0
26.488232135772705,0.035959765,0.20288591,-4.9341545,-0.0012679112795915583,nan,nan,nan,nan,nan,16.48006010055542,17.68006010055542,0.00042176246643066406,0.0,0.1288057812711519,0.0,-4.656195652699276,0.7339382741385854,-0.14211515275352415,-0.00521030222916833,0.00034774993771680265,0.0,0.0,0.0,0.0
26.588311195373535,0.03480186,0.24560127,-4.8993764,-0.0013729192083607213,nan,nan,nan,nan,nan,16.58008909225464,17.780089092254638,0.0004494190216064453,0.0,0.06386176571869948,0.0,-4.651471969048137,0.7352739218168789,-0.12499033361613154,-0.005571162243220343,0.0004574623098100553,0.0,0.0,0.0,0.0
26.688125610351562,0.030434603,0.2821308,-4.860481,-0.0011900245014051652,nan,nan,nan,nan,nan,16.679991483688354,17.879991483688354,0.0004200935363769531,0.0,-0.003377438638940959,0.0,-4.6500040740799,0.73661309353463,-0.1027495987126136,-0.006199997599018865,0.00029248340541423166,0.0,0.0,0.0,0.0
26.788102388381958,0.026725799,0.3057257,-4.830158,-0.001065739124338265,nan,nan,nan,nan,nan,16.77993369102478,17.97993369102478,0.0005013942718505859,0.0,-0.07051743444620286,0.0,-4.651798989283891,0.7376787935093673,-0.07721296448550444,-0.007200287924589367,3.575230924341941e-05,0.0,0.0,0.0,0.0
26.88803482055664,0.022813106,0.32356596,-4.7985253,-0.0009327359689731904,nan,nan,nan,nan,nan,16.879913568496704,18.079913568496703,0.00048804283142089844,0.0,-0.13505651080585984,0.0,-4.656843717527892,0.7383281291628508,-0.048961688680732175,-0.007678303336890127,-6.437774759029755e-05,0.0,0.0,0.0,0.0
26.98890471458435,0.018458795,0.33150867,-4.7673135,-0.0009773840942751064,nan,nan,nan,nan,nan,16.98071813583374,18.18071813583374,0.00047588348388671875,0.0,-0.19502904586043376,0.0,-4.665172268124948,0.7390600451384853,-0.017664803371714742,-0.007967723554470606,-9.686290814013077e-06,0.0,0.0,0.0,0.0
27.088562488555908,0.012910394,0.32622615,-4.738818,-0.0010657965166366024,nan,nan,nan,nan,nan,17.080350160598755,18.280350160598754,0.0004467964172363281,0.0,-0.24705645809350044,0.0,-4.676525782394089,0.7398292352896394,0.010235267884433283,-0.008795589728924344,7.69744641527839e-05,0.0,0.0,0.0,0.0
27.188222646713257,0.011996503,0.30446023,-4.7130804,-0.0012940255672866594,nan,nan,nan,nan,nan,17.180031299591064,18.380031299591064,0.00039696693420410156,0.0,-0.28996463431984904,0.0,-4.690885112441308,0.7404161734513933,0.04376197403261077,-0.00799771745733512,0.0004819798940014223,0.0,0.0,0.0,0.0
27.288087129592896,0.011289012,0.27112943,-4.688796,-0.0014954558274806531,nan,nan,nan,nan,nan,17.27992844581604,18.47992844581604,0.0004096031188964844,0.0,-0.3221944985002138,0.0,-4.708152536592414,0.7408561679920559,0.0756332196779286,-0.005543224241518965,0.0009642487884352196,0.0,0.0,0.0,0.0
27.388006448745728,0.010898016,0.23193191,-4.668928,-0.0015246861978197163,nan,nan,nan,nan,nan,17.379864931106567,18.579864931106567,0.0004985332489013672,0.0,-0.34244958263664627,0.0,-4.728147646446892,0.7413018756582096,0.1028979022058706,-0.0033699098983468114,0.0011850577604667636,0.0,0.0,0.0,0.0
27.488130569458008,0.011273347,0.18068324,-4.6513014,-0.0016978476007576682,nan,nan,nan,nan,nan,17.480010986328125,18.680010986328124,0.0006825923919677734,0.0,-0.3499633163345803,0.0,-4.750727514231787,0.741742885587593,0.12624847485492466,-0.0008869920498892518,0.0013862772799903445,0.0,0.0,0.0,0.0
27.58808445930481,0.01095849,0.116897,-4.6399965,-0.0022402454747509487,nan,nan,nan,nan,nan,17.579912424087524,18.779912424087524,0.0003566741943359375,0.0,-0.3444289599330728,0.0,-4.775578056284274,0.7420218087707519,0.14706608127036214,0.0006829330717059715,0.0016979032098904407,0.0,0.0,0.0,0.0
27.688138008117676,0.0057492517,0.057910793,-4.6311874,-0.002791797910727936,nan,nan,nan,nan,nan,17.68010425567627,18.88010425567627,0.00040721893310546875,0.0,-0.326015037545679,0.0,-4.802600963116151,0.7422338709016615,0.1602352075427495,-0.00016533491218051575,0.002238040788325919,0.0,0.0,0.0,0.0
27.788163900375366,-0.000541135,-0.0024862313,-4.6237183,-0.0028644053035969726,nan,nan,nan,nan,nan,17.779990196228027,18.979990196228027,0.00040149688720703125,0.0,-0.2955183284025986,0.0,-4.8313833074812695,0.7425350657159177,0.16476800319694457,-0.002449365959572509,0.002638248433147282,0.0,0.0,0.0,0.0
27.887919664382935,-0.0044756457,-0.0685571,-4.6176453,-0.00221083442005892,nan,nan,nan,nan,nan,17.879751682281494,19.079751682281493,0.0005087852478027344,0.0,-0.25409362781704076,0.0,-4.861697713582277,0.7428779870956375,0.16359067535272667,-0.003972756063488958,0.0024604923746955375,0.0,0.0,0.0,0.0
27.988827228546143,-0.0020594944,-0.13397042,-4.613109,-0.0009444783414778264,nan,nan,nan,nan,nan,17.98058247566223,19.18058247566223,0.00042128562927246094,0.0,-0.20265694682327942,0.0,-4.893641871863941,0.7433101979109022,0.15764534691140922,-0.0018914571169227285,0.0013964943122898577,0.0,0.0,0.0,0.0
28.08819818496704,0.0048369113,-0.19112048,-4.6120486,0.0003364700024494245,nan,nan,nan,nan,nan,18.08002209663391,19.28002209663391,0.00035572052001953125,0.0,-0.14440173911245288,0.0,-4.92613548819261,0.7435704859090432,0.14640063510670573,0.002827895923691374,-0.00023619481037175829,0.0,0.0,0.0,0.0
28.18815851211548,0.014228274,-0.24515657,-4.6159925,0.002187519297694073,nan,nan,nan,nan,nan,18.179970264434814,19.379970264434814,0.0003933906555175781,0.0,-0.08049125939463868,0.0,-4.959481948402682,0.7435864542567329,0.1332857368929991,0.008062931833026935,-0.0022240774266102385,0.0,0.0,0.0,0.0
28.288365602493286,0.025623806,-0.29251188,-4.6293597,0.0041493860868080795,nan,nan,nan,nan,nan,18.280818939208984,19.480818939208984,0.0004322528839111328,0.0,-0.012975904332559466,0.0,-4.993510932465866,0.7430809645715208,0.1146755476316781,0.013251299768233102,-0.004539951679992693,0.0,0.0,0.0,0.0
28.38805079460144,0.03507364,-0.32276142,-4.6443114,0.005461980058026346,nan,nan,nan,nan,nan,18.37991738319397,19.57991738319397,0.000518798828125,0.0,0.053861267534796864,0.0,-5.0270111926260315,0.7421050199989799,0.08931888904918046,0.017083726220681425,-0.006388292057916539,0.0,0.0,0.0,0.0
28.488318920135498,0.044115745,-0.34818646,-4.661203,0.006357216178540542,nan,nan,nan,nan,nan,18.480098962783813,19.680098962783813,0.0003955364227294922,0.0,0.11941668192918531,0.0,-5.060624726205014,0.741347147967569,0.06024182771868745,0.017830779164932285,-0.007280580992890588,0.0,0.0,0.0,0.0
28.588257789611816,0.04969228,-0.3647984,-4.67419,0.00667230903789106,nan,nan,nan,nan,nan,18.580042839050293,19.780042839050292,0.00038242340087890625,0.0,0.18036871781833505,0.0,-5.093592677239801,0.7405520309886569,0.029113266735970054,0.015577084221454155,-0.007256244513019321,0.0,0.0,0.0,0.0
28.68784260749817,0.050059788,-0.37305647,-4.6935925,0.006598787140377378,nan,nan,nan,nan,nan,18.67972755432129,19.87972755432129,0.0004887580871582031,0.0,0.2344776165514889,0.0,-5.125605922470389,0.7396703973362293,0.0006206309551515086,0.010858923133191577,-0.00665405692781714,0.0,0.0,0.0,0.0
28.788197994232178,0.04811227,-0.37344187,-4.707004,0.006194668401963935,nan,nan,nan,nan,nan,18.78001379966736,19.980013799667358,0.0004146099090576172,0.0,0.28014894515783845,0.0,-5.156635818289324,0.7387845018351605,-0.02722121667363105,0.004270208984448781,-0.005713289590097702,0.0,0.0,0.0,0.0
28.887819290161133,0.04706739,-0.3638758,-4.7204175,0.005516649026847759,nan,nan,nan,nan,nan,18.879613876342773,20.079613876342773,0.00042700767517089844,0.0,0.31512056434055846,0.0,-5.185998256463248,0.7385239475821134,-0.0502098836354236,-0.0014980421784729122,-0.004754065342918933,0.0,0.0,0.0,0.0
28.98771905899048,0.049510144,-0.3421907,-4.739456,0.005364688197802767,nan,nan,nan,nan,nan,18.97948431968689,20.17948431968689,0.00037550926208496094,0.0,0.33849088054521265,0.0,-5.213710378210335,0.7377697356799778,-0.07519769032264145,-0.0040689551297387,-0.004410317356911637,0.0,0.0,0.0,0.0
29.088287353515625,0.044660605,-0.3115295,-4.756276,0.004989241508282019,nan,nan,nan,nan,nan,19.08011484146118,20.28011484146118,0.0005857944488525391,0.0,0.34931422563843817,0.0,-5.239619808784645,0.7371306943156876,-0.09662048618222628,-0.007294290724169949,-0.004178444434274812,0.0,0.0,0.0,0.0
29.18793225288391,0.03894939,-0.27408755,-4.774434,0.004359067360971979,nan,nan,nan,nan,nan,19.1797297000885,20.3797297000885,0.00039196014404296875,0.0,0.34704782610940454,0.0,-5.263037134105909,0.7362639796660695,-0.11691385219681479,-0.01078252545218403,-0.0039043588742011617,0.0,0.0,0.0,0.0
29.288071393966675,0.03392989,-0.22548538,-4.802466,0.003318055103994272,nan,nan,nan,nan,nan,19.280001878738403,20.480001878738403,0.00047206878662109375,0.0,0.33180835804745545,0.0,-5.284147321317571,0.7352395097296182,-0.13379477727494138,-0.013146092325311444,-0.003522836346957508,0.0,0.0,0.0,0.0
29.387727737426758,0.03152663,-0.17964695,-4.831201,0.0021449483560413707,nan,nan,nan,nan,nan,19.37948203086853,20.57948203086853,0.0004382133483886719,0.0,0.30440347073820223,0.0,-5.302455295707957,0.7337130913568692,-0.1479774046434279,-0.01244350234844223,-0.002690416673061231,0.0,0.0,0.0,0.0
29.48793387413025,0.031155659,-0.12756103,-4.8601265,0.0009319203479807667,nan,nan,nan,nan,nan,19.479708671569824,20.679708671569824,0.00035452842712402344,0.0,0.2654448979767314,0.0,-5.318074054632675,0.7325053580482283,-0.15662523555526947,-0.009426742823398067,-0.0016750384934716442,0.0,0.0,0.0,0.0
29.58807349205017,0.03451394,-0.072138414,-4.890782,0.0007155939312106727,nan,nan,nan,nan,nan,19.579970598220825,20.779970598220824,0.0005261898040771484,0.0,0.21653241558765055,0.0,-5.330713484073051,0.7313632479833945,-0.15907144235656615,-0.005465391302316641,-0.0010741765184605373,0.0,0.0,0.0,0.0
29.68803882598877,0.038581032,-0.01818586,-4.916667,0.00044383790148719727,nan,nan,nan,nan,nan,19.67995810508728,20.87995810508728,0.0003826618194580078,0.0,0.15967506221364527,0.0,-5.340227172302731,0.7302448357346586,-0.15609795542631363,-0.0010356534753135623,-0.0006305621899649048,0.0,0.0,0.0,0.0
