time,x,y,z,yaw,platform,trajectory,traj_double,traj_short,traj_spin,traj_time,ref_time,comptime,x_ref,y_ref,yaw_ref,z_ref,throttle_input,p_input,q_input,r_input,cbf_term_pitch_cbf,cbf_term_roll_cbf,cbf_term_thrust_cbf,cbf_term_yaw_cbf
10.054138660430908,-0.13658646,0.040612582,-2.5317025,0.009358302425832726,SIM,HOVER,NormSpd,Not Short,NoSpin,0.04427361488342285,1.2442736148834228,0.0009524822235107422,1.0,1.0,0.0,-4.0,0.7719836943604587,0.015920000000000007,-0.09222378433269307,0.00255064982304368,5.131647103371189,-9.723229207628583,0.0,0.0
10.149445533752441,-0.14092036,0.034729373,-2.5455346,0.010349950066993208,nan,nan,nan,nan,nan,0.13959026336669922,1.3395902633666992,0.0003581047058105469,1.0,1.0,0.0,-4.0,0.7893635022831254,0.08372939659302685,-0.15343421962921402,0.02280318234750807,3.2772421712533317,-6.643823247005973,-17.829672102441215,0.0
10.249444723129272,-0.14784634,0.03129703,-2.570993,0.012911048265886575,nan,nan,nan,nan,nan,0.2395622730255127,1.4395622730255127,0.0003647804260253906,1.0,1.0,0.0,-4.0,0.7952766936431144,0.15221770542299312,-0.21525749791858165,0.033118411367938985,1.273051229228459,-3.70894652336064,0.0,0.0
10.349440813064575,-0.14973234,0.031944443,-2.6168106,0.017215516470452177,nan,nan,nan,nan,nan,0.339587926864624,1.539587926864624,0.00035953521728515625,1.0,1.0,0.0,-4.0,0.7867182573604233,0.21415730427648189,-0.24782669573396449,0.03171871066777659,0.0,-0.5275305371009321,0.0,0.0
10.449418783187866,-0.14289258,0.0363157,-2.6727762,0.021843914125497545,nan,nan,nan,nan,nan,0.4395592212677002,1.6395592212677002,0.0003516674041748047,1.0,1.0,0.0,-4.0,0.7745107456105946,0.19130672912800553,-0.18632277996954158,0.013461920538117535,0.0,0.0,0.0,0.0
10.549448728561401,-0.12697822,0.044532895,-2.7383878,0.026628336278740408,nan,nan,nan,nan,nan,0.5396168231964111,1.739616823196411,0.0003597736358642578,1.0,1.0,0.0,-4.0,0.7636569010052946,0.11827254332713931,-0.10832689896542248,-0.006057231584778237,0.0,0.0,1.1494655039000161,0.0
10.649346828460693,-0.099071205,0.05298216,-2.8155313,0.031022004410555096,nan,nan,nan,nan,nan,0.6394968032836914,1.8394968032836914,0.00037479400634765625,1.0,1.0,0.0,-4.0,0.7537133114985454,0.05125798023584497,-0.03597008453730492,-0.02107480266396237,0.0,0.0,3.0088270978180347,0.0
10.749238729476929,-0.06006651,0.07104543,-2.8861,0.035061526273982846,nan,nan,nan,nan,nan,0.7393734455108643,1.9393734455108642,0.0004954338073730469,1.0,1.0,0.0,-4.0,0.7446076815092135,-0.006318190701066311,0.02951121763883703,-0.031577709530088593,0.0,0.0,1.5518675343249813,0.0
10.849258184432983,-0.0043666456,0.10610559,-2.9600937,0.03940710444643811,nan,nan,nan,nan,nan,0.8393893241882324,2.0393893241882326,0.0003540515899658203,1.0,1.0,0.0,-4.0,0.7366374752687235,-0.05597742616137889,0.08691329793807225,-0.037829199320891425,0.0,0.0,0.10842629000322912,0.0
10.950120449066162,0.057664014,0.1519797,-3.0292315,0.043532325184687366,nan,nan,nan,nan,nan,0.9402968883514404,2.1402968883514406,0.0003676414489746094,1.0,1.0,0.0,-4.0,0.7309634164000118,-0.09800527909388546,0.1328549667143854,-0.04035818217967949,0.0,0.0,0.0,0.0
11.049630641937256,0.13237065,0.21109551,-3.1092386,0.04763459938278872,nan,nan,nan,nan,nan,1.0398266315460205,2.2398266315460207,0.00034737586975097656,1.0,1.0,0.0,-4.0,0.7264333348403849,-0.12703647929131046,0.16385384176751014,-0.04023052113286302,0.0,0.0,0.0,0.0
11.149500131607056,0.21229126,0.27093798,-3.1844223,0.05040408971851404,nan,nan,nan,nan,nan,1.1396496295928955,2.3396496295928957,0.0003750324249267578,1.0,1.0,0.0,-4.0,0.722396639301649,-0.14405733804931642,0.18468637329257329,-0.038592612954379366,0.0,0.0,0.0,0.0
11.249534606933594,0.3077325,0.34042177,-3.266117,0.05206734549742039,nan,nan,nan,nan,nan,1.2397434711456299,2.43974347114563,0.0003948211669921875,1.0,1.0,0.0,-4.0,0.7189863146417748,-0.14887067009032906,0.19567928697800072,-0.03622165407134304,0.0,0.0,0.0,0.0
11.349470615386963,0.39680368,0.4071223,-3.3417764,0.05269066307229357,nan,nan,nan,nan,nan,1.3396177291870117,2.539617729187012,0.0003528594970703125,1.0,1.0,0.0,-4.0,0.7161581798120307,-0.14418428104148862,0.19705109942301,-0.03388816793185264,0.0,0.0,0.0,0.0
11.449585676193237,0.4908315,0.4795379,-3.4233658,0.052851194736709316,nan,nan,nan,nan,nan,1.4397246837615967,2.639724683761597,0.0003445148468017578,1.0,1.0,0.0,-4.0,0.7137080830784052,-0.13283426970539608,0.1861617049613938,-0.03273830384820579,0.0,0.0,0.0,0.0
11.549394845962524,0.5766286,0.54311675,-3.498053,0.05203334555866206,nan,nan,nan,nan,nan,1.5396111011505127,2.739611101150513,0.0003516674041748047,1.0,1.0,0.0,-4.0,0.7115757344450468,-0.1142978289199086,0.1676593140474963,-0.03247644369922035,0.0,0.0,0.0,0.0
11.649401426315308,0.6675745,0.610197,-3.5696585,0.05095896770801246,nan,nan,nan,nan,nan,1.6395459175109863,2.8395459175109865,0.0003819465637207031,1.0,1.0,0.0,-4.0,0.7101405947964924,-0.0938461373246311,0.14461358264462282,-0.03296190302910192,0.0,0.0,0.0,0.0
11.749361038208008,0.74360394,0.6653697,-3.6316483,0.04997380625172422,nan,nan,nan,nan,nan,1.7395122051239014,2.9395122051239015,0.0004000663757324219,1.0,1.0,0.0,-4.0,0.7091336130434233,-0.07080199474580938,0.1162950124006973,-0.03425510539334064,0.0,0.0,0.0,0.0
11.849610567092896,0.815777,0.72298294,-3.6955478,0.04936740463393916,nan,nan,nan,nan,nan,1.8397328853607178,3.039732885360718,0.00038886070251464844,1.0,1.0,0.0,-4.0,0.7084127392532684,-0.048879156553009825,0.0839773635741596,-0.036153763798134314,0.0,0.0,0.0,0.0
11.949735164642334,0.87329364,0.775086,-3.751218,0.049297849018551776,nan,nan,nan,nan,nan,1.9398932456970215,3.1398932456970217,0.0003447532653808594,1.0,1.0,0.0,-4.0,0.7079923440892916,-0.032312009023600145,0.05131302894575748,-0.038409005473219376,0.0,0.0,0.0,0.0
12.049617052078247,0.9278696,0.8284813,-3.8065042,0.04913348358181071,nan,nan,nan,nan,nan,2.0398402214050293,3.2398402214050295,0.0003447532653808594,1.0,1.0,0.0,-4.0,0.7079827012890071,-0.018082018944046388,0.020173813206219162,-0.04037817544515037,0.0,0.0,0.0,0.0
12.149491310119629,0.9634282,0.86552423,-3.8416605,0.0485569876670885,nan,nan,nan,nan,nan,2.139643907546997,3.3396439075469972,0.0003573894500732422,1.0,1.0,0.0,-4.0,0.7085084133916141,-0.0030182875472096735,-0.009250614870462233,-0.04163211143339541,0.0,0.0,0.0,0.0
12.249947309494019,0.99493366,0.89737946,-3.8741782,0.04751694146571219,nan,nan,nan,nan,nan,2.240386962890625,3.440386962890625,0.0007355213165283203,1.0,1.0,0.0,-4.0,0.7094094264412357,0.012267149150528784,-0.03516240618469866,-0.04188787661630465,0.0,0.0,0.0,0.0
12.349533557891846,1.0186487,0.9239323,-3.90495,0.0460947638317511,nan,nan,nan,nan,nan,2.3396902084350586,3.5396902084350588,0.0003523826599121094,1.0,1.0,0.0,-4.0,0.7106270867492345,0.027299365018639513,-0.05734641406777231,-0.041124388531235824,0.0,0.0,0.0,0.0
12.449468851089478,1.0305537,0.944263,-3.9329634,0.044545934063957904,nan,nan,nan,nan,nan,2.439605951309204,3.6396059513092043,0.00033855438232421875,1.0,1.0,0.0,-4.0,0.7117448968121922,0.03802148772036591,-0.07551123079804423,-0.039784686136372004,0.0,0.0,0.0,0.0
12.549567222595215,1.0368818,0.9568926,-3.9542754,0.04294137770411564,nan,nan,nan,nan,nan,2.539793014526367,3.7397930145263674,0.0003418922424316406,1.0,1.0,0.0,-4.0,0.7130328677122244,0.045858010271730414,-0.08757315561326588,-0.037882875892189416,0.0,0.0,0.0,0.0
12.649335145950317,1.0358664,0.9547101,-3.9700208,0.0412672286988585,nan,nan,nan,nan,nan,2.639460325241089,3.839460325241089,0.0003719329833984375,1.0,1.0,0.0,-4.0,0.7143927014024902,0.054587768557092464,-0.09415737380121372,-0.035480007693682605,0.0,0.0,0.0,0.0
12.74950909614563,1.0281199,0.94910663,-3.98662,0.039488908572452894,nan,nan,nan,nan,nan,2.739685535430908,3.9396855354309084,0.0004057884216308594,1.0,1.0,0.0,-4.0,0.7156907589759196,0.061451434042283586,-0.0963057458118473,-0.032961348687644006,0.0,0.0,0.0,0.0
12.849596738815308,1.0188075,0.9406715,-4.0011787,0.036648892465924,nan,nan,nan,nan,nan,2.839738368988037,4.039738368988037,0.0003476142883300781,1.0,1.0,0.0,-4.0,0.7167286834505319,0.06287479217353671,-0.09379478534086029,-0.030106689050778915,0.0,0.0,0.0,0.0
12.949636936187744,1.0113637,0.9296979,-4.012156,0.040395829009959035,nan,nan,nan,nan,nan,2.9398720264434814,4.139872026443482,0.0003581047058105469,1.0,1.0,0.0,-4.0,0.7178760245095012,0.06153673622093766,-0.08485224727803228,-0.030572279926404728,0.0,0.0,0.0,0.0
13.049500703811646,1.0057417,0.9129826,-4.0205793,0.04464700697358838,nan,nan,nan,nan,nan,3.039679765701294,4.239679765701294,0.00035953521728515625,1.0,1.0,0.0,-4.0,0.7189282733203413,0.0600262653831917,-0.07153145013905891,-0.034681991260725596,0.0,0.0,0.0,0.0
13.149290084838867,1.0038751,0.9002391,-4.031688,0.047019939910509,nan,nan,nan,nan,nan,3.139432430267334,4.339432430267334,0.0004112720489501953,1.0,1.0,0.0,-4.0,0.7195679107973892,0.05529411885220401,-0.05623163669534246,-0.037259191729836084,0.0,0.0,0.0,0.0
13.249316453933716,0.9997688,0.88681835,-4.0420675,0.04798457158970605,nan,nan,nan,nan,nan,3.23943829536438,4.43943829536438,0.0003504753112792969,1.0,1.0,0.0,-4.0,0.720149957152572,0.04597068598643993,-0.039889271639358376,-0.03923132823832432,0.0,0.0,0.0,0.0
13.349669694900513,0.994265,0.87521577,-4.048748,0.044282057867313505,nan,nan,nan,nan,nan,3.339853048324585,4.539853048324585,0.00034546852111816406,1.0,1.0,0.0,-4.0,0.720875855136707,0.034991412606548436,-0.027782869390075196,-0.03752927708164376,0.0,0.0,0.0,0.0
13.450042247772217,0.9910465,0.8660842,-4.0541606,0.03964102432728326,nan,nan,nan,nan,nan,3.4404778480529785,4.640477848052979,0.0003609657287597656,1.0,1.0,0.0,-4.0,0.721645015302933,0.02355812016012495,-0.016637749081162664,-0.03435095766874473,0.0,0.0,0.0,0.0
13.549551010131836,0.99100983,0.8619205,-4.062353,0.03481718359310006,nan,nan,nan,nan,nan,3.539780855178833,4.739780855178833,0.00034880638122558594,1.0,1.0,0.0,-4.0,0.7221799045999997,0.010584370422369737,-0.00549695929653571,-0.03046760655437041,0.0,0.0,0.0,0.0
13.649459838867188,0.9893593,0.86146975,-4.0650263,0.030965012144715778,nan,nan,nan,nan,nan,3.63961124420166,4.83961124420166,0.0003490447998046875,1.0,1.0,0.0,-4.0,0.7227497865100475,-0.001492531275476655,0.002951348324378093,-0.027261342123264056,0.0,0.0,0.0,0.0
13.749450922012329,0.9872762,0.86218476,-4.0678163,0.0275196634266395,nan,nan,nan,nan,nan,3.739600658416748,4.939600658416748,0.00037384033203125,1.0,1.0,0.0,-4.0,0.7234275111644225,-0.011761602770811622,0.008207091066457256,-0.024234313481009673,0.0,0.0,0.0,0.0
13.849336862564087,0.98582786,0.8636223,-4.070876,0.02551511377844384,nan,nan,nan,nan,nan,3.8394854068756104,5.0394854068756105,0.0003616809844970703,1.0,1.0,0.0,-4.0,0.7239136962167021,-0.01853938756457207,0.011725139971450254,-0.022220842701778817,0.0,0.0,0.0,0.0
13.949485063552856,0.9849128,0.86679584,-4.0726686,0.024208217676570762,nan,nan,nan,nan,nan,3.9396467208862305,5.139646720886231,0.0003592967987060547,1.0,1.0,0.0,-4.0,0.7244652381492699,-0.02322405338598542,0.013793175706918476,-0.02090437913685228,0.0,0.0,0.0,0.0
14.049329996109009,0.98639977,0.8753926,-4.0681434,0.022862712560432423,nan,nan,nan,nan,nan,4.039492130279541,5.239492130279541,0.0004246234893798828,1.0,1.0,0.0,-4.0,0.7252132151510743,-0.02806178085447908,0.014956418343475216,-0.01971831176748202,0.0,0.0,0.0,0.0
14.149254322052002,0.9895267,0.88743913,-4.0593386,0.021447921113700964,nan,nan,nan,nan,nan,4.139394760131836,5.339394760131836,0.00039267539978027344,1.0,1.0,0.0,-4.0,0.72613251824216,-0.03225467351569726,0.015742766049819137,-0.01853155881076996,0.0,0.0,0.0,0.0
14.249361991882324,0.9928859,0.90325963,-4.0512514,0.018464526708509177,nan,nan,nan,nan,nan,4.239482641220093,5.439482641220093,0.0004527568817138672,1.0,1.0,0.0,-4.0,0.7269916029698911,-0.03511960033840543,0.01624964021113378,-0.01644227113882903,0.0,0.0,0.0,0.0
14.349640607833862,0.9963282,0.92175066,-4.045058,0.014761383693029689,nan,nan,nan,nan,nan,4.339788436889648,5.539788436889649,0.0003941059112548828,1.0,1.0,0.0,-4.0,0.727693264070124,-0.03818477591518362,0.016338282891468787,-0.013388090243337309,0.0,0.0,0.0,0.0
14.449633836746216,0.99974245,0.94016063,-4.0411186,0.010702786512675741,nan,nan,nan,nan,nan,4.439886569976807,5.639886569976807,0.0003745555877685547,1.0,1.0,0.0,-4.0,0.7280776478929394,-0.03727272940781452,0.01586909262076937,-0.009958288887962163,0.0,0.0,0.0,0.0
14.549552917480469,1.0029249,0.9589253,-4.02945,0.007998861916291048,nan,nan,nan,nan,nan,4.539699554443359,5.7396995544433596,0.0003941059112548828,1.0,1.0,0.0,-4.0,0.7286774527681779,-0.0343951997926261,0.014799818976656687,-0.007373158387762065,0.0,0.0,0.0,0.0
14.649625062942505,1.0061424,0.97420514,-4.0253477,0.006136754409321276,nan,nan,nan,nan,nan,4.639771938323975,5.839771938323975,0.0004999637603759766,1.0,1.0,0.0,-4.0,0.7290386785681724,-0.029289930203467957,0.01279713906884969,-0.005435088529267515,0.0,0.0,0.0,0.0
14.749600648880005,1.0103823,0.98430717,-4.0224657,0.004670293553068454,nan,nan,nan,nan,nan,4.739746332168579,5.939746332168579,0.00036144256591796875,1.0,1.0,0.0,-4.0,0.7290027585537463,-0.021878136408061216,0.010568747603607589,-0.004223198904855288,0.0,0.0,0.0,0.0
14.849703073501587,1.0149971,0.9885821,-4.018984,0.003468215108454825,nan,nan,nan,nan,nan,4.839869976043701,6.039869976043701,0.00040531158447265625,1.0,1.0,0.0,-4.0,0.7291057534130403,-0.009983257004566677,0.008867456794886423,-0.0031444486217312947,0.0,0.0,0.0,0.0
14.949596405029297,1.020884,0.9918432,-4.0129614,0.003325886285541643,nan,nan,nan,nan,nan,4.939767360687256,6.139767360687256,0.0003445148468017578,1.0,1.0,0.0,-4.0,0.729406900614655,0.0002710787412582184,0.007700430416781871,-0.0027849596710428385,0.0,0.0,0.0,0.0
15.04944109916687,1.0320785,0.9930722,-4.0094995,0.0031374036259862806,nan,nan,nan,nan,nan,5.039582014083862,6.2395820140838625,0.0009057521820068359,1.0,1.0,0.0,-4.0,0.7295071900073565,0.008188647224040701,0.008047886456121577,-0.0027385080222197167,0.0,0.0,0.0,0.0
15.149473905563354,1.0401343,0.9949199,-4.010477,0.002578661546328521,nan,nan,nan,nan,nan,5.139615774154663,6.339615774154663,0.0004658699035644531,1.0,1.0,0.0,-4.0,0.7293285591415288,0.012852661120534082,0.008571163014828097,-0.002357592652802818,0.0,0.0,0.0,0.0
15.249908447265625,1.0467329,0.9951054,-4.0114207,0.002297177110363652,nan,nan,nan,nan,nan,5.240071535110474,6.440071535110474,0.0003514289855957031,1.0,1.0,0.0,-4.0,0.7290007414757708,0.015425735946198242,0.00708297285546031,-0.002010903173247531,0.0,0.0,0.0,0.0
15.349534034729004,1.0533051,0.99336565,-4.0111737,0.0022636726467022646,nan,nan,nan,nan,nan,5.33976936340332,6.5397693634033205,0.00035262107849121094,1.0,1.0,0.0,-4.0,0.7289603078957153,0.01793587974150542,0.005535368151853945,-0.001962837094451854,0.0,0.0,0.0,0.0
15.449625015258789,1.056937,0.9914737,-4.0101895,0.002380121395828784,nan,nan,nan,nan,nan,5.4398579597473145,6.639857959747315,0.0009810924530029297,1.0,1.0,0.0,-4.0,0.728938453111002,0.019145460498189673,0.002983028770316657,-0.0020924915811672156,0.0,0.0,0.0,0.0
15.549396514892578,1.0584416,0.9872562,-4.010201,0.0017925554960661198,nan,nan,nan,nan,nan,5.5395708084106445,6.739570808410645,0.00034236907958984375,1.0,1.0,0.0,-4.0,0.7288267333162348,0.019474860164798255,8.805115729815845e-06,-0.0016503478344348699,0.0,0.0,0.0,0.0
15.649397611618042,1.0574703,0.9835073,-4.0129023,0.001928817229119508,nan,nan,nan,nan,nan,5.639551639556885,6.839551639556885,0.0004680156707763672,1.0,1.0,0.0,-4.0,0.7285612867453993,0.018355026267915756,-0.003354641193239399,-0.0014724470602186454,0.0,0.0,0.0,0.0
15.74951720237732,1.0558357,0.9779852,-4.017151,0.0025706437115907573,nan,nan,nan,nan,nan,5.739648818969727,6.939648818969727,0.0003619194030761719,1.0,1.0,0.0,-4.0,0.7282367767648186,0.016082401473321368,-0.006550955616300103,-0.0019260490128873114,0.0,0.0,0.0,0.0
15.849614143371582,1.0552475,0.96678495,-4.0229383,0.0030677686372447372,nan,nan,nan,nan,nan,5.839766979217529,7.0397669792175295,0.0003573894500732422,1.0,1.0,0.0,-4.0,0.7278147754046574,0.01680574543109433,-0.008143268828204339,-0.00233581429066133,0.0,0.0,0.0,0.0
15.949586629867554,1.0561613,0.9574444,-4.0233254,0.0038708406684841708,nan,nan,nan,nan,nan,5.939732313156128,7.139732313156128,0.00037598609924316406,1.0,1.0,0.0,-4.0,0.7276635287774341,0.01664944644524422,-0.007958885587336942,-0.002918735894319563,0.0,0.0,0.0,0.0
16.049617767333984,1.0551237,0.94818485,-4.0285625,0.004465493988163148,nan,nan,nan,nan,nan,6.0397725105285645,7.239772510528565,0.0003750324249267578,1.0,1.0,0.0,-4.0,0.7273892984436942,0.01561812246786487,-0.007556496117942716,-0.003484657261370961,0.0,0.0,0.0,0.0
16.14962601661682,1.0557953,0.9420191,-4.0330763,0.004555232132920944,nan,nan,nan,nan,nan,6.139771223068237,7.3397712230682375,0.00036334991455078125,1.0,1.0,0.0,-4.0,0.7270635308085699,0.012948128604758134,-0.006660437672064749,-0.0037141950278677905,0.0,0.0,0.0,0.0
16.249533891677856,1.0587846,0.9379407,-4.0324926,0.00436449956349554,nan,nan,nan,nan,nan,6.2396769523620605,7.439676952362061,0.00039315223693847656,1.0,1.0,0.0,-4.0,0.7270014131833438,0.008254842991468036,-0.0037642309283217974,-0.003645744608037614,0.0,0.0,0.0,0.0
16.349159955978394,1.0632223,0.9360704,-4.024765,0.004158804701268821,nan,nan,nan,nan,nan,6.339337587356567,7.539337587356568,0.00042629241943359375,1.0,1.0,0.0,-4.0,0.7277311503182018,0.003155628732253302,0.00048671673325432005,-0.0035863083047956434,0.0,0.0,0.0,0.0
16.44989776611328,1.0617342,0.93358886,-4.016018,0.003861293239393798,nan,nan,nan,nan,nan,6.440171480178833,7.640171480178833,0.00045228004455566406,1.0,1.0,0.0,-4.0,0.7283625352244327,-0.0006963714153943265,0.0020897269196802704,-0.0034072233062765428,0.0,0.0,0.0,0.0
16.54945421218872,1.0555484,0.93117326,-4.0079775,0.0032481417785430455,nan,nan,nan,nan,nan,6.53961443901062,7.73961443901062,0.0004611015319824219,1.0,1.0,0.0,-4.0,0.7288924546804447,-0.0033927740406060093,0.0006895131874000618,-0.002911537092652727,0.0,0.0,0.0,0.0
16.649596452713013,1.0518423,0.92783254,-3.998357,0.003211690813960922,nan,nan,nan,nan,nan,6.639737844467163,7.839737844467163,0.0003867149353027344,1.0,1.0,0.0,-4.0,0.7292928943925618,-0.004521404444947714,-0.0018597421248053075,-0.0026428440431132036,0.0,0.0,0.0,0.0
16.749881982803345,1.0501344,0.9244892,-3.9896884,0.0035707062763889377,nan,nan,nan,nan,nan,6.740128040313721,7.940128040313721,0.0005004405975341797,1.0,1.0,0.0,-4.0,0.7297727013943848,-0.004490306634281054,-0.001819657739082406,-0.0028747730362963255,0.0,0.0,0.0,0.0
16.849607706069946,1.047236,0.92176986,-3.9841487,0.0038147799666849776,nan,nan,nan,nan,nan,6.839759826660156,8.039759826660156,0.0003898143768310547,1.0,1.0,0.0,-4.0,0.7300571668456046,-0.004384336851141325,-0.002002261254525659,-0.0031523091660068995,0.0,0.0,0.0,0.0
16.949411392211914,1.0419197,0.91841805,-3.9756653,0.0035520602036807052,nan,nan,nan,nan,nan,6.939554452896118,8.139554452896117,0.0004000663757324219,1.0,1.0,0.0,-4.0,0.7302986649710778,-0.0033811038605862397,-0.0034537440691224676,-0.0030780335640628272,0.0,0.0,0.0,0.0
17.049320459365845,1.036703,0.9156938,-3.979336,0.0029627389367250885,nan,nan,nan,nan,nan,7.039477825164795,8.239477825164794,0.0004277229309082031,1.0,1.0,0.0,-4.0,0.7299896759557447,-0.0018887989881397691,-0.004929394884072907,-0.002613276616073986,0.0,0.0,0.0,0.0
17.1492338180542,1.0320475,0.913588,-3.987113,0.002406409890228496,nan,nan,nan,nan,nan,7.139378309249878,8.339378309249877,0.00037169456481933594,1.0,1.0,0.0,-4.0,0.7291118024684069,-0.0005412094608619902,-0.005512789912372663,-0.0021404729895688644,0.0,0.0,0.0,0.0
17.249614000320435,1.0254003,0.91217184,-3.994633,0.001655272069864877,nan,nan,nan,nan,nan,7.239757299423218,8.439757299423217,0.00034880638122558594,1.0,1.0,0.0,-4.0,0.7283448211316255,0.0002371490731016597,-0.005164862828605102,-0.001545463736901365,0.0,0.0,0.0,0.0
17.349270820617676,1.0150867,0.91265416,-3.997515,0.0008041271223412309,nan,nan,nan,nan,nan,7.3394176959991455,8.539417695999145,0.0003948211669921875,1.0,1.0,0.0,-4.0,0.7281053426026705,-0.0010045670256946036,-0.007191766477534948,-0.000815240992268834,0.0,0.0,0.0,0.0
17.44936728477478,1.0058342,0.91978794,-3.999621,6.261800408301904e-05,nan,nan,nan,nan,nan,7.439517974853516,8.639517974853515,0.0003941059112548828,1.0,1.0,0.0,-4.0,0.7279418726528148,-0.0048621503753731,-0.008277041432075532,-0.00018057890080426693,0.0,0.0,0.0,0.0
17.54928731918335,0.9980944,0.92590934,-3.9987125,0.0001312177252911174,nan,nan,nan,nan,nan,7.539454698562622,8.739454698562621,0.00040149688720703125,1.0,1.0,0.0,-4.0,0.7278886090677542,-0.009566717722277776,-0.00818801998395385,2.3988054200856996e-05,0.0,0.0,0.0,0.0
17.649529457092285,0.9919905,0.9314781,-3.9981034,0.00185943543962727,nan,nan,nan,nan,nan,7.639670133590698,8.839670133590698,0.0003681182861328125,1.0,1.0,0.0,-4.0,0.7279159141730807,-0.012299112779273822,-0.007487881867248795,-0.0009495128602517212,0.0,0.0,0.0,0.0
17.749542713165283,0.9882326,0.9375563,-3.9978437,0.0033931461362659795,nan,nan,nan,nan,nan,7.73968505859375,8.93968505859375,0.0003943443298339844,1.0,1.0,0.0,-4.0,0.7278908101581967,-0.013109938152941359,-0.00563594424387636,-0.0024423768237621683,0.0,0.0,0.0,0.0
17.849647283554077,0.9851722,0.94774425,-3.9976377,0.004483526429938784,nan,nan,nan,nan,nan,7.839794635772705,9.039794635772704,0.00037169456481933594,1.0,1.0,0.0,-4.0,0.7279560686329793,-0.014355648281554237,-0.00317319996171447,-0.0035264920410052417,0.0,0.0,0.0,0.0
17.949222087860107,0.9810815,0.95974684,-3.995973,0.005111546934266268,nan,nan,nan,nan,nan,7.939369201660156,9.139369201660156,0.00043511390686035156,1.0,1.0,0.0,-4.0,0.7279969198494949,-0.015988352051787915,-0.001534179151639225,-0.004186763275807425,0.0,0.0,0.0,0.0
18.049256801605225,0.97508407,0.9742169,-3.9950485,0.00581169050348139,nan,nan,nan,nan,nan,8.039393186569214,9.239393186569213,0.0004868507385253906,1.0,1.0,0.0,-4.0,0.7279841500544124,-0.01793636101290442,-0.0011059319613712692,-0.004739142489023782,0.0,0.0,0.0,0.0
18.149593830108643,0.9689363,0.9884716,-3.9938705,0.006510377996661809,nan,nan,nan,nan,nan,8.139734268188477,9.339734268188476,0.0004088878631591797,1.0,1.0,0.0,-4.0,0.7280141813795085,-0.01944815504098896,-0.0016209091919725787,-0.005369882796099058,0.0,0.0,0.0,0.0
18.249351501464844,0.96463954,0.9980108,-3.9934769,0.006817144294716156,nan,nan,nan,nan,nan,8.239485025405884,9.439485025405883,0.0004162788391113281,1.0,1.0,0.0,-4.0,0.7280305079079922,-0.017446102406048384,-0.0013500847014517037,-0.005713545405141955,0.0,0.0,0.0,0.0
18.349673748016357,0.95531434,1.0080557,-3.990809,0.007736994186989426,nan,nan,nan,nan,nan,8.340293169021606,9.540293169021606,0.0006334781646728516,1.0,1.0,0.0,-4.0,0.7281738964578581,-0.014752225629760949,-0.003228857546998166,-0.006326190172601619,0.0,0.0,0.0,0.0
18.44925022125244,0.94706666,1.0158432,-3.991829,0.008709330825823534,nan,nan,nan,nan,nan,8.439384937286377,9.639384937286376,0.00042438507080078125,1.0,1.0,0.0,-4.0,0.7281056638419019,-0.011419669130705622,-0.005364115677537448,-0.007152031768829456,0.0,0.0,0.0,0.0
18.55011487007141,0.9356226,1.0175338,-4.0013347,0.00905403841163342,nan,nan,nan,nan,nan,8.540624141693115,9.740624141693115,0.0007073879241943359,1.0,1.0,0.0,-4.0,0.7276597667872545,-0.005804551100277646,-0.007313592665214841,-0.00770961209367581,0.0,0.0,0.0,0.0
18.65007495880127,0.92569387,1.0146427,-4.012397,0.008108079252015479,nan,nan,nan,nan,nan,8.640321016311646,9.840321016311645,0.0004367828369140625,1.0,1.0,0.0,-4.0,0.7268583467357453,0.003429326831892968,-0.009729416229705903,-0.007230945929607453,0.0,0.0,0.0,0.0
18.74974226951599,0.9171785,1.0091559,-4.022531,0.005983157779997794,nan,nan,nan,nan,nan,8.740143060684204,9.940143060684203,0.0004093647003173828,1.0,1.0,0.0,-4.0,0.7263089119802448,0.01289778053653586,-0.008824128386336184,-0.0056281643454998715,0.0,0.0,0.0,0.0
18.849971055984497,0.9071223,1.0050709,-4.0335436,0.004537597280064507,nan,nan,nan,nan,nan,8.840416431427002,10.040416431427001,0.0007364749908447266,1.0,1.0,0.0,-4.0,0.725727522847449,0.018890839967893727,-0.00783002464099289,-0.004098692557173126,0.0,0.0,0.0,0.0
18.94995903968811,0.8942595,0.99897647,-4.0419607,0.003665218332338655,nan,nan,nan,nan,nan,8.940422773361206,10.140422773361205,0.00036787986755371094,1.0,1.0,0.0,-4.0,0.7253405152917842,0.022261048997354246,-0.007609260622788329,-0.003208671167399344,0.0,0.0,0.0,0.0
19.049323797225952,0.88499177,0.9921206,-4.044874,0.003014090724403833,nan,nan,nan,nan,nan,9.039480447769165,10.239480447769164,0.0005018711090087891,1.0,1.0,0.0,-4.0,0.725244353167467,0.02380922711360667,-0.007312108069737292,-0.0026581730137639373,0.0,0.0,0.0,0.0
19.149563550949097,0.8766304,0.9848474,-4.045355,0.0025317798250560474,nan,nan,nan,nan,nan,9.139755964279175,10.339755964279174,0.0004451274871826172,1.0,1.0,0.0,-4.0,0.7254513885222856,0.023756224527646787,-0.00565759300409946,-0.0020009267058660163,0.0,0.0,0.0,0.0
19.249991416931152,0.87051535,0.97888166,-4.0466833,0.0030372556023990083,nan,nan,nan,nan,nan,9.240419626235962,10.440419626235961,0.0003979206085205078,1.0,1.0,0.0,-4.0,0.7256791184277149,0.020468654845417163,-0.0035443104934677182,-0.002336005131169071,0.0,0.0,0.0,0.0
19.349496364593506,0.8696089,0.969606,-4.048291,0.0029547776455072774,nan,nan,nan,nan,nan,9.339673280715942,10.539673280715942,0.00041961669921875,1.0,1.0,0.0,-4.0,0.725791838699527,0.0172740505897583,0.0002790713575682149,-0.002548479889619479,0.0,0.0,0.0,0.0
19.449496507644653,0.87272626,0.96716785,-4.0501385,0.003135070270484237,nan,nan,nan,nan,nan,9.439693212509155,10.639693212509155,0.0004477500915527344,1.0,1.0,0.0,-4.0,0.7258139590343073,0.012232047458370247,0.005134833067905573,-0.0026685267226821017,0.0,0.0,0.0,0.0
19.549664735794067,0.8817679,0.9645473,-4.045392,0.0036098032920465492,nan,nan,nan,nan,nan,9.540101528167725,10.740101528167724,0.0007174015045166016,1.0,1.0,0.0,-4.0,0.7260269848643093,0.005733883782761644,0.011140906607542302,-0.003080251143460439,0.0,0.0,0.0,0.0
19.649317264556885,0.8946678,0.96173143,-4.035841,0.004382885762348075,nan,nan,nan,nan,nan,9.639488697052002,10.839488697052001,0.0003936290740966797,1.0,1.0,0.0,-4.0,0.7267543264099057,0.0013419584288083702,0.01848000050968037,-0.0036938290556767996,0.0,0.0,0.0,0.0
19.749195098876953,0.9125589,0.9594235,-4.021916,0.006204664186015874,nan,nan,nan,nan,nan,9.739659070968628,10.939659070968627,0.0004067420959472656,1.0,1.0,0.0,-4.0,0.7277184883998774,-0.0019072777189454012,0.025251054585081652,-0.005097415294680288,0.0,0.0,0.0,0.0
19.849300384521484,0.9282862,0.9594539,-4.0120087,0.009222240536439493,nan,nan,nan,nan,nan,9.839546918869019,11.039546918869018,0.0003669261932373047,1.0,1.0,0.0,-4.0,0.7284383342040817,-0.005492414803852763,0.02947348897307992,-0.007380708172630863,0.0,0.0,0.0,0.0
19.949498414993286,0.9417933,0.96009696,-4.00761,0.011885276610767192,nan,nan,nan,nan,nan,9.939677238464355,11.139677238464355,0.0003464221954345703,1.0,1.0,0.0,-4.0,0.7286801121291356,-0.007813455804143752,0.02949684242932118,-0.009612828990174155,0.0,0.0,0.0,0.0
20.049721717834473,0.9508989,0.9589528,-4.0062237,0.013139877424165603,nan,nan,nan,nan,nan,10.039983034133911,11.23998303413391,0.0005657672882080078,1.0,1.0,0.0,-4.0,0.72858696123333,-0.008596989305229496,0.025429660030186565,-0.01109785711107007,0.0,0.0,0.0,0.0
20.150174617767334,0.9568114,0.9562572,-4.0035934,0.013139502138394316,nan,nan,nan,nan,nan,10.140478372573853,11.340478372573852,0.000621795654296875,1.0,1.0,0.0,-4.0,0.7284615475827966,-0.006926160959235356,0.019007450188969797,-0.011315290049436875,0.0,0.0,0.0,0.0
20.249664306640625,0.95913154,0.9539175,-3.9992924,0.012563995984907898,nan,nan,nan,nan,nan,10.239941358566284,11.439941358566283,0.0004119873046875,1.0,1.0,0.0,-4.0,0.7286637948830749,-0.005320959662254555,0.01014333936837221,-0.01090894116659424,0.0,0.0,0.0,0.0
20.349498510360718,0.9577623,0.9535176,-3.991724,0.011912291968286772,nan,nan,nan,nan,nan,10.339757204055786,11.539757204055785,0.00040268898010253906,1.0,1.0,0.0,-4.0,0.7289448317269823,-0.004162232920545899,0.0009413233926274701,-0.010196394057041487,0.0,0.0,0.0,0.0
20.449490308761597,0.9553161,0.9528338,-3.9825368,0.011235074288800119,nan,nan,nan,nan,nan,10.439929962158203,11.639929962158202,0.0003924369812011719,1.0,1.0,0.0,-4.0,0.7292185205152047,-0.0032923765059978453,-0.00667995223137954,-0.009572618336313532,0.0,0.0,0.0,0.0
20.549325466156006,0.9539913,0.954085,-3.975184,0.0108478262901974,nan,nan,nan,nan,nan,10.539472818374634,11.739472818374633,0.0005304813385009766,1.0,1.0,0.0,-4.0,0.729501622104791,-0.0036618891159527996,-0.01208771126092796,-0.00912717347021357,0.0,0.0,0.0,0.0
20.649482250213623,0.954994,0.95655566,-3.970054,0.010551978609123137,nan,nan,nan,nan,nan,10.639667987823486,11.839667987823486,0.0004489421844482422,1.0,1.0,0.0,-4.0,0.7295957569218874,-0.004821627275898933,-0.013675510161173207,-0.008914085095743287,0.0,0.0,0.0,0.0
20.749341011047363,0.9577238,0.9539639,-3.9642928,0.010225724559814147,nan,nan,nan,nan,nan,10.739588737487793,11.939588737487792,0.0003495216369628906,1.0,1.0,0.0,-4.0,0.7297917365232102,-0.0020984003545575537,-0.013057349809690293,-0.00863000558292447,0.0,0.0,0.0,0.0
20.849460124969482,0.96039367,0.9540527,-3.9612763,0.009935550336144825,nan,nan,nan,nan,nan,10.839637517929077,12.039637517929076,0.0009255409240722656,1.0,1.0,0.0,-4.0,0.7297723673969689,-7.637950734012383e-05,-0.011349004572407223,-0.008380784514669448,0.0,0.0,0.0,0.0
20.949633836746216,0.9550368,0.96042156,-3.9588141,0.010127208030893243,nan,nan,nan,nan,nan,10.939866065979004,12.139866065979003,0.0004906654357910156,1.0,1.0,0.0,-4.0,0.7296298779461325,-0.001716440175493312,-0.011236751647128921,-0.008342163138255164,0.0,0.0,0.0,0.0
21.049283504486084,0.94545466,0.9683894,-3.9573703,0.010822218960937229,nan,nan,nan,nan,nan,11.039450645446777,12.239450645446777,0.0003838539123535156,1.0,1.0,0.0,-4.0,0.7294920755965335,-0.006409431679070912,-0.014158445037301076,-0.008848781292717501,0.0,0.0,0.0,0.0
21.149536609649658,0.93552816,0.974168,-3.9575496,0.0112307370610294,nan,nan,nan,nan,nan,11.139781951904297,12.339781951904296,0.0004649162292480469,1.0,1.0,0.0,-4.0,0.7293127482091508,-0.008819101582818878,-0.017099196824094616,-0.009347491546844708,0.0,0.0,0.0,0.0
21.2493679523468,0.923797,0.9810799,-3.9601152,0.011328730517517302,nan,nan,nan,nan,nan,11.23961853981018,12.43961853981018,0.0004088878631591797,1.0,1.0,0.0,-4.0,0.7290592689078458,-0.010348304301919803,-0.019062847517811597,-0.009541271368804526,0.0,0.0,0.0,0.0
21.34935688972473,0.9144344,0.9859698,-3.9605193,0.01100136848242253,nan,nan,nan,nan,nan,11.33952283859253,12.539522838592529,0.0004818439483642578,1.0,1.0,0.0,-4.0,0.7288572300096782,-0.009672205188786467,-0.01884820998454831,-0.009371235757393674,0.0,0.0,0.0,0.0
21.44949460029602,0.91020596,0.9915356,-3.9639,0.010222560816557742,nan,nan,nan,nan,nan,11.439634799957275,12.639634799957275,0.00047588348388671875,1.0,1.0,0.0,-4.0,0.7285793542077448,-0.0080219119882984,-0.015381129686985535,-0.0088279667105093,0.0,0.0,0.0,0.0
21.54983878135681,0.90976363,0.9950068,-3.9662569,0.009322780009956193,nan,nan,nan,nan,nan,11.540016412734985,12.740016412734985,0.0004925727844238281,1.0,1.0,0.0,-4.0,0.7282586826517442,-0.00630073625288907,-0.008881697213060676,-0.0081203332394643,0.0,0.0,0.0,0.0
21.649540662765503,0.9107432,0.9960319,-3.9678624,0.008301142070029473,nan,nan,nan,nan,nan,11.640037775039673,12.840037775039672,0.0006754398345947266,1.0,1.0,0.0,-4.0,0.7281314933252447,-0.0033828180830650432,-0.0022484682440164134,-0.007310912356988778,0.0,0.0,0.0,0.0
21.749574899673462,0.9123418,0.9975558,-3.971157,0.007336972625240577,nan,nan,nan,nan,nan,11.7400643825531,12.9400643825531,0.00043892860412597656,1.0,1.0,0.0,-4.0,0.7279104701183755,-0.001200183029886091,0.003769175854244903,-0.006481698037131573,0.0,0.0,0.0,0.0
21.849775791168213,0.9132614,0.9985608,-3.9780102,0.006534205052391189,nan,nan,nan,nan,nan,11.840023040771484,13.040023040771484,0.0007278919219970703,1.0,1.0,0.0,-4.0,0.7274383500051437,-8.96022908111228e-06,0.00775178638463613,-0.005754968095776768,0.0,0.0,0.0,0.0
21.949835538864136,0.9129446,0.9992161,-3.9840157,0.0057252326734382256,nan,nan,nan,nan,nan,11.9402596950531,13.1402596950531,0.0007748603820800781,1.0,1.0,0.0,-4.0,0.726973040575523,0.0007363943306369843,0.0092463638848275,-0.005046830584301982,0.0,0.0,0.0,0.0
22.049335956573486,0.9145948,0.9984512,-3.9887278,0.005252811791984107,nan,nan,nan,nan,nan,12.039506673812866,13.239506673812866,0.0004134178161621094,1.0,1.0,0.0,-4.0,0.7267777620277305,0.0013576385071599826,0.009165326709806867,-0.004619829650557978,0.0,0.0,0.0,0.0
22.14922285079956,0.92131764,0.99607897,-3.993282,0.004975414816198977,nan,nan,nan,nan,nan,12.139378786087036,13.339378786087035,0.0005540847778320312,1.0,1.0,0.0,-4.0,0.726612960473266,0.003739642221341369,0.011377254738033001,-0.004356360351318194,0.0,0.0,0.0,0.0
22.249248266220093,0.9323544,0.99658674,-3.991493,0.004691866597634305,nan,nan,nan,nan,nan,12.239428758621216,13.439428758621215,0.0004153251647949219,1.0,1.0,0.0,-4.0,0.7268588577281064,0.004652866698418702,0.014886857656496139,-0.004190344920537644,0.0,0.0,0.0,0.0
22.349239587783813,0.94705325,0.99289334,-3.9895444,0.003869842652684422,nan,nan,nan,nan,nan,12.339436769485474,13.539436769485473,0.0005002021789550781,1.0,1.0,0.0,-4.0,0.7271047537844831,0.006417112203067227,0.01880045015216117,-0.0037028698861038593,0.0,0.0,0.0,0.0
22.449298858642578,0.96004283,0.99372274,-3.9857504,0.00311522729537206,nan,nan,nan,nan,nan,12.439461946487427,13.639461946487426,0.00037479400634765625,1.0,1.0,0.0,-4.0,0.7273834762023556,0.007210529283900761,0.021429187258793645,-0.002923630053470744,0.0,0.0,0.0,0.0
22.549227952957153,0.9704541,0.9959993,-3.9795516,0.0033207002888456945,nan,nan,nan,nan,nan,12.539366006851196,13.739366006851196,0.00040268898010253906,1.0,1.0,0.0,-4.0,0.727840465190807,0.0036441377687079545,0.020612733548783155,-0.002925018483967255,0.0,0.0,0.0,0.0
22.64916753768921,0.98218155,0.9948441,-3.971668,0.0036587942171826533,nan,nan,nan,nan,nan,12.63942575454712,13.839425754547118,0.0007464885711669922,1.0,1.0,0.0,-4.0,0.7284084918822961,0.002712825874946108,0.01919124648214119,-0.0031377540485683707,0.0,0.0,0.0,0.0
22.749179124832153,0.9882313,0.9936627,-3.963824,0.004386848065498104,nan,nan,nan,nan,nan,12.739311456680298,13.939311456680297,0.00041031837463378906,1.0,1.0,0.0,-4.0,0.728911167324658,0.0018982405880323715,0.01573352017440468,-0.0036227406749882994,0.0,0.0,0.0,0.0
22.84914779663086,0.99014735,0.9910626,-3.9496229,0.004854239092476132,nan,nan,nan,nan,nan,12.8392972946167,14.039297294616699,0.0004210472106933594,1.0,1.0,0.0,-4.0,0.7295413497371012,0.0020157446103047072,0.009915994795605431,-0.0040828407241564404,0.0,0.0,0.0,0.0
22.949136972427368,0.99098796,0.9874848,-3.9399865,0.004848067966670816,nan,nan,nan,nan,nan,12.939324855804443,14.139324855804443,0.0005500316619873047,1.0,1.0,0.0,-4.0,0.7300371106693981,0.0032065754043014414,0.0033491104514576345,-0.0041623143533714305,0.0,0.0,0.0,0.0
23.04908800125122,0.9916063,0.9821987,-3.9334056,0.004439672575608379,nan,nan,nan,nan,nan,13.039228677749634,14.239228677749633,0.0004999637603759766,1.0,1.0,0.0,-4.0,0.730250022522525,0.005598844895374311,-0.001629195927051906,-0.003836541894390852,0.0,0.0,0.0,0.0
23.149261236190796,0.9915261,0.97466505,-3.9298732,0.004043477974320914,nan,nan,nan,nan,nan,13.139415740966797,14.339415740966796,0.00037169456481933594,1.0,1.0,0.0,-4.0,0.7302266015973972,0.008339578159556833,-0.005794764238390723,-0.0034127750577400084,0.0,0.0,0.0,0.0
23.249383211135864,0.98836195,0.96987945,-3.9378726,0.004025822138753411,nan,nan,nan,nan,nan,13.2395658493042,14.439565849304199,0.0008327960968017578,1.0,1.0,0.0,-4.0,0.7296002758817658,0.008878541365728366,-0.009683924582100411,-0.0032215302693654464,0.0,0.0,0.0,0.0
23.34928798675537,0.9838923,0.9656864,-3.9405756,0.00418574652843625,nan,nan,nan,nan,nan,13.339444160461426,14.539444160461425,0.00040459632873535156,1.0,1.0,0.0,-4.0,0.7289870451541497,0.007848785226635504,-0.013189471845231886,-0.0033141736539196347,0.0,0.0,0.0,0.0
23.449271202087402,0.9811892,0.9610027,-3.943264,0.004050552966071368,nan,nan,nan,nan,nan,13.439406633377075,14.639406633377074,0.0003845691680908203,1.0,1.0,0.0,-4.0,0.7286846972016305,0.006402607733901358,-0.015274039928646928,-0.003236252768226116,0.0,0.0,0.0,0.0
23.549283981323242,0.98100233,0.95393157,-3.9488602,0.003714164354963542,nan,nan,nan,nan,nan,13.53941822052002,14.739418220520019,0.0010380744934082031,1.0,1.0,0.0,-4.0,0.7282834549409154,0.006283294751643611,-0.01428189940616951,-0.002984768900610587,0.0,0.0,0.0,0.0
23.649200916290283,0.9828641,0.9456165,-3.9562407,0.003636406852171226,nan,nan,nan,nan,nan,13.639320850372314,14.839320850372314,0.0004124641418457031,1.0,1.0,0.0,-4.0,0.7278337203378399,0.007991891760938829,-0.011200945868734487,-0.002927490918046057,0.0,0.0,0.0,0.0
23.749209880828857,0.9827413,0.9356766,-3.9592533,0.0036019442192094684,nan,nan,nan,nan,nan,13.739351272583008,14.939351272583007,0.0004172325134277344,1.0,1.0,0.0,-4.0,0.727591195716245,0.009627131042643457,-0.008314424230972511,-0.0028788020287400093,0.0,0.0,0.0,0.0
23.849200010299683,0.9857535,0.9288811,-3.9577243,0.0036663498195584716,nan,nan,nan,nan,nan,13.839339256286621,15.03933925628662,0.0004241466522216797,1.0,1.0,0.0,-4.0,0.7276084183654062,0.010214300619887491,-0.005440494888550272,-0.0029465664390640888,0.0,0.0,0.0,0.0
23.9491708278656,0.98641443,0.92601264,-3.957722,0.00360083539106557,nan,nan,nan,nan,nan,13.939303398132324,15.139303398132324,0.00044989585876464844,1.0,1.0,0.0,-4.0,0.7276964438507424,0.008212459784489218,-0.002214415185394555,-0.0030920624392681236,0.0,0.0,0.0,0.0
24.049741744995117,0.9834805,0.92665064,-3.958963,0.002820408705585889,nan,nan,nan,nan,nan,14.039862871170044,15.239862871170043,0.0007460117340087891,1.0,1.0,0.0,-4.0,0.7275773833427698,0.0026398265293312824,-0.0019305884909436182,-0.002590840949397871,0.0,0.0,0.0,0.0
24.1494357585907,0.97800976,0.927592,-3.9552703,0.0014966378671521239,nan,nan,nan,nan,nan,14.139572858810425,15.339572858810424,0.0004775524139404297,1.0,1.0,0.0,-4.0,0.7278763372204914,-0.002032144990424308,-0.0034456620845477255,-0.0016359872700442628,0.0,0.0,0.0,0.0
24.24942111968994,0.9776519,0.92910033,-3.9492977,0.0003171555552395275,nan,nan,nan,nan,nan,14.239590167999268,15.439590167999267,0.0004329681396484375,1.0,1.0,0.0,-4.0,0.7282370444833733,-0.005918000423782367,-0.0036249659936717867,-0.0006275786821084062,0.0,0.0,0.0,0.0
24.349290132522583,0.97973984,0.9273082,-3.9430094,-0.0007805816452195824,nan,nan,nan,nan,nan,14.33942461013794,15.539424610137939,0.000469207763671875,1.0,1.0,0.0,-4.0,0.7285944022046926,-0.008231426120939108,-0.001634296415887201,0.0003062368987230369,0.0,0.0,0.0,0.0
24.449262619018555,0.9825605,0.9234174,-3.9376893,-0.0019009313177777024,nan,nan,nan,nan,nan,14.439391136169434,15.639391136169433,0.0005545616149902344,1.0,1.0,0.0,-4.0,0.7288793533921459,-0.007763904081950738,0.0009514790242048096,0.0013303013911457786,0.0,0.0,0.0,0.0
24.549431800842285,0.9847387,0.9168881,-3.9319232,-0.0018023694052654617,nan,nan,nan,nan,nan,14.539560794830322,15.739560794830322,0.00043511390686035156,1.0,1.0,0.0,-4.0,0.7291271116754099,-0.005336878299475334,0.003187910283931914,0.0015987431692088192,0.0,0.0,0.0,0.0
24.64941430091858,0.9837102,0.90869874,-3.9244416,-0.0008240640041912049,nan,nan,nan,nan,nan,14.63954472541809,15.83954472541809,0.0004093647003173828,1.0,1.0,0.0,-4.0,0.7295543574582374,-0.0011472812573167042,0.0031314843127602837,0.0009180633601113585,0.0,0.0,0.0,0.0
24.749305725097656,0.97792006,0.9032899,-3.9191272,0.00044005368888889486,nan,nan,nan,nan,nan,14.739453792572021,15.93945379257202,0.0004971027374267578,1.0,1.0,0.0,-4.0,0.7297400287367388,0.002293906536283205,0.00031681393039526896,-4.717535540604955e-05,0.0,0.0,0.0,0.0
24.84929394721985,0.97037446,0.899174,-3.9128597,0.0014331444991914138,nan,nan,nan,nan,nan,14.839430332183838,16.039430332183837,0.0003647804260253906,1.0,1.0,0.0,-4.0,0.7298441237057074,0.004278445033352944,-0.004008200698653132,-0.0008525724686082139,0.0,0.0,0.0,0.0
24.94928240776062,0.96522236,0.89711475,-3.907346,0.0023274050973591896,nan,nan,nan,nan,nan,14.93939733505249,16.13939733505249,0.0003540515899658203,1.0,1.0,0.0,-4.0,0.7299071174629821,0.004671042349807894,-0.007572408655299934,-0.0016233237276779122,0.0,0.0,0.0,0.0
25.049302577972412,0.96357876,0.89687616,-3.90422,0.002685935223035856,nan,nan,nan,nan,nan,15.039430856704712,16.23943085670471,0.0003676414489746094,1.0,1.0,0.0,-4.0,0.7299119718628526,0.0027284832925983855,-0.007324156112182292,-0.002077099552277983,0.0,0.0,0.0,0.0
25.149299383163452,0.9635814,0.89494574,-3.9010515,0.002860301231588154,nan,nan,nan,nan,nan,15.13943099975586,16.33943099975586,0.00034332275390625,1.0,1.0,0.0,-4.0,0.7298915140203701,0.0017996043419013638,-0.005196414319979832,-0.0023029132017889716,0.0,0.0,0.0,0.0
25.249246835708618,0.96707445,0.89155805,-3.8951838,0.0030393384826948935,nan,nan,nan,nan,nan,15.239433765411377,16.439433765411376,0.0003414154052734375,1.0,1.0,0.0,-4.0,0.7299630087331945,0.0020534629500821343,-0.0016440251107020774,-0.0024877976852830538,0.0,0.0,0.0,0.0
25.349210500717163,0.97017753,0.89066905,-3.890195,0.0035526536950095207,nan,nan,nan,nan,nan,15.339340448379517,16.539340448379516,0.0004968643188476562,1.0,1.0,0.0,-4.0,0.7300534006281011,0.0021048394868929863,0.001978065075083613,-0.0028827759557337688,0.0,0.0,0.0,0.0
25.449227333068848,0.97390515,0.890836,-3.8872194,0.004515861182175211,nan,nan,nan,nan,nan,15.439361333847046,16.639361333847045,0.0003752708435058594,1.0,1.0,0.0,-4.0,0.7300492955192316,0.0007964470857406565,0.0043912335542347835,-0.003695186573872359,0.0,0.0,0.0,0.0
25.549091577529907,0.97792846,0.889844,-3.8900373,0.004579257222651457,nan,nan,nan,nan,nan,15.539213180541992,16.73921318054199,0.00034117698669433594,1.0,1.0,0.0,-4.0,0.7297028629121841,0.0005480774765245965,0.006525525999266896,-0.00398150270260227,0.0,0.0,0.0,0.0
25.649872064590454,0.97758824,0.8969162,-3.8871744,0.003859302018692192,nan,nan,nan,nan,nan,15.64002776145935,16.84002776145935,0.00037288665771484375,1.0,1.0,0.0,-4.0,0.729597854029943,-0.0035834879111258083,0.006260708887904101,-0.0035289116155476923,0.0,0.0,0.0,0.0
25.749350786209106,0.980326,0.9063819,-3.8888116,0.0025767266749694116,nan,nan,nan,nan,nan,15.739505290985107,16.939505290985107,0.00034308433532714844,1.0,1.0,0.0,-4.0,0.7293577104353909,-0.009186067852009304,0.0057999673311453824,-0.002598653423382173,0.0,0.0,0.0,0.0
25.849311351776123,0.9873448,0.9168777,-3.8921537,0.0010814338794670605,nan,nan,nan,nan,nan,15.839448690414429,17.039448690414428,0.0003402233123779297,1.0,1.0,0.0,-4.0,0.7289802566665949,-0.0145658220651536,0.00660749661318878,-0.0013403629485123642,0.0,0.0,0.0,0.0
25.94943356513977,0.99572235,0.9262749,-3.8941245,8.986040000944807e-05,nan,nan,nan,nan,nan,15.939577341079712,17.13957734107971,0.0003402233123779297,1.0,1.0,0.0,-4.0,0.728621593627141,-0.017157168129156384,0.009231594797909531,-0.0003256189744995983,0.0,0.0,0.0,0.0
26.0492684841156,1.0044359,0.9366555,-3.8914201,-0.0002600661880137016,nan,nan,nan,nan,nan,16.039406538009644,17.239406538009643,0.0003368854522705078,1.0,1.0,0.0,-4.0,0.7287963287024194,-0.018217126726881923,0.011300163441473549,0.00018352805250624333,0.0,0.0,0.0,0.0
26.149271726608276,1.012109,0.94335717,-3.884123,-0.00012689770106669076,nan,nan,nan,nan,nan,16.139413118362427,17.339413118362426,0.00036454200744628906,1.0,1.0,0.0,-4.0,0.7291313590881368,-0.016147003705288713,0.012110783628831065,0.0001565976454928359,0.0,0.0,0.0,0.0
26.249303102493286,1.0174375,0.9492621,-3.8781579,-9.096581903840105e-05,nan,nan,nan,nan,nan,16.239453077316284,17.439453077316283,0.0003528594970703125,1.0,1.0,0.0,-4.0,0.7294434921041032,-0.011798995716340008,0.010667231804545502,6.374185977035521e-05,0.0,0.0,0.0,0.0
26.34922981262207,1.0216451,0.9544709,-3.8736744,-0.00026558569142874806,nan,nan,nan,nan,nan,16.33938503265381,17.539385032653808,0.0003743171691894531,1.0,1.0,0.0,-4.0,0.7295972421763618,-0.007075989396360252,0.007853549490629712,0.0001604230413931873,0.0,0.0,0.0,0.0
26.449121475219727,1.0257471,0.9597892,-3.8701067,-0.00037163993267764887,nan,nan,nan,nan,nan,16.439253091812134,17.639253091812133,0.000335693359375,1.0,1.0,0.0,-4.0,0.7297015483655119,-0.0030896093682364054,0.005411372785282819,0.00032771070468872577,0.0,0.0,0.0,0.0
26.54965329170227,1.0286491,0.9637585,-3.868224,0.00016700463254966163,nan,nan,nan,nan,nan,16.539769887924194,17.739769887924194,0.0003352165222167969,1.0,1.0,0.0,-4.0,0.7298033552546427,-0.00016892054471631738,0.00316544191620472,-1.1892449909616633e-05,0.0,0.0,0.0,0.0
26.649405479431152,1.0272123,0.9654788,-3.8600812,0.001160241675211178,nan,nan,nan,nan,nan,16.63953471183777,17.839534711837768,0.0003540515899658203,1.0,1.0,0.0,-4.0,0.7301038704366627,0.0024852155839103947,-6.998611330479459e-06,-0.0006509201452412295,0.0,0.0,0.0,0.0
26.749478816986084,1.0236604,0.96820825,-3.8609238,0.0020221027541665686,nan,nan,nan,nan,nan,16.739622592926025,17.939622592926025,0.0004105567932128906,1.0,1.0,0.0,-4.0,0.7300164754244345,0.004159879298042348,-0.0041283765253543004,-0.0013822738476989662,0.0,0.0,0.0,0.0
26.8494131565094,1.0196466,0.9690578,-3.8645742,0.0028896390129520303,nan,nan,nan,nan,nan,16.839550018310547,18.039550018310546,0.0003421306610107422,1.0,1.0,0.0,-4.0,0.7295627698298838,0.0047265368488050435,-0.008092185516820886,-0.002177350222474266,0.0,0.0,0.0,0.0
26.949415683746338,1.0153924,0.9674813,-3.8712208,0.003981262752504659,nan,nan,nan,nan,nan,16.939539909362793,18.139539909362792,0.0003573894500732422,1.0,1.0,0.0,-4.0,0.72910370329307,0.00667827093592992,-0.010859046059201655,-0.0029578322529362306,0.0,0.0,0.0,0.0
27.049371242523193,1.0139214,0.96400595,-3.880835,0.005170985556713483,nan,nan,nan,nan,nan,17.039509534835815,18.239509534835815,0.00034165382385253906,1.0,1.0,0.0,-4.0,0.7285057705280217,0.009339519874037996,-0.010951387000122588,-0.003898812444521697,0.0,0.0,0.0,0.0
27.149394989013672,1.0097865,0.9618962,-3.8837328,0.006147650951026699,nan,nan,nan,nan,nan,17.139530897140503,18.339530897140502,0.000354766845703125,1.0,1.0,0.0,-4.0,0.728141369505572,0.010240624021199391,-0.010398193154423616,-0.004816443552757614,0.0,0.0,0.0,0.0
27.24944543838501,1.008801,0.9596437,-3.8899796,0.006454032668225421,nan,nan,nan,nan,nan,17.23958683013916,18.43958683013916,0.0003452301025390625,1.0,1.0,0.0,-4.0,0.7278484870130734,0.009856490907391532,-0.009424357058588994,-0.005300785762537903,0.0,0.0,0.0,0.0
27.34938335418701,1.0105741,0.95489013,-3.9000947,0.006478810363362708,nan,nan,nan,nan,nan,17.339520931243896,18.539520931243896,0.00039196014404296875,1.0,1.0,0.0,-4.0,0.7273413948664615,0.009710028909623443,-0.006667476351989544,-0.005365283486807952,0.0,0.0,0.0,0.0
27.449318170547485,1.011705,0.9466104,-3.9137423,0.0063612318073060625,nan,nan,nan,nan,nan,17.439455270767212,18.63945527076721,0.00046181678771972656,1.0,1.0,0.0,-4.0,0.7265868620782264,0.010888087646144273,-0.0023709005095989472,-0.005388513640228365,0.0,0.0,0.0,0.0
27.54935574531555,1.0039634,0.9375498,-3.9227662,0.006361996660288761,nan,nan,nan,nan,nan,17.539498329162598,18.739498329162597,0.0003535747528076172,1.0,1.0,0.0,-4.0,0.7261669358452281,0.012390767613746712,-0.003648790242811068,-0.005314975944891342,0.0,0.0,0.0,0.0
27.649449825286865,0.99973226,0.9353607,-3.9276783,0.005603290721818016,nan,nan,nan,nan,nan,17.6395845413208,18.8395845413208,0.0003910064697265625,1.0,1.0,0.0,-4.0,0.7260583216918346,0.009966805614231229,-0.005138639513841558,-0.004899641208216332,0.0,0.0,0.0,0.0
27.749332189559937,1.0025327,0.9293605,-3.9300647,0.004811725058930266,nan,nan,nan,nan,nan,17.739569664001465,18.939569664001464,0.0003724098205566406,1.0,1.0,0.0,-4.0,0.7261146390107807,0.006915679365091695,-0.003878626743002175,-0.004234182089268411,0.0,0.0,0.0,0.0
27.84920644760132,1.0063193,0.92146486,-3.9302266,0.004448115114730354,nan,nan,nan,nan,nan,17.839335680007935,19.039335680007934,0.00043487548828125,1.0,1.0,0.0,-4.0,0.7263777085937462,0.006475214340757896,0.0004964679689025914,-0.0038006729051499365,0.0,0.0,0.0,0.0
27.949129104614258,1.0088446,0.91098326,-3.9287527,0.004532451456502054,nan,nan,nan,nan,nan,17.93931818008423,19.139318180084228,0.0003509521484375,1.0,1.0,0.0,-4.0,0.7268370452331749,0.00808494913455249,0.003036808230875488,-0.003872596531197358,0.0,0.0,0.0,0.0
28.049229383468628,1.0112784,0.90097713,-3.9264615,0.004706070312132867,nan,nan,nan,nan,nan,18.039350748062134,19.239350748062133,0.0003612041473388672,1.0,1.0,0.0,-4.0,0.7272772753046656,0.009676542341502217,0.00452450171765547,-0.004049679306404538,0.0,0.0,0.0,0.0
28.149351835250854,1.023547,0.8919823,-3.9204118,0.0047422947643725516,nan,nan,nan,nan,nan,18.13948369026184,19.33948369026184,0.0003628730773925781,1.0,1.0,0.0,-4.0,0.7278038692584822,0.010069485309989499,0.008182995543902451,-0.004185303280175863,0.0,0.0,0.0,0.0
28.249395608901978,1.0376818,0.88781077,-3.9138248,0.004644149063617904,nan,nan,nan,nan,nan,18.239627838134766,19.439627838134765,0.00036644935607910156,1.0,1.0,0.0,-4.0,0.7283979671883307,0.008484159213507194,0.0142536656188023,-0.0042813625126449754,0.0,0.0,0.0,0.0
28.349393606185913,1.05031,0.8858619,-3.9082873,0.0041774966950311404,nan,nan,nan,nan,nan,18.33953833580017,19.53953833580017,0.0003979206085205078,1.0,1.0,0.0,-4.0,0.7288645341036672,0.004677768331915362,0.019051304088892,-0.004086566642359782,0.0,0.0,0.0,0.0
28.449366569519043,1.0572622,0.8848377,-3.9053574,0.0035231887563675285,nan,nan,nan,nan,nan,18.43950390815735,19.639503908157348,0.0005953311920166016,1.0,1.0,0.0,-4.0,0.7291989636875137,0.0004204676990427568,0.018634360590246278,-0.003504372471811995,0.0,0.0,0.0,0.0
28.54943323135376,1.0652081,0.8860254,-3.9048724,0.0028029996003909995,nan,nan,nan,nan,nan,18.53957200050354,19.73957200050354,0.000446319580078125,1.0,1.0,0.0,-4.0,0.7292133866135402,-0.004289006867722455,0.015631836676859273,-0.0028073188353093764,0.0,0.0,0.0,0.0
28.649445295333862,1.0725371,0.88861924,-3.903286,0.0020415118706553787,nan,nan,nan,nan,nan,18.63959813117981,19.83959813117981,0.0003552436828613281,1.0,1.0,0.0,-4.0,0.7291792241691327,-0.008406627321261876,0.012127374462551363,-0.0020867980788290123,0.0,0.0,0.0,0.0
28.749591827392578,1.0769253,0.89250326,-3.9042957,0.001483705976084151,nan,nan,nan,nan,nan,18.739800214767456,19.939800214767455,0.00033926963806152344,1.0,1.0,0.0,-4.0,0.7290489958686658,-0.011283743834081119,0.008153499185166379,-0.0014686353291343847,0.0,0.0,0.0,0.0
28.84921407699585,1.0778209,0.8963041,-3.907041,0.0012101893681411508,nan,nan,nan,nan,nan,18.839354038238525,20.039354038238525,0.00041484832763671875,1.0,1.0,0.0,-4.0,0.728792305445401,-0.01256515886198504,0.0030428483197422226,-0.0011099294121835995,0.0,0.0,0.0,0.0
28.949357748031616,1.0761616,0.89977664,-3.9118986,0.0012130904543648296,nan,nan,nan,nan,nan,18.939600229263306,20.139600229263305,0.00043892860412597656,1.0,1.0,0.0,-4.0,0.7285358688556758,-0.011985966226837477,-0.0021132097038315603,-0.0010023136000878903,0.0,0.0,0.0,0.0
29.049745798110962,1.0703049,0.90327716,-3.9177244,0.0008270725317462944,nan,nan,nan,nan,nan,19.039905548095703,20.239905548095702,0.0006127357482910156,1.0,1.0,0.0,-4.0,0.7282569961598324,-0.01171163437283211,-0.007624436769887277,-0.0007634542900093948,0.0,0.0,0.0,0.0
29.149405241012573,1.0630051,0.908875,-3.9215014,4.4835821150206005e-05,nan,nan,nan,nan,nan,19.139532327651978,20.339532327651977,0.00038433074951171875,1.0,1.0,0.0,-4.0,0.7280681137196757,-0.012045281494930843,-0.012696158676641697,-0.00025357886975219964,0.0,0.0,0.0,0.0
29.24937605857849,1.053282,0.9166183,-3.9204266,-0.0009639554601961441,nan,nan,nan,nan,nan,19.2394917011261,20.439491701126098,0.00035452842712402344,1.0,1.0,0.0,-4.0,0.7280856449556357,-0.012935410618490968,-0.017543071897752817,0.0005090500950568126,0.0,0.0,0.0,0.0
29.34941029548645,1.0433581,0.9245463,-3.9195964,-0.0019357871174695324,nan,nan,nan,nan,nan,19.33954405784607,20.53954405784607,0.0004267692565917969,1.0,1.0,0.0,-4.0,0.7283536489849847,-0.014116691735051647,-0.02111898424700275,0.0013817420646496078,0.0,0.0,0.0,0.0
29.44934606552124,1.0356134,0.9303514,-3.9219074,-0.00265052946808404,nan,nan,nan,nan,nan,19.439478158950806,20.639478158950805,0.0003490447998046875,1.0,1.0,0.0,-4.0,0.7284348643275229,-0.013204086617915908,-0.021317962711795483,0.0020576661111031515,0.0,0.0,0.0,0.0
29.549514532089233,1.0308875,0.94098157,-3.9240682,-0.004007652144278829,nan,nan,nan,nan,nan,19.539654970169067,20.739654970169067,0.0003437995910644531,1.0,1.0,0.0,-4.0,0.7284125311115285,-0.013009491064539516,-0.018732937913410408,0.0029600770316590523,0.0,0.0,0.0,0.0
29.649404764175415,1.0266846,0.94844216,-3.9227643,-0.00499913427686147,nan,nan,nan,nan,nan,19.639572858810425,20.839572858810424,0.00034689903259277344,1.0,1.0,0.0,-4.0,0.7285149158146561,-0.012201819259706875,-0.01463238689778362,0.003964158047314515,0.0,0.0,0.0,0.0
29.74937677383423,1.0241367,0.9529996,-3.9206405,-0.005397864143712643,nan,nan,nan,nan,nan,19.739516258239746,20.939516258239745,0.00034546852111816406,1.0,1.0,0.0,-4.0,0.7287079685598686,-0.009304638251901616,-0.010252456066992743,0.004496426438957585,0.0,0.0,0.0,0.0
29.84942388534546,1.022994,0.95440906,-3.9179347,-0.004999566490840464,nan,nan,nan,nan,nan,19.839561700820923,21.039561700820922,0.0003674030303955078,1.0,1.0,0.0,-4.0,0.7289620439899235,-0.004204926910787903,-0.004513114791269718,0.004423408740473501,0.0,0.0,0.0,0.0
29.949528455734253,1.0199693,0.9548215,-3.9150858,-0.0035892024651735387,nan,nan,nan,nan,nan,19.93967604637146,21.13967604637146,0.00034689903259277344,1.0,1.0,0.0,-4.0,0.7293177839225224,0.0007215625977731923,-0.0002740401926556876,0.0034635062223274276,0.0,0.0,0.0,0.0
30.049481630325317,1.0195934,0.95833343,-3.9095914,-0.0028789309253282763,nan,nan,nan,nan,nan,20.039623260498047,21.239623260498046,0.0003452301025390625,1.0,1.0,0.0,-4.0,0.7296816336526815,0.002680514236882266,0.003715833725611194,0.002592586005358949,0.0,0.0,0.0,0.0
30.149484395980835,1.0236684,0.96220195,-3.9004788,-0.002610180210265022,nan,nan,nan,nan,nan,20.1396484375,21.3396484375,0.0003428459167480469,1.0,1.0,0.0,-4.0,0.7301438735923591,0.0030584913108594137,0.008186323435328942,0.0021783536011887143,0.0,0.0,0.0,0.0
30.24937605857849,1.027686,0.9670954,-3.889332,-0.0027209750055658104,nan,nan,nan,nan,nan,20.23954939842224,21.43954939842224,0.0003669261932373047,1.0,1.0,0.0,-4.0,0.7307440607870043,0.0023825551412126203,0.012279999235387298,0.002196354261694851,0.0,0.0,0.0,0.0
30.349297046661377,1.0292956,0.9726632,-3.88006,-0.00281532922458167,nan,nan,nan,nan,nan,20.33944797515869,21.53944797515869,0.0004718303680419922,1.0,1.0,0.0,-4.0,0.7313425379648691,0.000676887127135966,0.01372202168523025,0.0023052974482779954,0.0,0.0,0.0,0.0
30.449485301971436,1.0246234,0.98012877,-3.8762295,-0.0030110958157541588,nan,nan,nan,nan,nan,20.43960666656494,21.63960666656494,0.00037407875061035156,1.0,1.0,0.0,-4.0,0.7314452801555038,-0.0013570853254122424,0.010461385910176247,0.0024533135367224615,0.0,0.0,0.0,0.0
30.549445629119873,1.0220367,0.98570615,-3.878605,-0.0030399549472728948,nan,nan,nan,nan,nan,20.539600133895874,21.739600133895873,0.0003590583801269531,1.0,1.0,0.0,-4.0,0.7311158241465244,-0.002732370609827663,0.006035543262237336,0.0025480159904702634,0.0,0.0,0.0,0.0
30.64956045150757,1.0236108,0.98651856,-3.8871484,-0.0028489147963602197,nan,nan,nan,nan,nan,20.63969922065735,21.839699220657348,0.0004756450653076172,1.0,1.0,0.0,-4.0,0.7304475947710661,-0.001094557828048968,0.0037226804884696895,0.0024893157418469924,0.0,0.0,0.0,0.0
30.74948787689209,1.0300243,0.98537827,-3.8960893,-0.0022021381591360205,nan,nan,nan,nan,nan,20.739630460739136,21.939630460739135,0.0004487037658691406,1.0,1.0,0.0,-4.0,0.7296313957599245,0.0028465337076090014,0.00445594557115222,0.0020300084328818764,0.0,0.0,0.0,0.0
30.84941530227661,1.043226,0.98479843,-3.9032643,-0.0011836157867514657,nan,nan,nan,nan,nan,20.83955192565918,22.03955192565918,0.0003650188446044922,1.0,1.0,0.0,-4.0,0.7291953786681469,0.004977190718153773,0.009105503151600594,0.0012632572598001628,0.0,0.0,0.0,0.0
30.94938015937805,1.0602324,0.9838882,-3.9113886,-0.0003144834484198819,nan,nan,nan,nan,nan,20.939514636993408,22.139514636993407,0.00036025047302246094,1.0,1.0,0.0,-4.0,0.7287450353607132,0.006718908034510605,0.016524720487253848,0.00033710326729601475,0.0,0.0,0.0,0.0
31.049437761306763,1.0714484,0.9822411,-3.918057,0.0006515754420580075,nan,nan,nan,nan,nan,21.039686679840088,22.239686679840087,0.0003509521484375,1.0,1.0,0.0,-4.0,0.7284098872608934,0.007322817297624239,0.01978082181972573,-0.0004917022422267988,0.0,0.0,0.0,0.0
31.14933705329895,1.0765306,0.9814562,-3.9235148,0.0012988595619073465,nan,nan,nan,nan,nan,21.139580965042114,22.339580965042114,0.00038623809814453125,1.0,1.0,0.0,-4.0,0.7281330837260798,0.006286917366667306,0.017964897851716437,-0.0011261966693646647,0.0,0.0,0.0,0.0
31.249248266220093,1.0804054,0.9803891,-3.9297442,0.001769636905461286,nan,nan,nan,nan,nan,21.239403247833252,22.43940324783325,0.0004889965057373047,1.0,1.0,0.0,-4.0,0.7278908531151597,0.005122041456527344,0.012883917491956672,-0.0014846341779868168,0.0,0.0,0.0,0.0
31.349454402923584,1.0866092,0.97844654,-3.9381733,0.0023865860882070957,nan,nan,nan,nan,nan,21.33957529067993,22.53957529067993,0.0003695487976074219,1.0,1.0,0.0,-4.0,0.7275088702888662,0.0037525134475227886,0.008823739982585396,-0.001971144398108201,0.0,0.0,0.0,0.0
31.449501752853394,1.0943991,0.9793163,-3.939514,0.002760368136739774,nan,nan,nan,nan,nan,21.439648866653442,22.63964886665344,0.00034689903259277344,1.0,1.0,0.0,-4.0,0.7276079937985607,0.0015488122466981954,0.006463433202640794,-0.002300180956813507,0.0,0.0,0.0,0.0
31.549610376358032,1.0998391,0.97876453,-3.9418511,0.0028485695482728646,nan,nan,nan,nan,nan,21.53975558280945,22.739755582809448,0.0003452301025390625,1.0,1.0,0.0,-4.0,0.7277089733819836,-0.00015613043546291595,0.004227375097827607,-0.0024262093121296745,0.0,0.0,0.0,0.0
31.649571895599365,1.1050597,0.97366303,-3.9470282,0.003185254530678615,nan,nan,nan,nan,nan,21.639771699905396,22.839771699905395,0.0003476142883300781,1.0,1.0,0.0,-4.0,0.7276833223618709,0.0008403897349813792,0.0017593706880947933,-0.0025412269138748215,0.0,0.0,0.0,0.0
31.749478816986084,1.1092602,0.9671474,-3.952855,0.0038041599953470544,nan,nan,nan,nan,nan,21.739617824554443,22.939617824554443,0.0003521442413330078,1.0,1.0,0.0,-4.0,0.7274487649972744,0.005327731760477856,3.928956149924663e-05,-0.003015952728047678,0.0,0.0,0.0,0.0
31.849554538726807,1.112711,0.9628466,-3.9546459,0.004450595276461757,nan,nan,nan,nan,nan,21.839675664901733,23.039675664901733,0.0003540515899658203,1.0,1.0,0.0,-4.0,0.7275426031231181,0.007502735821001808,-0.0017063959702930348,-0.0035622559701641737,0.0,0.0,0.0,0.0
31.949706315994263,1.1143144,0.95328987,-3.9478536,0.005365701917094848,nan,nan,nan,nan,nan,21.939829111099243,23.139829111099242,0.00034236907958984375,1.0,1.0,0.0,-4.0,0.7281561050243245,0.011159515598535057,-0.0036060260827084478,-0.004252978036320688,0.0,0.0,0.0,0.0
32.04962754249573,1.1076537,0.94133484,-3.9440198,0.006226774105926662,nan,nan,nan,nan,nan,22.039772033691406,23.239772033691406,0.0003407001495361328,1.0,1.0,0.0,-4.0,0.728602928092636,0.014902792471725842,-0.007803013169835203,-0.004894958763018721,0.0,0.0,0.0,0.0
32.1499125957489,1.100707,0.9311203,-3.9386125,0.00661915631539377,nan,nan,nan,nan,nan,22.140329599380493,23.340329599380492,0.0004298686981201172,1.0,1.0,0.0,-4.0,0.7289147959230845,0.016944555997408683,-0.013370118417363583,-0.00528424216953834,0.0,0.0,0.0,0.0
