time,x,y,z,yaw,platform,trajectory,traj_double,traj_short,traj_spin,traj_time,ref_time,comptime,x_ref,y_ref,yaw_ref,z_ref,throttle_input,p_input,q_input,r_input,cbf_term_pitch_cbf,cbf_term_roll_cbf,cbf_term_thrust_cbf,cbf_term_yaw_cbf
10.044543981552124,-0.042044733,-0.05428723,-2.7067392,-0.0021257191319446938,SIM,HELIX,NormSpd,Not Short,NoSpin,0.04123854637145996,1.24123854637146,0.0009889602661132812,-0.5998545426205226,0.013210893138756128,0.0,-2.496495418548584,0.7361958266532279,-0.002831724153142965,0.015919999999999997,0.0006474411562541367,-4.458631974693725,0.0,35.78409998177051,0.0
10.14279294013977,-0.031694777,-0.061805204,-2.7173207,-0.002905479282122908,nan,nan,nan,nan,nan,0.13951444625854492,1.3395144462585449,0.00036454200744628906,-0.5848798988063342,-0.13384881012654662,0.0,-2.535805778503418,0.7293180894922654,-0.059392090274050784,0.08372939659302685,0.007104340936881965,-2.9541423539014233,0.0,21.364824228059707,0.0
10.243029594421387,-0.016408402,-0.069531664,-2.7332404,-0.0034890368819549735,nan,nan,nan,nan,nan,0.23974943161010742,1.4397494316101074,0.00037932395935058594,-0.5330554150481172,-0.2754122809314783,0.0,-2.575899772644043,0.7223059266134331,-0.10503183825937046,0.15221770542299315,0.014366105562424287,-0.7258085117340838,0.0,7.12083927098641,0.0
10.342860221862793,-0.0040338426,-0.076431386,-2.736629,-0.003898792857916787,nan,nan,nan,nan,nan,0.33963680267333984,1.5396368026733398,0.00035881996154785156,-0.44792926789257675,-0.3991984105244161,0.0,-2.615854721069336,0.7190472618047655,-0.1275117067339301,0.15469002492461598,0.01626329106620743,0.0,0.0,0.0,0.0
10.442863464355469,0.0022303762,-0.08091511,-2.7463,-0.004041607265105308,nan,nan,nan,nan,nan,0.4395918846130371,1.639591884613037,0.00036525726318359375,-0.3346363622805342,-0.4980145630798873,0.0,-2.655836753845215,0.7214090834751877,-0.1251293049513959,0.06752859959097116,0.009770445646244262,0.0,0.0,0.0,0.0
10.542748928070068,0.001629632,-0.08506514,-2.753543,-0.003907946917814958,nan,nan,nan,nan,nan,0.5394902229309082,1.7394902229309082,0.00037026405334472656,-0.20041646368767976,-0.5655380102901351,0.0,-2.6957960891723634,0.7238030856188272,-0.10093796352761976,-0.025245284996749974,0.0005326127757663497,0.2066293824091996,0.0,0.0,0.0
10.642633438110352,-0.0051921066,-0.09237599,-2.7592065,-0.0032148603085031605,nan,nan,nan,nan,nan,0.6393342018127441,1.839334201812744,0.00047516822814941406,-0.05371076182413598,-0.5975911261592418,0.0,-2.735733680725098,0.7262896997942716,-0.0628226230311591,-0.0993257232225058,-0.006137430350750431,0.28064895027554126,0.0,0.0,0.0
10.742671012878418,-0.014978841,-0.102661915,-2.7630253,-0.0017805113971639322,nan,nan,nan,nan,nan,0.739387035369873,1.939387035369873,0.0005135536193847656,0.0966701613626998,-0.5921611941879589,0.0,-2.775754814147949,0.7289322293091949,-0.00929960209057446,-0.1663227436626764,-0.00856268646791401,0.006696895607733899,0.0,0.0,0.0
10.843018770217896,-0.030296205,-0.12532204,-2.7749004,0.0009130759937822572,nan,nan,nan,nan,nan,0.8397204875946045,2.0397204875946047,0.00036907196044921875,0.2413580324361235,-0.549314391017169,0.0,-2.815888195037842,0.7311837099545749,0.048845538849032824,-0.20702962881715195,-0.0062960903563774135,0.0,0.0,0.0,0.0
10.942862749099731,-0.04375142,-0.14935902,-2.7879581,0.0031249280869194013,nan,nan,nan,nan,nan,0.9396107196807861,2.1396107196807863,0.00035262107849121094,0.370254022765936,-0.47213552993355806,0.0,-2.8558442878723147,0.7329182821044515,0.10784094074861093,-0.21609024414980937,-0.0005080047414752498,0.0,0.0,0.0,0.0
11.042833089828491,-0.058426708,-0.17923886,-2.8018987,0.005418996469707955,nan,nan,nan,nan,nan,1.03955078125,2.23955078125,0.0003523826599121094,0.4759821200749717,-0.3652957998238348,0.0,-2.8958203125,0.734353469716331,0.16077309645491053,-0.20107199304434575,0.005465298380555963,0.0,0.0,0.0,0.0
11.14291000366211,-0.0713206,-0.21466911,-2.8168688,0.008021854918256792,nan,nan,nan,nan,nan,1.1396310329437256,2.3396310329437258,0.00035572052001953125,0.5519211149683212,-0.23533610613784944,0.0,-2.9358524131774906,0.7357465040464424,0.20273655442444063,-0.16772870928488506,0.00832923987510261,0.0,0.0,0.0,0.0
11.242788553237915,-0.07696987,-0.24834251,-2.8345125,0.009953927659932697,nan,nan,nan,nan,nan,1.2394981384277344,2.4394981384277346,0.00034499168395996094,0.5930768858772901,-0.09088348275729569,0.0,-2.975799255371094,0.7364733178268502,0.22816166588789347,-0.11371947240174712,0.005761604924804768,0.0,0.0,0.0,0.0
11.342823266983032,-0.07454749,-0.2800609,-2.858641,0.0097586530642639,nan,nan,nan,nan,nan,1.3395640850067139,2.539564085006714,0.00034546852111816406,0.5970362241125946,0.05956296749974469,0.0,-3.015825634002686,0.7367169106869387,0.2367941075501222,-0.05014946804666046,-0.0010261312522221206,0.0,0.0,0.0,0.0
11.44265604019165,-0.067305304,-0.30770656,-2.877548,0.008768580794713203,nan,nan,nan,nan,nan,1.4393541812896729,2.639354181289673,0.00036334991455078125,0.5635752104918,0.20587127560474086,0.0,-3.0557416725158695,0.7366814108423094,0.22465222053444442,0.02015738826261565,-0.011240118636850774,0.0,0.0,0.0,0.0
11.542892932891846,-0.051408503,-0.33373007,-2.8977914,0.008363451199727992,nan,nan,nan,nan,nan,1.5396878719329834,2.7396878719329836,0.00042939186096191406,0.49438640754837304,0.33997364608365443,0.0,-3.0958751487731937,0.7368072530203712,0.19757035664880163,0.0886824834709936,-0.02296355162988685,0.0,0.0,0.0,0.0
11.642827987670898,-0.028548865,-0.35202488,-2.9164846,0.009273500437347176,nan,nan,nan,nan,nan,1.6395740509033203,2.8395740509033205,0.00034236907958984375,0.3944356954289892,0.45212883359884226,0.0,-3.1358296203613283,0.7369587442690649,0.1585107359222602,0.15072486502183763,-0.03427419837789666,0.0,0.0,0.0,0.0
11.742886304855347,0.004926085,-0.36407626,-2.933331,0.011888493422009538,nan,nan,nan,nan,nan,1.7396206855773926,2.9396206855773928,0.00034499168395996094,0.2695410780725706,0.5360481389124268,0.0,-3.1758482742309573,0.7372937461836943,0.10401074751656977,0.20301549483557577,-0.042462365206851066,0.0,0.0,0.0,0.0
11.842684268951416,0.039680112,-0.36378738,-2.9475074,0.013818049018726672,nan,nan,nan,nan,nan,1.8393795490264893,3.0393795490264894,0.00034999847412109375,0.12811846059925353,0.5861618036461242,0.0,-3.215751819610596,0.7377364979234553,0.04058166020504864,0.23996218010741857,-0.04418241910017871,0.0,0.0,0.0,0.0
11.942692518234253,0.0751097,-0.34794727,-2.9597833,0.01673920555213009,nan,nan,nan,nan,nan,1.9394190311431885,3.1394190311431887,0.0003962516784667969,-0.021738627889179997,0.5996060640599757,0.0,-3.2557676124572756,0.738351507256307,-0.025260348457014907,0.2597026309789393,-0.04014681136509337,0.0,0.17425229478706938,0.0,0.0
12.043017864227295,0.11134151,-0.31721425,-2.9731603,0.019305412438266993,nan,nan,nan,nan,nan,2.039722442626953,3.2397224426269533,0.0003459453582763672,-0.17061032981476365,0.5752322273312732,0.0,-3.2958889770507813,0.7389752599555224,-0.09711228022622301,0.26026797626725334,-0.030659987277292064,0.0,0.05151918871783745,0.0,0.0
12.142826080322266,0.15107739,-0.26813978,-2.989653,0.02345834351131111,nan,nan,nan,nan,nan,2.139539957046509,3.339539957046509,0.00036644935607910156,-0.3080686234647677,0.5148725310564967,0.0,-3.3358159828186036,0.7395580198782405,-0.16432094549278445,0.2445082995672539,-0.020565739674776602,0.0,0.1927432417538819,0.0,0.0
12.24293303489685,0.18599914,-0.21245997,-3.00559,0.02863283593596444,nan,nan,nan,nan,nan,2.239731788635254,3.439731788635254,0.0003674030303955078,-0.426637120316073,0.4218776689615233,0.0,-3.3758927154541016,0.7402573335081205,-0.22510325764512948,0.21193630904978134,-0.01309478974007416,0.0,0.3254265870305576,0.0,0.0
12.342795372009277,0.21384253,-0.14297283,-3.0235584,0.03128127616192847,nan,nan,nan,nan,nan,2.339512825012207,3.539512825012207,0.0003440380096435547,-0.5179836788136295,0.3028083692415034,0.0,-3.415805130004883,0.7409477533398569,-0.28007369123330017,0.1640155506733553,-0.010083948317925051,0.0,0.13281090114356808,0.0,0.0
12.4427649974823,0.22660886,-0.062186275,-3.0448332,0.03265593430372414,nan,nan,nan,nan,nan,2.4394752979278564,3.6394752979278566,0.0003745555877685547,-0.5770001327891074,0.16453220584843653,0.0,-3.4557901191711426,0.7414663975401878,-0.3206007817871789,0.10055639297383166,-0.012373952744729258,0.0,0.0,0.0,0.0
12.542755603790283,0.22450097,0.016337458,-3.0688214,0.03589222232529754,nan,nan,nan,nan,nan,2.5394670963287354,3.7394670963287355,0.00035858154296875,-0.5997897810624011,0.01588138952097518,0.0,-3.4957868385314943,0.741753097699434,-0.3365572016399715,0.027094309248835685,-0.024324248987327435,0.0,0.0,0.0,0.0
12.642974376678467,0.20868592,0.09332574,-3.0971425,0.040437882608866244,nan,nan,nan,nan,nan,2.6397128105163574,3.8397128105163576,0.0003561973571777344,-0.5848130966358113,-0.13414038170227982,0.0,-3.535885124206543,0.7415540449130176,-0.3266653371976071,-0.050189658595079296,-0.045291736152498076,0.04679007261575918,0.0,0.0,0.0
12.742782354354858,0.17263192,0.16977598,-3.1304135,0.04616732334218121,nan,nan,nan,nan,nan,2.7394955158233643,3.9394955158233644,0.00034618377685546875,-0.5332310635879215,-0.2750720502430117,0.0,-3.575798206329346,0.7411569999884356,-0.29567824742599996,-0.12188496757715771,-0.06913975253386696,0.15768610480026024,0.0,0.0,0.0
12.842674016952515,0.12902217,0.22487883,-3.16754,0.05084416247291314,nan,nan,nan,nan,nan,2.8393733501434326,4.039373350143433,0.00041294097900390625,-0.4481934902992546,-0.3989017363378755,0.0,-3.615749340057373,0.7402142356996357,-0.2411271965529941,-0.18672491988276715,-0.09010644701105658,0.2531222410726901,0.0,0.0,0.0
12.943034648895264,0.06834723,0.2726196,-3.2087045,0.05774404706084692,nan,nan,nan,nan,nan,2.9397544860839844,4.1397544860839846,0.0003485679626464844,-0.3344328146814021,-0.49815127467896225,0.0,-3.655901794433594,0.7391913438905527,-0.17167905115317603,-0.24536501049238615,-0.10511044315133507,0.17127964532968476,0.0,0.0,0.0
13.042896032333374,0.008245174,0.298536,-3.2437725,0.06498419590943247,nan,nan,nan,nan,nan,3.039613723754883,4.239613723754883,0.00035381317138671875,-0.20024091588722018,-0.5656001905981355,0.0,-3.6958454895019535,0.738584591590806,-0.09584023555601477,-0.29565065252858197,-0.11357695032359419,0.0,0.0,0.0,0.0
13.1428542137146,-0.07544978,0.3047091,-3.2868855,0.0778872055856259,nan,nan,nan,nan,nan,3.1395986080169678,4.339598608016968,0.00035452842712402344,-0.05331363558913412,-0.5976266863688978,0.0,-3.735839443206787,0.738164804898456,-0.010629909819191952,-0.3218143077020285,-0.11448891191600526,0.0,0.0,0.0,0.0
13.242876291275024,-0.13846862,0.29037258,-3.3204553,0.08735250377086562,nan,nan,nan,nan,nan,3.239607334136963,4.439607334136963,0.0003478527069091797,0.09699800912217355,-0.5921075799433196,0.0,-3.7758429336547854,0.7375357951359243,0.07060532648641307,-0.3208508636376353,-0.10607844710716006,0.0,-0.3941580347736877,0.0,0.0
13.342791318893433,-0.20274948,0.25082645,-3.358844,0.09681671588235954,nan,nan,nan,nan,nan,3.3395063877105713,4.5395063877105715,0.00039196014404296875,0.2410624159951275,-0.549444184239484,0.0,-3.8158025550842285,0.7373290899470359,0.14034853166741276,-0.3027551074497522,-0.09420271557925242,0.0,-0.8344175540313543,0.0,0.0
13.443105697631836,-0.25418496,0.19736932,-3.3981752,0.10259052823869202,nan,nan,nan,nan,nan,3.4398128986358643,4.639812898635864,0.0003669261932373047,0.37049388171949227,-0.4719473313924159,0.0,-3.8559251594543458,0.7368933728388322,0.20342303628677008,-0.2620477837386199,-0.08163674956958625,0.0,-1.3660437379519332,0.0,0.0
13.543249130249023,-0.29759252,0.13276063,-3.4400198,0.1045690924012184,nan,nan,nan,nan,nan,3.5399792194366455,4.739979219436646,0.0003514289855957031,0.47637518822161895,-0.3647830588813262,0.0,-3.8959916877746585,0.7364301586814282,0.26046648765457686,-0.2074633612418705,-0.072386915588943,0.0,-1.6054906588171218,0.0,0.0
13.64278531074524,-0.3347824,0.054552384,-3.4845195,0.10141195855042054,nan,nan,nan,nan,nan,3.639533758163452,4.839533758163452,0.0003483295440673828,0.5518635639300303,-0.2354710317776803,0.0,-3.935813503265381,0.73636181291497,0.3120555625682578,-0.1425350132728806,-0.06777940282414713,0.0,-1.4831322348371656,0.0,0.0
13.742732286453247,-0.35361916,-0.025822122,-3.5221007,0.09632773171431583,nan,nan,nan,nan,nan,3.739436149597168,4.939436149597168,0.00038051605224609375,0.5930627194944811,-0.09097588002218183,0.0,-3.9757744598388673,0.7364810339533452,0.3587117971864772,-0.06666006222167054,-0.07105483609684062,0.0,-0.9521890197191414,0.0,0.0
13.84289264678955,-0.35716334,-0.115775265,-3.562477,0.09084431538171425,nan,nan,nan,nan,nan,3.8396148681640625,5.039614868164063,0.00036978721618652344,0.5970286171093927,0.05963916793891467,0.0,-4.015845947265626,0.7366545169470539,0.3965598763810347,0.013883149104046035,-0.08314799812528093,-0.10654519915465499,0.0,0.0,0.0
13.943656921386719,-0.34110257,-0.19686958,-3.6042726,0.08749777401651826,nan,nan,nan,nan,nan,3.9403650760650635,5.140365076065064,0.0003643035888671875,0.5630503441101553,0.20730246018182133,0.0,-4.056146030426025,0.7363683808360802,0.3786409766864993,0.08905001118733019,-0.10129439271527829,-0.28556959662079984,0.0,0.0,0.0
14.043039560317993,-0.30380535,-0.2787082,-3.6534684,0.08584649467620517,nan,nan,nan,nan,nan,4.039761543273926,5.239761543273926,0.0003590583801269531,0.49432345082041174,0.34006517900102623,0.0,-4.095904617309571,0.7355093533290226,0.32942877675324816,0.1570295738901113,-0.12198284137552386,-0.6138056653954155,0.0,0.0,0.0
14.143055438995361,-0.25948596,-0.341539,-3.6951585,0.08368554185105176,nan,nan,nan,nan,nan,4.139827013015747,5.339827013015747,0.0003628730773925781,0.3941481688909686,0.4523795098806934,0.0,-4.135930805206299,0.7348949924823865,0.2672162463218769,0.21850907186544366,-0.13816485243616178,-0.7442334720490382,0.0,0.0,0.0
14.243472337722778,-0.20242424,-0.40276888,-3.738952,0.07839392363866812,nan,nan,nan,nan,nan,4.240396499633789,5.440396499633789,0.0003974437713623047,0.26849536179658423,0.5365726797869244,0.0,-4.176158599853516,0.7343550433167156,0.18628761677663308,0.2741100278148743,-0.14341634098750417,-0.7010699484085432,0.0,0.0,0.0
14.343073606491089,-0.13582444,-0.44298732,-3.7785301,0.07248049024257788,nan,nan,nan,nan,nan,4.3398542404174805,5.539854240417481,0.0003559589385986328,0.12741906121251198,0.5863142355765568,0.0,-4.215941696166992,0.7343024227250688,0.10297937114343149,0.32439453572889354,-0.13819188406496438,-0.43542084550486965,0.0,0.0,0.0
14.442962646484375,-0.054372832,-0.46768275,-3.8224418,0.06520288203036567,nan,nan,nan,nan,nan,4.439697742462158,5.639697742462158,0.00037169456481933594,-0.022158633345585776,0.5995906895276609,0.0,-4.255879096984864,0.734451465691865,0.013188775375782096,0.36701406412291726,-0.12231221615483029,0.0,0.0,0.0,0.0
14.54292917251587,0.020448847,-0.47105202,-3.8648455,0.057327234284559506,nan,nan,nan,nan,nan,4.539658308029175,5.739658308029175,0.00034809112548828125,-0.17051760716722728,0.5752597201664332,0.0,-4.2958633232116705,0.7343562707733671,-0.06780732666276895,0.3693555767494236,-0.09535768613762291,0.0,0.5136778099106881,0.0,0.0
14.642848491668701,0.08865381,-0.44947842,-3.9111688,0.05115870173092902,nan,nan,nan,nan,nan,4.639582395553589,5.839582395553589,0.00035881996154785156,-0.30812353781139434,0.5148396696512325,0.0,-4.335832958221435,0.7339930314389435,-0.13781807078103125,0.33958006942881536,-0.06536738014835941,0.0,1.212864725846396,0.0,0.0
14.743284463882446,0.1510734,-0.4143538,-3.9567206,0.04502378880841903,nan,nan,nan,nan,nan,4.740222454071045,5.940222454071045,0.00036144256591796875,-0.4271570455150661,0.4213512293406057,0.0,-4.376088981628418,0.7333640646253847,-0.20113453281961574,0.2856993708544542,-0.037451316240526875,0.0,2.0556560219069304,0.0,0.0
14.842854499816895,0.2044806,-0.3621979,-4.002645,0.0392449601812398,nan,nan,nan,nan,nan,4.839704275131226,6.039704275131226,0.0003581047058105469,-0.5181293201284229,0.30255909773672024,0.0,-4.41588171005249,0.7332660583920584,-0.2583968061402869,0.22085982312798683,-0.018477474462682057,0.0,2.656136390929234,0.0,0.0
14.942771911621094,0.23620309,-0.30535725,-4.0373616,0.03527585222571162,nan,nan,nan,nan,nan,4.9394989013671875,6.139498901367188,0.0007855892181396484,-0.5770098921390916,0.1644979768071139,0.0,-4.455799560546875,0.7335434229589216,-0.3101837797057569,0.136564726196626,-0.010979906831062163,0.0,3.014471176151591,0.0,0.0
15.04339337348938,0.25805387,-0.21654096,-4.077448,0.031934116813004274,nan,nan,nan,nan,nan,5.040335178375244,6.240335178375244,0.0006744861602783203,-0.5998230024289698,0.014572774516063508,0.0,-4.496134071350098,0.7347235763365765,-0.3570189903173227,0.044895828828119405,-0.017948490309219578,0.0,2.9098517778975714,0.0,0.0
15.143416166305542,0.26414543,-0.13546579,-4.1148124,0.029740585263135354,nan,nan,nan,nan,nan,5.140120029449463,6.340120029449463,0.0003685951232910156,-0.58467550402674,-0.13473883995002184,0.0,-4.536048011779785,0.7356680421428378,-0.399375915273685,-0.044322071654872626,-0.03737130526630173,0.34014382838639357,2.084576267260969,0.0,0.0
15.243182182312012,0.25915593,-0.029669212,-4.166313,0.026338687134549683,nan,nan,nan,nan,nan,5.239908456802368,6.439908456802368,0.00035452842712402344,-0.5329452973755276,-0.2756253072656979,0.0,-4.575963382720947,0.7366483552534624,-0.4376827589567122,-0.11657842712487904,-0.06100298155862458,0.56904780130436,0.618639402399783,0.0,0.0
15.343496561050415,0.23517907,0.0514395,-4.207445,0.024015653190110835,nan,nan,nan,nan,nan,5.340524911880493,6.540524911880493,0.00036215782165527344,-0.44703711726051687,-0.4001972211190463,0.0,-4.616209964752198,0.7365436891834897,-0.4180644415664586,-0.1819257798174172,-0.08633459577844976,1.0319557598420914,0.0,0.0,0.0
15.443320035934448,0.19100815,0.13497347,-4.2521234,0.022132185403733788,nan,nan,nan,nan,nan,5.440253257751465,6.640253257751465,0.0003764629364013672,-0.33380809459016075,-0.4985701114046913,0.0,-4.656101303100586,0.7360786085483088,-0.3403122189299993,-0.24102475424182704,-0.10583692181078656,1.3232074928369921,0.0,0.0,0.0
15.542804718017578,0.12754898,0.21570633,-4.299938,0.020110027197703093,nan,nan,nan,nan,nan,5.539536714553833,6.739536714553833,0.00035643577575683594,-0.2003503813562817,-0.5655614243301893,0.0,-4.695814685821533,0.735599956356308,-0.23886160247913896,-0.29447280736266707,-0.11494789251308879,1.3922387377470344,0.0,0.0,0.0
15.642895221710205,0.06276482,0.2748959,-4.3455095,0.018632627798077353,nan,nan,nan,nan,nan,5.639951467514038,6.839951467514038,0.000377655029296875,-0.05278361983996379,-0.5976737316267046,0.0,-4.735980587005615,0.7350697867394499,-0.12730351361768844,-0.34281026854927327,-0.11078223047299754,1.086020332425326,0.0,0.0,0.0
15.742837190628052,-0.015004216,0.31497717,-4.392533,0.01824342731209036,nan,nan,nan,nan,nan,5.739569187164307,6.939569187164307,0.00035071372985839844,0.0969412410732194,-0.5921168767896959,0.0,-4.775827674865723,0.7347693622215334,-0.013037816782072493,-0.38652580199787373,-0.09442247849522856,0.25169235681603835,0.0,0.0,0.0
15.842648267745972,-0.09048276,0.33131367,-4.4322267,0.01917960354541068,nan,nan,nan,nan,nan,5.839351415634155,7.0393514156341555,0.0003552436828613281,0.24084839617891243,-0.5495380333134783,0.0,-4.8157405662536625,0.7347699623558568,0.07021910963758402,-0.3982115612514137,-0.06941685728654232,0.0,-0.997132634602203,0.0,0.0
15.942923307418823,-0.1697331,0.32637435,-4.474694,0.02158267748873667,nan,nan,nan,nan,nan,5.939647197723389,7.139647197723389,0.0003464221954345703,0.37029730627444557,-0.4721015833122035,0.0,-4.8558588790893555,0.7344770250575106,0.1399992440722654,-0.3592866424954692,-0.04133764236131689,0.0,-2.0515745965275345,0.0,0.0
16.043054819107056,-0.23519133,0.30092615,-4.515939,0.025045396614678167,nan,nan,nan,nan,nan,6.039777040481567,7.239777040481568,0.00034999847412109375,0.4761897691001169,-0.3650250728434656,0.0,-4.895910816192627,0.7340337087064029,0.20310714684669587,-0.29792527217673426,-0.01904997794283945,0.0,-2.833913371291406,0.0,0.0
16.14276432991028,-0.2894121,0.252085,-4.5581503,0.02758636848768147,nan,nan,nan,nan,nan,6.1395087242126465,7.339508724212647,0.00038504600524902344,0.5518487476642764,-0.23550575301119456,0.0,-4.935803489685059,0.7335652698437575,0.26018080290728923,-0.21293502248678137,-0.005444699045657466,0.0,-3.6994977101065807,0.0,0.0
16.242894649505615,-0.32515222,0.19891115,-4.594941,0.028392807118209316,nan,nan,nan,nan,nan,6.239612102508545,7.439612102508545,0.0004532337188720703,0.5931028926670093,-0.09071360818546471,0.0,-4.975844841003418,0.7337608420399958,0.3117971944037074,-0.12726456639890177,-0.0044765650403975074,0.0,-4.028293359940937,0.0,0.0
16.34313201904297,-0.3496693,0.12367774,-4.6382594,0.02865490552051596,nan,nan,nan,nan,nan,6.339841604232788,7.539841604232788,0.00044226646423339844,0.5969945348014678,-0.05997937493154676,0.0,-4.9840633583068845,0.7307508972238017,0.35847813364970493,-0.02515463113788777,-0.018378585777916893,0.0,-1.083981728616223,0.0,0.0
16.442887544631958,-0.3528366,0.04523914,-4.6771393,0.028228411381115266,nan,nan,nan,nan,nan,6.439629793167114,7.639629793167114,0.00036644935607910156,0.5634324706935091,-0.20626160808111624,0.0,-4.944148082733154,0.7243796191079446,0.3302644352246088,0.05766336905650079,-0.03433643844301511,-0.5244468881067741,0.0,0.0,0.0
16.54305648803711,-0.33545247,-0.043328807,-4.7178626,0.026553386928026237,nan,nan,nan,nan,nan,6.539802312850952,7.739802312850952,0.00035119056701660156,0.4942886034051219,-0.3401158281289098,0.0,-4.904079074859619,0.7186952318168107,0.22943502086004575,0.12864405735227308,-0.04290528395451227,-1.0613762806540328,0.0,0.0,0.0
16.64282989501953,-0.29891887,-0.13179299,-4.747833,0.025506139445046195,nan,nan,nan,nan,nan,6.639543294906616,7.839543294906616,0.0003681182861328125,0.3944706430184731,-0.45209834305888835,0.0,-4.864182682037353,0.7148730512578876,0.13730560203722464,0.19283771951875683,-0.04690243819551881,-1.7548175099254242,0.0,0.0,0.0
16.742921590805054,-0.24804701,-0.22377841,-4.7808466,0.02465672852545077,nan,nan,nan,nan,nan,6.7396838665008545,7.939683866500855,0.00042724609375,0.2694559550654424,-0.5360909328460707,0.0,-4.824126453399658,0.7127620438680293,0.07328668567094715,0.25089331691129557,-0.047921458638111813,-2.248859494272828,0.0,0.0,0.0
16.84281063079834,-0.1933453,-0.30212083,-4.811864,0.023009783949515007,nan,nan,nan,nan,nan,6.839526176452637,8.039526176452636,0.00035572052001953125,0.12790244253695188,-0.5862089774074445,0.0,-4.784189529418946,0.7119573142411982,0.03641560354668242,0.3033977585470356,-0.04777433026958556,-2.460307366231212,0.0,0.0,0.0
16.94353437423706,-0.12748292,-0.3786477,-4.8432937,0.019442811223448025,nan,nan,nan,nan,nan,6.940474271774292,8.140474271774291,0.0007767677307128906,-0.02332877019563652,-0.5995463021995542,0.0,-4.743810291290283,0.7120052052354029,0.023877511506480015,0.35088183442074466,-0.04701346245561524,-2.2569030191134525,0.0,0.0,0.0
17.042891263961792,-0.06041244,-0.4422259,-4.8663588,0.015983798052786893,nan,nan,nan,nan,nan,7.039654493331909,8.239654493331908,0.0003707408905029297,-0.1705120919258987,-0.5752613549570785,0.0,-4.704138202667236,0.7131937873974916,0.028994222250738787,0.3938255814892852,-0.04763512110751962,-1.4537005612820095,0.0,0.0,0.0
17.142687797546387,0.014412141,-0.5046352,-4.881844,0.012563692353460762,nan,nan,nan,nan,nan,7.139391660690308,8.339391660690307,0.00037860870361328125,-0.30787670424262736,-0.5149873153629104,0.0,-4.664243335723877,0.7149588439759811,0.045301474189560736,0.4319286888278957,-0.04964058870755923,0.0,0.0,0.0,0.0
17.2426700592041,0.07538474,-0.5545358,-4.893097,0.009346453885917986,nan,nan,nan,nan,nan,7.239387035369873,8.439387035369872,0.0005168914794921875,-0.4262714203149745,-0.4222471743216931,0.0,-4.624245185852051,0.7159673888279731,0.0703887911591712,0.4035796941644624,-0.05084866194061255,0.0,0.0,0.0,0.0
17.34325408935547,0.14384049,-0.6141489,-4.904377,0.003997401551700856,nan,nan,nan,nan,nan,7.3399879932403564,8.539987993240356,0.0003993511199951172,-0.5183449315953552,-0.30218956283996057,0.0,-4.584004802703857,0.7158378300527528,0.09909314656672254,0.32405191312859055,-0.04619716268060161,0.0,0.0,0.0,0.0
17.44320511817932,0.18787959,-0.65627337,-4.909486,-0.0009343134250917248,nan,nan,nan,nan,nan,7.439948081970215,8.639948081970214,0.000354766845703125,-0.5771952284821842,-0.16384647758618154,0.0,-4.544020767211914,0.7153493792303715,0.12660970512202813,0.22614352414971664,-0.034741509160848456,0.0,0.0,0.0,0.0
17.543031454086304,0.23054716,-0.69594425,-4.909919,-0.007189828961493658,nan,nan,nan,nan,nan,7.539836406707764,8.739836406707763,0.0003609657287597656,-0.5998042634562541,-0.01532467094917377,0.0,-4.5040654373168945,0.7149394532691684,0.14003505449604833,0.11744341386972831,-0.01571933311505513,0.0,0.0,0.0,0.0
17.64293932914734,0.24869229,-0.7138464,-4.9070234,-0.011028323929969747,nan,nan,nan,nan,nan,7.639693021774292,8.839693021774291,0.0004076957702636719,-0.5848197673218223,0.13411129612992914,0.0,-4.464122791290284,0.7144464173215287,0.13479538516092301,0.005680839049377169,0.007362412401524201,0.0,0.0,0.0,0.0
17.742940187454224,0.25232655,-0.7215708,-4.89332,-0.014395509908965806,nan,nan,nan,nan,nan,7.739695072174072,8.939695072174072,0.00042128562927246094,-0.5330930369442086,0.2753394522432275,0.0,-4.424121971130371,0.714407265833146,0.11532901193415147,-0.07333863623436129,0.02864456796704299,0.7844115989783409,0.0,0.0,0.0
17.842960357666016,0.23731586,-0.71523404,-4.869957,-0.016999970508358067,nan,nan,nan,nan,nan,7.839697599411011,9.03969759941101,0.00036144256591796875,-0.4478682655987482,0.3992668489488817,0.0,-4.384120960235596,0.7152710253944741,0.07529763446179351,-0.142820488008904,0.046173517957786125,1.5755113723980714,0.0,0.0,0.0
17.94345450401306,0.20689327,-0.6951317,-4.8463707,-0.018909813049004347,nan,nan,nan,nan,nan,7.9402265548706055,9.140226554870605,0.0003886222839355469,-0.33384155370594215,0.4985477078667622,0.0,-4.343909378051758,0.71646883272661,0.0229829372353388,-0.20565862929221912,0.056580675660439714,2.2008565256843413,0.0,0.0,0.0
18.042917013168335,0.15454833,-0.6539546,-4.8202395,-0.019721860083788054,nan,nan,nan,nan,nan,8.039644718170166,9.239644718170165,0.0003504753112792969,-0.20019685646044333,0.5656157871411976,0.0,-4.304142112731934,0.717970878900196,-0.03902260156741658,-0.26248831789572,0.05733696393746205,2.7788708758068523,0.0,0.0,0.0
18.142669677734375,0.0935938,-0.598601,-4.787269,-0.020274475002043976,nan,nan,nan,nan,nan,8.139382362365723,9.339382362365722,0.0003859996795654297,-0.0536384285996394,0.5975976229682991,0.0,-4.264247055053711,0.7203284212305542,-0.10516113456320612,-0.31388406959705833,0.04754241387764901,3.0310392208367958,0.0,0.0,0.0
18.242896795272827,0.02008903,-0.52130115,-4.7493525,-0.021643159525403625,nan,nan,nan,nan,nan,8.239630222320557,9.439630222320556,0.0003581047058105469,0.09703206952361894,0.592101999223076,0.0,-4.2241479110717775,0.7235309851136972,-0.17040939699490015,-0.36036546616735204,0.02866108514551667,2.8023661930655868,0.14785034280209364,0.0,0.0
18.343044996261597,-0.05086324,-0.43681526,-4.712148,-0.0238796082048241,nan,nan,nan,nan,nan,8.339830875396729,9.539830875396728,0.0003616809844970703,0.2415104220773075,0.5492474087586038,0.0,-4.1840676498413085,0.7270479870153032,-0.23059437933233456,-0.4024024080469013,0.005158824648213682,2.1356550449093574,0.01749219559187032,0.0,0.0
18.442755937576294,-0.12765594,-0.33332518,-4.6689596,-0.027109554436046002,nan,nan,nan,nan,nan,8.4394850730896,9.639485073089599,0.0003688335418701172,0.370104911307374,0.4722524268081222,0.0,-4.14420597076416,0.731058187654797,-0.2838648861652533,-0.4404198647709526,-0.018884847984780097,0.34685126960331203,0.0,0.0,0.0
18.542917013168335,-0.19135869,-0.23625107,-4.635723,-0.03167065779409989,nan,nan,nan,nan,nan,8.539659261703491,9.73965926170349,0.0003905296325683594,0.4760816970378581,0.3651660139519463,0.0,-4.104136295318604,0.7338362643524564,-0.32392415436833133,-0.42745431424446934,-0.035038834614385034,0.0,0.0,0.0,0.0
18.643383026123047,-0.25633907,-0.11524511,-4.5941887,-0.03746085555237738,nan,nan,nan,nan,nan,8.640101432800293,9.840101432800292,0.0004334449768066406,0.5521989538426977,0.2346834365161507,0.0,-4.063959426879883,0.735032050839486,-0.3491432970128166,-0.3351790121413546,-0.03391452447719542,0.0,0.0,0.0,0.0
18.74302101135254,-0.29856366,-0.0058481004,-4.5579176,-0.04260227121469236,nan,nan,nan,nan,nan,8.739810705184937,9.939810705184936,0.00040912628173828125,0.5931480978407705,0.0904175537596309,0.0,-4.024075717926026,0.7350537088489102,-0.358768949949765,-0.222852697231973,-0.017157198534198954,0.0,0.0,0.0,0.0
18.84304404258728,-0.32232836,0.104770124,-4.5216937,-0.04784434445084556,nan,nan,nan,nan,nan,8.839851140975952,10.039851140975951,0.0004191398620605469,0.5969930970173477,-0.05999368394785961,0.0,-3.9840595436096193,0.7342662636144117,-0.34383562558647424,-0.09696925310497416,0.014356974146871116,0.0,0.0,0.0,0.0
18.942940711975098,-0.32679537,0.19675052,-4.4914646,-0.05183604132501986,nan,nan,nan,nan,nan,8.939678430557251,10.13967843055725,0.0003921985626220703,0.5634072532519508,-0.20633048001468945,0.0,-3.9441286277770997,0.7329929449614666,-0.30828544955280424,0.017706652910680694,0.05177800224960112,-0.5196301294959915,0.0,0.0,0.0
19.042969942092896,-0.3082976,0.28592363,-4.4559565,-0.05608250554888309,nan,nan,nan,nan,nan,9.039776802062988,10.239776802062988,0.00037980079650878906,0.49431040912063706,-0.34008413581787134,0.0,-3.904089279174805,0.7318773710649512,-0.25659198084742296,0.0925079194937785,0.08555771942397303,-1.3150733259115477,0.0,0.0,0.0
19.143519639968872,-0.27254322,0.34711936,-4.424424,-0.059051897414751545,nan,nan,nan,nan,nan,9.140483379364014,10.340483379364013,0.0007643699645996094,0.39340137477824094,-0.4530290921371275,0.0,-3.8638066482543945,0.7306287818941507,-0.18411577073007498,0.16015684417948722,0.11313619344239607,-2.2015994656376323,0.0,0.0,0.0
19.24297857284546,-0.21727222,0.38778606,-4.387268,-0.06074745552195343,nan,nan,nan,nan,nan,9.239791631698608,10.439791631698608,0.0003516674041748047,0.2693107484487052,-0.5361638935717308,0.0,-3.824083347320557,0.7295998085189163,-0.10350470049335524,0.22133731905886286,0.12882464890347545,-2.8644839146285976,0.0,0.0,0.0
19.342841863632202,-0.1499486,0.40293333,-4.347858,-0.061182522412268764,nan,nan,nan,nan,nan,9.33957839012146,10.53957839012146,0.00034737586975097656,0.12782551483641166,-0.5862257566473912,0.0,-3.784168643951416,0.7292632082405355,-0.008122581327745225,0.27666784388029664,0.1293951748578121,-3.32974943814828,0.0,0.0,0.0
19.442675590515137,-0.080339484,0.39526454,-4.3102536,-0.06074307264621423,nan,nan,nan,nan,nan,9.439379453659058,10.639379453659057,0.0003654956817626953,-0.021678985526147606,-0.5996082234147203,0.0,-3.7442482185363772,0.7296043153844757,0.07120834666315512,0.3267077787296311,0.11720350001503983,-3.4106631782285444,-0.4221869280148285,0.0,0.0
19.543728351593018,-0.008659452,0.3645977,-4.26842,-0.06059837315848815,nan,nan,nan,nan,nan,9.540438890457153,10.740438890457153,0.0003590583801269531,-0.17164583295881783,-0.5749240889264196,0.0,-3.7038244438171386,0.7312129650611019,0.1408938923061269,0.3719629988419775,0.09247914213101198,-3.042176776676788,-1.3538504096461055,0.0,0.0
19.643160343170166,0.08150636,0.30013475,-4.217287,-0.06106896753925204,nan,nan,nan,nan,nan,9.63992428779602,10.83992428779602,0.0003654956817626953,-0.30856580973637715,-0.5145747186383468,0.0,-3.664030284881592,0.7332998727898015,0.20391625067283847,0.41289100871216156,0.061769062318194366,-2.200668355847155,-1.992722926418146,0.0,0.0
19.74297070503235,0.15296614,0.2358316,-4.1783037,-0.06209589109310854,nan,nan,nan,nan,nan,9.739870548248291,10.93987054824829,0.00036978721618652344,-0.4267842203860764,-0.4217288574777033,0.0,-3.624051780700684,0.7358919318319617,0.2609125419044736,0.44990556720453945,0.02589038516927484,-0.433094186812271,-2.846829942726899,0.0,0.0
19.843090057373047,0.22793585,0.15535949,-4.1362853,-0.0639447410284119,nan,nan,nan,nan,nan,9.839861631393433,11.039861631393432,0.0005588531494140625,-0.5182489355036186,-0.30235416459735776,0.0,-3.584055347442627,0.7379122153511001,0.3124589660363459,0.43021896378060853,-0.002755509807498904,0.0,-3.3415057980809917,0.0,0.0
19.943055868148804,0.29565513,0.05673352,-4.089085,-0.0662475770382281,nan,nan,nan,nan,nan,9.939789056777954,11.139789056777953,0.00038313865661621094,-0.5771296972227731,-0.16407715436205692,0.0,-3.5440843772888186,0.7388949409329634,0.3590766280520125,0.3305246954463142,-0.010935558085717353,0.0,-3.5819606935455957,0.0,0.0
20.04297161102295,0.3424579,-0.04730573,-4.050144,-0.06843885117787754,nan,nan,nan,nan,nan,10.039725065231323,11.239725065231323,0.0003666877746582031,-0.5997999516442669,-0.01549251456462187,0.0,-3.504109973907471,0.7391541533292088,0.4012368059578002,0.2049018317312075,0.0034878708397505656,0.0,-3.394036411929181,0.0,0.0
20.143067359924316,0.3703692,-0.16561638,-4.0110497,-0.07063155027579852,nan,nan,nan,nan,nan,10.139878511428833,11.339878511428832,0.0003998279571533203,-0.584757182919254,0.13438391653891496,0.0,-3.464048595428467,0.7390969437200732,0.43936571513497685,0.06881177987459988,0.03794428022269707,0.0,-2.31047024728448,0.0,0.0
20.242727041244507,0.3729507,-0.2716447,-3.9757717,-0.07220111248051005,nan,nan,nan,nan,nan,10.239435911178589,11.439435911178588,0.0004448890686035156,-0.533272264171121,0.27499216764447343,0.0,-3.4242256355285647,0.7387592132701308,0.47384881713445415,-0.04453930588864528,0.08425622283089312,0.8410628634080852,-0.28126993944485684,0.0,0.0
20.34288740158081,0.34904566,-0.37413704,-3.9377966,-0.07280202086979201,nan,nan,nan,nan,nan,10.339616537094116,11.539616537094116,0.000370025634765625,-0.4479495996665843,0.3991755956450079,0.0,-3.384153385162354,0.7376457724234153,0.42872306183529096,-0.11677488987198129,0.12519811021772667,1.9677581269183306,0.0,0.0,0.0
20.44343900680542,0.29611078,-0.4526578,-3.9013515,-0.0728750189005473,nan,nan,nan,nan,nan,10.440145492553711,11.64014549255371,0.00048828125,-0.3339431168104872,0.4984796833722487,0.0,-3.3439418029785157,0.7359628456991854,0.3202636183524552,-0.1821034572043035,0.15619258162473626,2.954895835280854,0.0,0.0,0.0
20.54406428337097,0.22146577,-0.5134868,-3.8619661,-0.07157624718881513,nan,nan,nan,nan,nan,10.541173696517944,11.741173696517944,0.0009419918060302734,-0.1980218683112531,0.5663809139355958,0.0,-3.3035305213928225,0.7344520411516923,0.19691719357780232,-0.24118544248566143,0.1708693559649276,3.842659564374025,0.0,0.0,0.0
20.643035411834717,0.13321555,-0.54959196,-3.8229067,-0.06938552648069994,nan,nan,nan,nan,nan,10.639838933944702,11.839838933944701,0.00048828125,-0.05295265641809769,0.597658779052284,0.0,-3.2640644264221192,0.7336159287633799,0.06826050869753957,-0.2946181309300556,0.16664022374647475,4.297375994343799,0.0,0.0,0.0
20.742709159851074,0.050657995,-0.5585104,-3.7883677,-0.06732242040528345,nan,nan,nan,nan,nan,10.739427328109741,11.93942732810974,0.0004515647888183594,0.09673012707719404,0.5921514016834123,0.0,-3.2242290687561037,0.7337840878412683,-0.03997595260342408,-0.3429416965786957,0.14634739523968812,4.431362678845675,1.078526878064415,0.0,0.0
20.842939615249634,-0.04517867,-0.5444,-3.7474597,-0.06550546318156222,nan,nan,nan,nan,nan,10.839696168899536,12.039696168899535,0.0003476142883300781,0.24132445813858625,0.5493291416847623,0.0,-3.1841215324401855,0.7349657433988667,-0.1126478749588947,-0.386644663151837,0.11657036424641579,4.128979055018153,2.0437142592580484,0.0,0.0
20.942933559417725,-0.15211716,-0.5018005,-3.6951962,-0.0644355096317997,nan,nan,nan,nan,nan,10.939661979675293,12.139661979675292,0.00036787986755371094,0.37031484511071083,0.4720878260351883,0.0,-3.144135208129883,0.7373552575763759,-0.17837105889361393,-0.42616884274529504,0.07793402748066644,3.192751661412742,3.321140530272977,0.0,0.0
21.043028831481934,-0.2453269,-0.43866336,-3.6510417,-0.0645605540210354,nan,nan,nan,nan,nan,11.039849996566772,12.239849996566772,0.00038051605224609375,0.4762566915962045,0.36493775319886784,0.0,-3.1040600013732913,0.7401076378889251,-0.23780992835668063,-0.4619138022990472,0.03340564819992131,1.3413081913933764,4.618653377667154,0.0,0.0
21.14299201965332,-0.33934548,-0.34660125,-3.6071482,-0.06620898630581483,nan,nan,nan,nan,nan,11.139740705490112,12.339740705490112,0.00041413307189941406,0.5519859613801207,0.2351839672240943,0.0,-3.064103717803955,0.7423315577449137,-0.29156537645786645,-0.46807213537937725,-0.008364789977334941,0.0,5.576604608154517,0.0,0.0
21.24305534362793,-0.41408104,-0.2422724,-3.5672855,-0.06910091807701076,nan,nan,nan,nan,nan,11.239851713180542,12.439851713180541,0.00036454200744628906,0.593157413515445,0.09035642086574333,0.0,-3.0240593147277837,0.7428248947721836,-0.3401808401546449,-0.36505877691264843,-0.025281689441689712,0.0,6.424955214800933,0.0,0.0
21.342798471450806,-0.47453657,-0.11506966,-3.5233793,-0.07222272233354265,nan,nan,nan,nan,nan,11.33955693244934,12.53955693244934,0.00036072731018066406,0.5970372947401267,-0.059552234965541975,0.0,-2.984177227020264,0.742780250983036,-0.3841477940902526,-0.22848311022353543,-0.010304987352778005,0.0,6.750614765646383,0.0,0.0
21.44289803504944,-0.5052135,0.008405262,-3.4837487,-0.0738507183446897,nan,nan,nan,nan,nan,11.439697265625,12.639697265625,0.0003757476806640625,0.5633974854127312,-0.2063571501804852,0.0,-2.94412109375,0.7428353797326165,-0.423910719122354,-0.07386684678961647,0.032198896826020465,0.0,6.226544750850517,0.0,0.0
21.542805671691895,-0.5136576,0.1436982,-3.4438062,-0.07422753814285613,nan,nan,nan,nan,nan,11.539618015289307,12.739618015289306,0.00036025047302246094,0.4944460887258011,-0.339886841969143,0.0,-2.9041527938842777,0.7430035868625551,-0.45987159577130543,0.04282881013198772,0.08894239734866542,-1.2522414461231515,4.788364041775855,0.0,0.0
21.644114017486572,-0.5020981,0.2548051,-3.4129639,-0.07339391903934293,nan,nan,nan,nan,nan,11.641383647918701,12.8413836479187,0.0003561973571777344,0.39237533521515916,-0.4539180502191904,0.0,-2.86344654083252,0.7426688289197158,-0.4923939680142198,0.11522794817028156,0.14161889299963656,-2.7343509121531677,1.9829115310441576,0.0,0.0
21.743451356887817,-0.4645703,0.3846971,-3.3763428,-0.0705998802139611,nan,nan,nan,nan,nan,11.740196943283081,12.94019694328308,0.0005085468292236328,0.2687644405774473,-0.5364379511938839,0.0,-2.8239212226867676,0.7408447386767217,-0.4826628146668452,0.18070443085820267,0.18987554031277462,-4.00730919453622,0.0,0.0,0.0
21.844558715820312,-0.41907528,0.47202918,-3.34851,-0.0668320610501579,nan,nan,nan,nan,nan,11.84128212928772,13.041282129287719,0.0003933906555175781,0.12531415332795146,-0.5867677248926517,0.0,-2.7834871482849124,0.7379610914009356,-0.35668743344975695,0.23992018813578278,0.21292275145534073,-4.757052404169426,0.0,0.0,0.0
21.94298219680786,-0.32988974,0.56077284,-3.3103414,-0.061104491374033565,nan,nan,nan,nan,nan,11.939832925796509,13.139832925796508,0.00036263465881347656,-0.022362344664030715,-0.5995831264646522,0.0,-2.7440668296813966,0.7356035881552796,-0.21401330725308948,0.29347385757569844,0.21291473943989617,-5.293339240556472,0.0,0.0,0.0
22.043605089187622,-0.24920893,0.60048366,-3.2791893,-0.05688861902724256,nan,nan,nan,nan,nan,12.040693044662476,13.240693044662475,0.0006961822509765625,-0.17201303596084475,-0.5748143312927515,0.0,-2.70372278213501,0.7340300839878219,-0.06068207524026628,0.34190683626810503,0.1910987296620284,-5.5165567053756135,0.0,0.0,0.0
22.14314866065979,-0.14238584,0.6177566,-3.242055,-0.052658846858789396,nan,nan,nan,nan,nan,12.139912128448486,13.339912128448486,0.0005402565002441406,-0.30855008430543873,-0.5145841480993236,0.0,-2.6640351486206058,0.7336819807233952,0.05371327032901659,0.38570875403680077,0.15233386554852282,-5.175876237487648,-1.8749538197391442,0.0,0.0
22.243399143218994,-0.035923522,0.6055191,-3.204294,-0.04980430027476719,nan,nan,nan,nan,nan,12.24013090133667,13.44013090133667,0.0004551410675048828,-0.4270600825044609,-0.4214495057907685,0.0,-2.623947639465332,0.7343887586157056,0.12507165886862132,0.42532242331781894,0.10724888591654766,-4.307198205187143,-3.8743654340686895,0.0,0.0
22.342902183532715,0.071111076,0.5674653,-3.1601276,-0.04872397977395937,nan,nan,nan,nan,nan,12.339640617370605,13.539640617370605,0.00039386749267578125,-0.5180809072481889,-0.30264198906446116,0.0,-2.584143753051758,0.736361499387408,0.18960690636535343,0.4611483157408986,0.056121765308419364,-2.7032864358560103,-5.871312244047333,0.0,0.0
22.443683385849,0.18130863,0.5024753,-3.1127286,-0.049437936965040424,nan,nan,nan,nan,nan,12.440771102905273,13.640771102905273,0.0003619194030761719,-0.5775329061540152,-0.1626522127402436,0.0,-2.5436915588378906,0.738731567316962,0.24797142740765485,0.4935486106695256,0.0015628624898762263,-0.3205613118834547,-7.711518361559275,0.0,0.0
22.542891025543213,0.27575496,0.41856697,-3.0710895,-0.052307298366558924,nan,nan,nan,nan,nan,12.53969669342041,13.73969669342041,0.0005145072937011719,-0.5997988454080224,-0.015535283943435363,0.0,-2.504121322631836,0.7401731110297572,0.3007552540547865,0.4297569246148497,-0.04058792018898894,0.0,-9.477201299259534,0.0,0.0
22.642906665802002,0.35721108,0.30305335,-3.026396,-0.05644421334331586,nan,nan,nan,nan,nan,12.639624834060669,13.839624834060668,0.00038051605224609375,-0.584842741978941,0.13401107101487442,0.0,-2.4641500663757325,0.7402812934199057,0.34849200072482434,0.2874335259406564,-0.04160021027630904,0.0,-10.941106368492768,0.0,0.0
22.742915153503418,0.4066888,0.18136634,-2.9845552,-0.05960073254590677,nan,nan,nan,nan,nan,12.739631175994873,13.939631175994872,0.0003936290740966797,-0.533137246451071,0.2752538400214791,0.0,-2.4241475296020507,0.7407517678399012,0.39166425873244287,0.12377384080222548,-0.0049213873285970594,0.0,-11.633059351581228,0.0,0.0
22.843464136123657,0.42647943,0.04922659,-2.9365318,-0.06121761131664623,nan,nan,nan,nan,nan,12.840542078018188,14.040542078018188,0.0004069805145263672,-0.4470198510518635,0.4002165073626645,0.0,-2.383783168792725,0.7424727182446765,0.43070847501218834,-0.024755072771227463,0.06039621239422513,1.3913303793140408,-10.944041601441647,0.0,0.0
22.942984580993652,0.42303556,-0.06638892,-2.8984196,-0.06075339961450811,nan,nan,nan,nan,nan,12.939794540405273,14.139794540405273,0.0004887580871582031,-0.33438266534886035,0.49818493866654784,0.0,-2.344082183837891,0.744574844900414,0.46601936434835706,-0.09888238407279305,0.11802400136811451,3.0145355726175653,-9.02681843793559,0.0,0.0
23.04387331008911,0.39394864,-0.19921681,-2.8568964,-0.058397103405074494,nan,nan,nan,nan,nan,13.04065990447998,14.24065990447998,0.0004317760467529297,-0.198753070818062,0.5661247361142158,0.0,-2.303736038208008,0.7457656272400055,0.49795389971660764,-0.16592179568252657,0.17606216021766313,4.718214181638003,-5.471144675407544,0.0,-0.02711939464493751
23.143149852752686,0.3430345,-0.31378978,-2.820163,-0.05450399332020009,nan,nan,nan,nan,nan,13.139964580535889,14.339964580535888,0.0004858970642089844,-0.0527639225061473,0.5976754708717477,0.0,-2.2640141677856445,0.7450835377278313,0.5268349210773882,-0.22655103786150674,0.2280608381274502,5.956018892926618,-1.0576171884022891,0.0,0.0
23.243279218673706,0.26424414,-0.4238385,-2.7791226,-0.0483131297621827,nan,nan,nan,nan,nan,13.240122318267822,14.440122318267822,0.00042557716369628906,0.0977642903064135,0.591981539864955,0.0,-2.2239510726928713,0.7421534523655109,0.43381345985946873,-0.28138303770954404,0.2529399760459903,6.812547759660904,0.0,0.0,0.0
23.343018770217896,0.17898412,-0.5081155,-2.737677,-0.041022985620386226,nan,nan,nan,nan,nan,13.339813470840454,14.539813470840453,0.0005307197570800781,0.24148639643492717,0.549257972483671,0.0,-2.1840746116638186,0.7395023360936815,0.23734087566780918,-0.3309721155089945,0.23201003017329813,7.0329913152476715,0.0,0.0,0.0
23.443283557891846,0.081990674,-0.56757206,-2.6973,-0.03383586451713419,nan,nan,nan,nan,nan,13.440052270889282,14.640052270889282,0.0004286766052246094,0.3707777419882544,0.47172435388274303,0.0,-2.143979091644287,0.7382795353650508,0.045761298493350235,-0.3758195885870347,0.1867568186329194,6.759889869626162,0.0,0.0,0.0
23.542970180511475,-0.028629566,-0.59965694,-2.649403,-0.027926305462425735,nan,nan,nan,nan,nan,13.53973126411438,14.73973126411438,0.00042557716369628906,0.4761477703400815,0.3650798553743673,0.0,-2.104107494354248,0.7385511142634931,-0.06515264535618359,-0.41637883934825404,0.1321700874809445,5.7912030496924345,2.658746821581002,0.0,0.0
23.64284062385559,-0.14021398,-0.5957832,-2.5992856,-0.02457230019418584,nan,nan,nan,nan,nan,13.63961672782898,14.839616727828979,0.00038313865661621094,0.5519126536491447,0.23535594902606394,0.0,-2.0641533088684083,0.7395990527020394,-0.13541722459249447,-0.45305989871248803,0.0763715786606399,3.9886787045838656,5.207381742762723,0.0,0.0
23.742733478546143,-0.24001133,-0.56196254,-2.5540643,-0.023884545432415957,nan,nan,nan,nan,nan,13.739487886428833,14.939487886428832,0.00035881996154785156,0.5930745439690115,0.09089876399571696,0.0,-2.024204845428467,0.7410364118143228,-0.19896325056184988,-0.48623359129383525,0.016818076821860744,1.4783533602008574,7.228376720542091,0.0,0.0
23.84274697303772,-0.33662972,-0.50183475,-2.5127866,-0.026099140379450866,nan,nan,nan,nan,nan,13.839498043060303,15.039498043060302,0.0005445480346679688,0.5970461022399961,0.05946386970277123,0.0,-2.015799217224121,0.7442316091187419,-0.25643313738657886,-0.467025147471425,-0.023344085355187883,0.0,6.472235658932921,0.0,0.0
23.943331241607666,-0.42440766,-0.41122034,-2.4667406,-0.030506639590285767,nan,nan,nan,nan,nan,13.94011902809143,15.14011902809143,0.00055694580078125,0.5631784293866138,0.20695423811467809,0.0,-2.056047611236572,0.7466272912031338,-0.3084078728836483,-0.306289839306216,-0.016166991833959046,0.0,4.542482441683051,0.0,0.0
24.04322123527527,-0.4889067,-0.3030411,-2.4302683,-0.03339218668934484,nan,nan,nan,nan,nan,14.039992332458496,15.239992332458495,0.0004980564117431641,0.49412611746456825,0.34035184741586416,0.0,-2.095996932983398,0.7467824794439121,-0.3554128920205219,-0.1309299805552049,0.0073289798496307245,0.0,2.0837361070561866,0.0,0.0
24.142935276031494,-0.5222138,-0.20221421,-2.4050395,-0.03378754229745594,nan,nan,nan,nan,nan,14.139730453491211,15.33973045349121,0.00036597251892089844,0.3942579409936663,0.45228384446433056,0.0,-2.135892181396484,0.7461168399836307,-0.38637201603453203,0.01926480291991793,0.03275077433314169,-0.9885776650623009,0.0,0.0,0.0
24.242851734161377,-0.53412306,-0.08586814,-2.3803596,-0.03275740762175139,nan,nan,nan,nan,nan,14.23964524269104,15.43964524269104,0.00042724609375,0.26950799333372116,0.5360647736320965,0.0,-2.1758580970764156,0.7457414066335479,-0.33616366048850854,0.09391708243230747,0.0516875630354751,-2.3781906041708147,0.0,0.0,0.0
24.34310483932495,-0.5186329,0.039678026,-2.3566253,-0.030926908090575994,nan,nan,nan,nan,nan,14.33996033668518,15.53996033668518,0.0005171298980712891,0.12726271657747845,0.5863481908979684,0.0,-2.215984134674072,0.7458429014505735,-0.27172940343157964,0.16143126588185958,0.06798776356659779,-3.7077910963030387,0.0,0.0,0.0
24.442811250686646,-0.484999,0.15550366,-2.3324075,-0.02880127689213315,nan,nan,nan,nan,nan,14.439573287963867,15.639573287963866,0.000457763671875,-0.02197108733017849,0.5995975911572107,0.0,-2.2558293151855464,0.7471016980586683,-0.22000237344998255,0.2224898832024906,0.0812869311067184,-4.637531930135059,0.0,0.0,0.0
24.543074131011963,-0.4268906,0.27844718,-2.304523,-0.026497379379986957,nan,nan,nan,nan,nan,14.539883613586426,15.739883613586425,0.00040411949157714844,-0.17084332329021282,0.5751630715607147,0.0,-2.29595344543457,0.7495537227866138,-0.1826311938147029,0.27771020223209136,0.09333250804764202,-5.272657777933622,0.0,0.0,0.0
24.642769813537598,-0.35636103,0.3849857,-2.281053,-0.024439353180529026,nan,nan,nan,nan,nan,14.639512777328491,15.83951277732849,0.00043654441833496094,-0.30803345176123303,0.5148935740481329,0.0,-2.335805110931396,0.7528432539691686,-0.15871145408215329,0.3276504689387299,0.1042410592001377,-5.368807763071076,0.0,0.0,0.0
24.742910623550415,-0.26643088,0.48828033,-2.2616658,-0.02218361697266094,nan,nan,nan,nan,nan,14.739729404449463,15.939729404449462,0.0004858970642089844,-0.42663459236997925,0.4218802254115516,0.0,-2.375891761779785,0.7562225214879289,-0.14251283407165116,0.37281555096937274,0.1126194878861727,-4.868296426776876,0.0,0.0,0.0
24.843270301818848,-0.16738711,0.5688776,-2.250338,-0.01972121499992572,nan,nan,nan,nan,nan,14.840054035186768,16.040054035186767,0.00047850608825683594,-0.518395082336398,0.3021035230007078,0.0,-2.416021614074707,0.759049959945973,-0.12810991240359948,0.41366204157418845,0.11601190964192623,-3.6975510710695003,0.0,0.0,0.0
24.942853689193726,-0.07036638,0.6319662,-2.2476149,-0.017071227567430854,nan,nan,nan,nan,nan,14.939613103866577,16.139613103866576,0.0003693103790283203,-0.5770570829398803,0.16433235539271016,0.0,-2.4558452415466308,0.7607865526760369,-0.11422651089062386,0.45060287550419936,0.11322165113681701,-1.6570304117191608,0.0,0.0,0.0
25.043262481689453,0.024129232,0.68276566,-2.255063,-0.014458144265601484,nan,nan,nan,nan,nan,15.040032863616943,16.240032863616943,0.0004429817199707031,-0.5998117569003631,0.015028515698484757,0.0,-2.496013145446777,0.7609993469391788,-0.10371605373064548,0.46434442753737065,0.10424282790261478,0.0,0.0,0.0,0.0
25.14318537712097,0.11657886,0.7221047,-2.2697117,-0.011769954344883496,nan,nan,nan,nan,nan,15.140009641647339,16.340009641647338,0.0003936290740966797,-0.5847128627690007,-0.13457662543131252,0.0,-2.5360038566589354,0.7577641590359371,-0.08749272728734078,0.3597694435478458,0.080939389761273,0.0,0.0,0.0,0.0
25.243261575698853,0.18071733,0.74122787,-2.2798383,-0.008549597974313969,nan,nan,nan,nan,nan,15.240015506744385,16.440015506744384,0.0005407333374023438,-0.5328711222427877,-0.2757686840083769,0.0,-2.5760062026977537,0.7539770600961345,-0.06829136777048932,0.2230932545396803,0.0509438687361914,0.0,0.0,0.0,0.0
25.343751192092896,0.24006534,0.7426108,-2.2883577,-0.003982492499030307,nan,nan,nan,nan,nan,15.340560913085938,16.540560913085937,0.0006346702575683594,-0.4470009052267086,-0.4002376678006495,0.0,-2.6162243652343746,0.7500441988929234,-0.031107199418099155,0.07711802382689295,0.018033142758167465,0.0,0.0,0.0,0.0
25.44318389892578,0.27431706,0.7296152,-2.2979386,0.0009172773516726851,nan,nan,nan,nan,nan,15.440028190612793,16.640028190612792,0.00046706199645996094,-0.3340900600550339,-0.4983812112955542,0.0,-2.656011276245117,0.7471610423114969,0.010764106558385712,-0.033259177081804495,-0.007626201813932917,0.853805106366464,0.0,0.0,0.0
25.54342222213745,0.2881111,0.7000546,-2.311496,0.006235781702908436,nan,nan,nan,nan,nan,15.540205955505371,16.74020595550537,0.00045299530029296875,-0.1993988320232448,-0.5658976106927522,0.0,-2.6960823822021482,0.7449731655812712,0.06146951949816988,-0.10657334357528406,-0.02400858116223365,1.7816663086023332,0.0,0.0,0.0
25.64387083053589,0.2801887,0.6577533,-2.32836,0.0104762513653638,nan,nan,nan,nan,nan,15.640905857086182,16.84090585708618,0.0004954338073730469,-0.0513498636873928,-0.5977986211921922,0.0,-2.7363623428344725,0.7432932553147782,0.11761064165259921,-0.17287736159619807,-0.03023588271223944,2.6929012674064143,0.0,0.0,0.0
25.74323058128357,0.24869062,0.593945,-2.3518243,0.013944843332343256,nan,nan,nan,nan,nan,15.74010181427002,16.94010181427002,0.0004036426544189453,0.0977337840849887,-0.5919865770846741,0.0,-2.7760407257080075,0.7425938085018159,0.1708462411783403,-0.23284152699537344,-0.025633163195825627,3.3455797698048997,0.0,0.0,0.0
25.843202352523804,0.20467293,0.5185813,-2.3769906,0.016080499721159845,nan,nan,nan,nan,nan,15.8400239944458,17.0400239944458,0.0005013942718505859,0.24177697695113004,-0.5491301243024032,0.0,-2.81600959777832,0.7427024724785887,0.22319486838655825,-0.2870720433252508,-0.01038523443147776,3.6807236751875854,0.0,0.0,0.0
25.943241834640503,0.14422517,0.42454898,-2.4091172,0.01777151519764661,nan,nan,nan,nan,nan,15.940082311630249,17.14008231163025,0.00040030479431152344,0.37081335641116614,-0.4716963585900208,0.0,-2.8560329246520992,0.74371886769535,0.26746428975605435,-0.33611715021246413,0.011713705766896648,3.497845134252796,0.0,0.0,0.0
26.043261766433716,0.08364499,0.32865325,-2.438437,0.0194013726663506,nan,nan,nan,nan,nan,16.040117979049683,17.240117979049682,0.0004482269287109375,0.47650237403918777,-0.3646169051689978,0.0,-2.8960471916198727,0.7451966059696938,0.3001310253967824,-0.3804726657481508,0.03608411090352018,2.586351972525275,0.0,0.0,0.0
26.143254280090332,0.017527355,0.21827865,-2.4699898,0.02178669188873126,nan,nan,nan,nan,nan,16.140029191970825,17.340029191970824,0.00048542022705078125,0.5521563353803437,-0.23478369044580036,0.0,-2.93601167678833,0.7471507764361838,0.3211358019447551,-0.42058699892640034,0.055549076876182615,0.9056582696181306,0.0,0.0,0.0
26.2444965839386,-0.038251594,0.122123405,-2.5008664,0.024356212767637282,nan,nan,nan,nan,nan,16.241252660751343,17.441252660751342,0.0003819465637207031,0.5934718779378386,-0.08826737844150087,0.0,-2.9765010643005367,0.7477631715007904,0.3259860880637561,-0.412529546478452,0.06294108564611949,0.0,0.0,0.0,0.0
26.3435537815094,-0.100688554,0.0077944,-2.533848,0.0272813434114581,nan,nan,nan,nan,nan,16.340389728546143,17.540389728546142,0.0004942417144775391,0.5969113415696459,0.06080172946163215,0.0,-3.0161558914184567,0.7470607539157998,0.3223774693778893,-0.3202782335908954,0.05202153777756128,0.0,0.0,0.0,0.0
26.443187475204468,-0.14384983,-0.07772219,-2.566035,0.029404229831791095,nan,nan,nan,nan,nan,16.439958095550537,17.639958095550536,0.0009238719940185547,0.5632620896000626,0.20672643377026323,0.0,-3.0559832382202146,0.7448575852099413,0.29581262920370255,-0.19641179221450572,0.024787134354647817,0.0,0.0,0.0,0.0
26.543557167053223,-0.17986748,-0.1610073,-2.6056118,0.03178987691423698,nan,nan,nan,nan,nan,16.540375232696533,17.740375232696532,0.0004897117614746094,0.4937983568108355,0.34082720374248116,0.0,-3.096150093078613,0.7422418155047781,0.2573765948085424,-0.07347559675045809,-0.007785201893839896,0.0,0.0,0.0,0.0
26.643322229385376,-0.2014211,-0.23346363,-2.65047,0.03452672168687163,nan,nan,nan,nan,nan,16.640167713165283,17.840167713165282,0.0005381107330322266,0.3937606641419358,0.4527168423799822,0.0,-3.136067085266113,0.7393615642097277,0.1978892196702871,0.03381827148258614,-0.040637276233145815,-0.5452115759311998,0.0,0.0,0.0
26.742738008499146,-0.20366691,-0.27939647,-2.6920264,0.03695424651732168,nan,nan,nan,nan,nan,16.739497661590576,17.939497661590575,0.00048041343688964844,0.26970680751941134,0.5359647730753274,0.0,-3.17579906463623,0.7367087764458566,0.12229156980632908,0.10707897852958875,-0.06475792309828814,-1.1788228329144512,0.0,0.0,0.0
26.843294143676758,-0.18755102,-0.3076979,-2.7334428,0.03902997143964303,nan,nan,nan,nan,nan,16.840116500854492,18.04011650085449,0.00044274330139160156,0.1270325748700033,0.586398094234537,0.0,-3.2160466003417967,0.7346754122812127,0.03605612180486014,0.1733346487853691,-0.07815467019361101,-1.7753653376669953,0.0,0.0,0.0
26.942772388458252,-0.15265222,-0.31057188,-2.7669423,0.04044019201833739,nan,nan,nan,nan,nan,16.93952465057373,18.13952465057373,0.0004265308380126953,-0.02189779289988192,0.5996002724033019,0.0,-3.255809860229492,0.7337013826430291,-0.04739547723669967,0.2332550893323909,-0.07924890203109393,-2.150371053201413,0.3229812116694557,0.0,0.0
27.042720317840576,-0.09960519,-0.29017177,-2.800217,0.04143278762533037,nan,nan,nan,nan,nan,17.03956151008606,18.23956151008606,0.0004780292510986328,-0.17037765307269176,0.5753011866261372,0.0,-3.2958246040344235,0.733877830610775,-0.11935796004231543,0.2874460616897482,-0.06843012365425923,-2.2440545202077855,1.055838215175957,0.0,0.0
27.143378734588623,-0.037895262,-0.24734615,-2.8328476,0.04202658435560058,nan,nan,nan,nan,nan,17.140206336975098,18.340206336975097,0.00042939186096191406,-0.3089304971671021,0.5143558572817919,0.0,-3.3360825347900387,0.7353157820319859,-0.1844395395648436,0.3364554057170397,-0.047679902186609946,-1.9152224227237629,1.5317843163049103,0.0,0.0
27.24265480041504,0.02189141,-0.18425046,-2.8715155,0.0427840276584809,nan,nan,nan,nan,nan,17.239736080169678,18.439736080169677,0.0005228519439697266,-0.4266416705804366,0.4218730673133024,0.0,-3.375894432067871,0.7369206443634124,-0.2432981534982782,0.38077857796326203,-0.019160413276712883,-0.7872515887789557,2.429553796970694,0.0,0.0
27.34307074546814,0.078745455,-0.10382527,-2.906866,0.043773990457852865,nan,nan,nan,nan,nan,17.339919328689575,18.539919328689574,0.0004591941833496094,-0.5182927741664334,0.3022790105959433,0.0,-3.41596773147583,0.7389244216448421,-0.29652882889953985,0.4014134273226318,0.010007896315426673,0.0,2.9315677495711503,0.0,0.0
27.44292974472046,0.12978208,-0.01073323,-2.9414935,0.04507701309308104,nan,nan,nan,nan,nan,17.439675092697144,18.639675092697143,0.0004343986511230469,-0.5770826780833765,0.16424245083448424,0.0,-3.4558700370788573,0.7403085191201456,-0.3446696975730531,0.3414691556964638,0.026138227879712525,0.0,3.281425930934838,0.0,0.0
27.542831659317017,0.17093909,0.091843374,-2.9777029,0.04628256474579724,nan,nan,nan,nan,nan,17.539583444595337,18.739583444595336,0.0005753040313720703,-0.599794399377257,0.015706001263069935,0.0,-3.4958333778381347,0.7413565470282257,-0.3882074362767313,0.2465899285928447,0.02291120264445545,0.0,3.1969897871437833,0.0,0.0
27.642967462539673,0.19980477,0.20726144,-3.0231369,0.04717440108074843,nan,nan,nan,nan,nan,17.639898538589478,18.839898538589477,0.00042748451232910156,-0.5847504181327863,-0.13441334938737126,0.0,-3.5359594154357907,0.7417185387422908,-0.4275821867467549,0.1321155081680643,0.00010822067424817758,0.0,2.2757605828196716,0.0,0.0
27.742918968200684,0.21005373,0.31691542,-3.0666122,0.047665497633753155,nan,nan,nan,nan,nan,17.739673852920532,18.93967385292053,0.0005154609680175781,-0.5331077199842743,-0.27531102210621455,0.0,-3.575869541168213,0.7415944949158781,-0.4631920052797887,0.014162048689185889,-0.036753403563507044,0.0,0.5179954670490409,0.0,0.0
27.843005418777466,0.21181087,0.42578223,-3.1166584,0.0477334588863956,nan,nan,nan,nan,nan,17.839762449264526,19.039762449264526,0.0005338191986083984,-0.4478031849598673,-0.3993398396601557,0.0,-3.6159049797058103,0.7404945672092582,-0.43785775942103466,-0.06971620314298158,-0.07531413514566718,0.7734462958040121,0.0,0.0,0.0
27.94271206855774,0.19557637,0.5136883,-3.1653383,0.04728761007557758,nan,nan,nan,nan,nan,17.93941879272461,19.13941879272461,0.0005686283111572266,-0.3348529805715783,-0.49786893998554493,0.0,-3.6557675170898434,0.7384350140825232,-0.3416636031376679,-0.13954442445314144,-0.10474548965094299,1.338177876953777,0.0,0.0,0.0
28.0426287651062,0.15631154,0.58888423,-3.2193868,0.04636214576502887,nan,nan,nan,nan,nan,18.039341688156128,19.239341688156127,0.0005786418914794922,-0.20062756992397687,-0.5654631536947388,0.0,-3.695736675262451,0.736310789709848,-0.22911187218850115,-0.20269581613579782,-0.1231487848847034,1.7397607409659877,0.0,0.0,0.0
28.14280104637146,0.097976476,0.63745004,-3.2714987,0.04504987521247639,nan,nan,nan,nan,nan,18.139604091644287,19.339604091644286,0.000423431396484375,-0.05330539917755958,-0.5976274210731306,0.0,-3.7358416366577147,0.734330530852406,-0.09637913067846059,-0.2598088027854524,-0.12645715793135445,2.015595251979179,0.0,0.0,0.0
