time,x,y,z,yaw,platform,trajectory,traj_double,traj_short,traj_spin,traj_time,ref_time,comptime,x_ref,y_ref,yaw_ref,z_ref,throttle_input,p_input,q_input,r_input,cbf_term_pitch_cbf,cbf_term_roll_cbf,cbf_term_thrust_cbf,cbf_term_yaw_cbf
10.093542098999023,-0.05145933,-0.016700068,-2.6730964,0.000625885623221334,SIM,FIG8_VERTICAL,DblSpd,Short,NoSpin,0.08997631072998047,1.2899763107299804,0.0003802776336669922,0.0,0.33180621223155243,0.0,-5.211173055226307,0.7821843052538299,0.054347721674408,0.004211656834478734,-0.0007344666697449565,0.0,-1.8468495835807714,-117.2008902989073,0.0
10.193737745285034,-0.04427124,-0.024306796,-2.6840038,0.00040190598928819014,nan,nan,nan,nan,nan,0.19017648696899414,1.390176486968994,0.0004699230194091797,0.0,0.3410218121363224,0.0,-5.153491500429042,0.79098090118331,0.11001538000689978,0.006212485924874651,-0.0008015913654398505,0.0,0.0,-85.70164661167475,0.0
10.29361343383789,-0.038211823,-0.03182842,-2.7073166,0.00025117392687872735,nan,nan,nan,nan,nan,0.29001855850219727,1.4900185585021972,0.0003941059112548828,0.0,0.3470248904544332,0.0,-5.090302173014765,0.7997685768485336,0.10074387211240395,0.00686133178239203,-0.0006849342323915199,0.0,0.0,-49.22498429479693,0.0
10.393759489059448,-0.03029518,-0.037380785,-2.747963,0.000141065886023398,nan,nan,nan,nan,nan,0.3902149200439453,1.5902149200439453,0.0003905296325683594,0.0,0.34980215906086887,0.0,-5.023519612300608,0.8076346646228878,0.07513988974675428,0.008215260866188552,-0.0006277597786875149,0.0,0.0,-8.541381260164098,0.0
10.4938383102417,-0.025834683,-0.0404466,-2.8102982,-3.5403206434359014e-05,nan,nan,nan,nan,nan,0.4903404712677002,1.6903404712677002,0.00036907196044921875,0.0,0.3493021031880369,0.0,-4.955904814257819,0.8009036831396313,0.047730823124785535,0.008862653074336107,-0.0004749501448197364,0.0,0.0,0.0,0.0
10.593477487564087,-0.022471074,-0.039383132,-2.8919322,-0.0002090125585521279,nan,nan,nan,nan,nan,0.5898690223693848,1.7898690223693847,0.0003819465637207031,0.0,0.345564630619759,0.0,-4.890320647393068,0.783279407301934,0.02017305649928597,0.008420188587277094,-0.00022701050049463357,0.0,0.0,0.0,0.0
10.693906784057617,-0.015288943,-0.033942275,-2.9989994,-0.00018875728598940003,nan,nan,nan,nan,nan,0.6903860569000244,1.8903860569000244,0.0005323886871337891,0.0,0.33854634125596145,0.0,-4.828201731221239,0.7687578605352614,-0.004644175648187287,0.008331919302556057,-6.879810617692983e-05,0.0,0.0,6.781465927311833,0.0
10.79349684715271,-0.005562799,-0.024615156,-3.1070628,-4.9406798535399366e-05,nan,nan,nan,nan,nan,0.7898879051208496,1.9898879051208496,0.0004019737243652344,0.0,0.3284531981570577,0.0,-4.773072670622876,0.758387693382782,-0.025933580421300204,0.010352837813254908,-0.00011589278832307741,0.0,0.0,13.556858463918964,0.0
10.893537044525146,0.0048914216,-0.009814807,-3.2233343,1.9961512997417746e-05,nan,nan,nan,nan,nan,0.8899483680725098,2.08994836807251,0.00037288665771484375,0.0,0.31524176556386796,0.0,-4.726079642186966,0.7488870788432741,-0.044797469120305994,0.012605284179920276,-6.466189169335351e-05,0.0,0.0,18.351378857742407,0.0
10.993393659591675,0.022988044,0.0045214817,-3.3330667,-0.0001645730674069059,nan,nan,nan,nan,nan,0.9898552894592285,2.1898552894592287,0.00038933753967285156,0.0,0.2991104265851464,0.0,-4.689352973210708,0.7401912891366009,-0.06028382628355691,0.01669195795539531,0.00021169363286613563,0.0,0.0,23.01572423952516,0.0
11.093602657318115,0.042445075,0.023707943,-3.4565265,0.02375719220825952,nan,nan,nan,nan,nan,1.0900461673736572,2.2900461673736574,0.0003802776336669922,0.0,0.28013398432802555,0.0,-4.664125379034024,0.7322392475682353,-0.07114398463012195,0.022064725061576976,-0.015061679498723468,0.0,0.0,25.118237349720186,0.0
11.193399906158447,0.055507686,0.04266245,-3.5636601,0.023980359365923087,nan,nan,nan,nan,nan,1.189793348312378,2.389793348312378,0.00040411949157714844,0.0,0.2586331841333191,0.0,-4.651487582477513,0.7249734770972299,-0.07880912344842161,0.02549165793627657,-0.019234673439525486,0.0,0.0,26.685081071940804,0.0
11.293307781219482,0.06561722,0.06596438,-3.6811285,0.020694068466007208,nan,nan,nan,nan,nan,1.2896919250488281,2.4896919250488283,0.00043582916259765625,0.0,0.2346917841469663,0.0,-4.651780201624686,0.7183400298639743,-0.08309628713818824,0.023702313001256428,-0.01737792426514513,0.0,0.0,25.702582831733707,0.0
11.393757343292236,0.0791904,0.097849056,-3.8059487,0.012446270582614365,nan,nan,nan,nan,nan,1.390230417251587,2.590230417251587,0.00036835670471191406,0.0,0.2083896669334039,0.0,-4.665146925766999,0.7122883991032652,-0.08764350377025452,0.020463826458119904,-0.011891866846458946,0.0,0.0,22.81812087108917,0.0
11.494136810302734,0.0882486,0.12824997,-3.92006,0.004930316669554587,nan,nan,nan,nan,nan,1.490966558456421,2.690966558456421,0.0007398128509521484,0.0,0.18006353889096532,0.0,-4.691187420189386,0.7067714153329275,-0.08951337159495379,0.015173697699168294,-0.004805433653071053,0.0,0.0,18.38019239842201,0.0
11.593534469604492,0.097686775,0.16291979,-4.0382504,0.001265011576301692,nan,nan,nan,nan,nan,1.5899157524108887,2.789915752410889,0.0004544258117675781,0.0,0.15057736612501912,0.0,-4.7281405236991985,0.7017451290220232,-0.08723865397439094,0.00837502013053078,-0.0012291162753637896,0.0,0.0,12.52004347953527,0.0
11.693615674972534,0.10537709,0.19231026,-4.139023,-7.16852593921416e-05,nan,nan,nan,nan,nan,1.6901147365570068,2.890114736557007,0.0006515979766845703,0.0,0.11931724245883543,0.0,-4.775660379233978,0.6971686821175834,-0.08133163048576596,0.0023199904536364965,5.287151751052964e-07,0.0,0.0,4.2300448793207845,0.0
11.79342246055603,0.111029305,0.21697655,-4.2390704,0.00018249043839510884,nan,nan,nan,nan,nan,1.7898201942443848,2.989820194244385,0.0004620552062988281,0.0,0.08710038086438865,0.0,-4.831279607792714,0.6954790442702653,-0.0671209998676279,-0.0030716178709667683,-0.0002862344968878638,0.0,0.0,0.0,0.0
11.893614530563354,0.11547652,0.23726816,-4.322989,-0.0006934214069475274,nan,nan,nan,nan,nan,1.890014410018921,3.090014410018921,0.0003681182861328125,0.0,0.05391168657465882,0.0,-4.893463429488482,0.6987344999606229,-0.051733593931781716,-0.006718444744044724,-0.00020513918065159252,0.0,0.0,0.0,0.0
11.993789434432983,0.11772842,0.25407648,-4.412779,-0.00030437899058987153,nan,nan,nan,nan,nan,1.990537405014038,3.1905374050140383,0.0006964206695556641,0.0,0.020106628188433423,0.0,-4.959853154683275,0.7021509662609008,-0.03510529113065985,-0.00931315849428081,-0.00014490375896662557,0.0,0.0,0.0,0.0
12.09338092803955,0.11623208,0.25924754,-4.4940844,0.002606182797692671,nan,nan,nan,nan,nan,2.089775323867798,3.289775323867798,0.0005223751068115234,0.0,-0.013453685554249261,0.0,-5.0268874850714775,0.7051243292099878,-0.01671610577188819,-0.011411740596552755,-0.0022362307492343387,0.0,0.0,0.0,0.0
12.194316864013672,0.11198039,0.25649557,-4.5815406,0.005360271882396076,nan,nan,nan,nan,nan,2.191007614135742,3.3910076141357424,0.0004067420959472656,0.0,-0.047558867752575056,0.0,-5.094235514965453,0.7075527742218447,0.0038581640573444823,-0.014366544542302531,-0.004712911591665595,0.0,0.0,0.0,0.0
12.294490337371826,0.10607914,0.24912812,-4.661842,0.007187796674504976,nan,nan,nan,nan,nan,2.2909467220306396,3.49094672203064,0.0003864765167236328,0.0,-0.0807833633862522,0.0,-5.157204252796351,0.7092735411621042,0.020333508024197405,-0.016797410540127747,-0.006508524697384982,0.0,0.0,0.0,0.0
12.39378571510315,0.09031221,0.23448564,-4.742263,0.007694103928003387,nan,nan,nan,nan,nan,2.3902101516723633,3.5902101516723635,0.00039839744567871094,0.0,-0.1130381996419533,0.0,-5.213961071448751,0.7108127516605415,0.03236418839863427,-0.02165437941911077,-0.0074787915022203845,0.0,0.0,0.0,0.0
12.493722438812256,0.07849381,0.21432358,-4.805677,0.008237108090250144,nan,nan,nan,nan,nan,2.49021577835083,3.6902157783508303,0.00036644935607910156,0.0,-0.1444818547775443,0.0,-5.263193721689692,0.7120206664725922,0.04360511693837832,-0.025586021397066047,-0.00754399874676674,0.0,0.0,0.0,0.0
12.593661785125732,0.06973844,0.18762058,-4.868419,0.010195726736478446,nan,nan,nan,nan,nan,2.590101718902588,3.790101718902588,0.00044226646423339844,0.0,-0.17454127281302073,0.0,-5.302578043342226,0.7129012687706573,0.051558625845000164,-0.025302104608685948,-0.008273011771025447,0.0,0.0,0.0,0.0
12.693708181381226,0.06425346,0.15600471,-4.9284453,0.01395687315798174,nan,nan,nan,nan,nan,2.690155029296875,3.890155029296875,0.0008482933044433594,0.0,-0.20302088681805733,0.0,-5.330751064260733,0.7129088904975042,0.059734999339188195,-0.020636170170121374,-0.011012355644079493,0.0,0.0,0.0,0.0
12.79372501373291,0.06126995,0.120631486,-4.9854174,0.017825415119715346,nan,nan,nan,nan,nan,2.790168523788452,3.9901685237884523,0.0003600120544433594,0.0,-0.22959276223745279,0.0,-5.346583527707455,0.7127798517459452,0.06327897806505742,-0.013789093576208078,-0.014045011118052368,0.0,0.0,0.0,0.0
12.89381194114685,0.05007293,0.08718396,-5.0298266,0.01755022429846184,nan,nan,nan,nan,nan,2.8902928829193115,4.090292882919312,0.0003981590270996094,0.0,-0.2540462155744546,0.0,-5.349494880924695,0.7123984232244567,0.062256535977591274,-0.01067037351312156,-0.015031714126581133,0.0,0.0,0.0,0.0
12.993845462799072,0.038571242,0.046816044,-5.0774174,0.013800409096097538,nan,nan,nan,nan,nan,2.9903311729431152,4.190331172943115,0.0005006790161132812,0.0,-0.2761039145807907,0.0,-5.339366087278718,0.7115024311574252,0.05858396465129907,-0.010697873412379747,-0.012945065292382013,0.0,0.0,0.0,0.0
13.09374451637268,0.029031988,0.006846737,-5.120773,0.009433452059278166,nan,nan,nan,nan,nan,3.0902960300445557,4.290296030044556,0.0003657341003417969,0.0,-0.2955684272756901,0.0,-5.316604129103065,0.7099981646120377,0.05586730356636353,-0.011303120319607214,-0.008967719586924605,0.0,0.0,0.0,0.0
13.193726062774658,0.022240222,-0.03630424,-5.1641173,0.005784837691113506,nan,nan,nan,nan,nan,3.1906275749206543,4.3906275749206545,0.0007243156433105469,0.0,-0.31233124212564944,0.0,-5.281906863781006,0.7080352977567758,0.052626352305649944,-0.010414708750987224,-0.005619701707607758,0.0,0.0,0.0,0.0
13.293651580810547,0.022193687,-0.07395714,-5.195429,0.0038551997766645275,nan,nan,nan,nan,nan,3.290177583694458,4.490177583694458,0.0008571147918701172,0.0,-0.3260625383417919,0.0,-5.237025646674811,0.7064796448632821,0.04758106384473028,-0.0048864251716953435,-0.003596503354154431,0.0,0.0,0.0,0.0
13.39390254020691,0.01728177,-0.11020511,-5.2193594,0.0013748459775860115,nan,nan,nan,nan,nan,3.3904166221618652,4.590416622161865,0.0009403228759765625,0.0,-0.3368401895071498,0.0,-5.182994704231436,0.7050868443277756,0.04009347731074188,-0.0007840131198131997,-0.0018079336941082102,0.0,0.0,0.0,0.0
13.493972539901733,0.013208336,-0.13895185,-5.239212,-0.0028745729642988774,nan,nan,nan,nan,nan,3.490530490875244,4.690530490875244,0.00040221214294433594,0.0,-0.3444503040537213,0.0,-5.122192262125497,0.7037476986667052,0.030679172303264432,0.001352322286916267,0.0010769580919548806,0.0,0.0,0.0,0.0
13.593820095062256,0.010380916,-0.16224211,-5.254562,-0.007176505925090732,nan,nan,nan,nan,nan,3.5903632640838623,4.7903632640838625,0.0004811286926269531,0.0,-0.3488292972829084,0.0,-5.057014296435921,0.7024433630257962,0.0206554721378491,0.002442924724729816,0.005163118402856339,0.0,0.0,0.0,0.0
13.693677425384521,0.0076855663,-0.1873009,-5.266709,-0.011373649561834695,nan,nan,nan,nan,nan,3.6902410984039307,4.890241098403931,0.0003883838653564453,0.0,-0.3499620164326134,0.0,-4.989688591940972,0.7016032284534108,0.011628817220268876,0.0037593190201992616,0.008731242935189508,0.0,0.0,0.0,0.0
13.794514894485474,0.0019237002,-0.21151291,-5.271605,-0.015598016039733034,nan,nan,nan,nan,nan,3.79097580909729,4.99097580909729,0.0005185604095458984,0.0,-0.3478028940829832,0.0,-4.922180753243396,0.7013372540112137,0.007685264509302756,0.002618448970716289,0.012344255189697374,0.0,0.0,0.0,0.0
13.894025087356567,-0.005716174,-0.24194404,-5.268869,-0.018942417813647368,nan,nan,nan,nan,nan,3.8906195163726807,5.090619516372681,0.0006060600280761719,0.0,-0.34242514329351087,0.0,-4.858289763405908,0.7015277550909792,0.008426146621609402,0.0007470148949461995,0.015216607167243327,0.0,0.0,0.0,0.0
13.99378514289856,-0.015643436,-0.26757875,-5.261382,-0.020201447098216318,nan,nan,nan,nan,nan,3.9903697967529297,5.19036979675293,0.0005021095275878906,0.0,-0.3338621647586403,0.0,-4.7995822956388725,0.7025363978122215,0.010476439290745772,-0.0015398654187728812,0.016817909508030287,0.0,0.0,0.0,0.0
14.09422492980957,-0.025384407,-0.29322758,-5.2472043,-0.020292718957638206,nan,nan,nan,nan,nan,4.090810537338257,5.290810537338257,0.00038123130798339844,0.0,-0.3221062282377391,0.0,-4.747980784586086,0.7042353592534102,0.012026383435954822,-0.004556933921557994,0.017355056200634468,0.0,0.0,0.0,0.0
14.19349479675293,-0.029989695,-0.31533164,-5.2300034,-0.018807147473839728,nan,nan,nan,nan,nan,4.190020799636841,5.390020799636841,0.00086212158203125,0.0,-0.30751533959853133,0.0,-4.7063041865885555,0.7066206393941581,0.014065581431191151,-0.0043672485419371685,0.016467647037539546,0.0,0.0,0.0,0.0
14.293459415435791,-0.02819971,-0.33834448,-5.208449,-0.016194902592990192,nan,nan,nan,nan,nan,4.289883613586426,5.489883613586426,0.0004019737243652344,0.0,-0.28997482517356593,0.0,-4.675234110476989,0.7094489408326463,0.016656872559988913,-0.0003392624755750045,0.014436648966350647,0.0,0.0,0.0,0.0
14.393622875213623,-0.031399246,-0.3564372,-5.1836324,-0.014398332890109986,nan,nan,nan,nan,nan,4.3901753425598145,5.590175342559815,0.00036716461181640625,0.0,-0.2696418172997472,0.0,-4.656177250017225,0.7127518581848235,0.01802035018934824,0.00283396495454779,0.01249642596465281,0.0,0.0,0.0,0.0
14.4938383102417,-0.03530824,-0.36839858,-5.151081,-0.013315176033483428,nan,nan,nan,nan,nan,4.490404844284058,5.690404844284058,0.00036907196044921875,0.0,-0.2467914664944204,0.0,-4.650005519193691,0.7165827191812696,0.016288920929179534,0.004017381315147598,0.011369845841017375,0.0,0.0,0.0,0.0
14.593633651733398,-0.039245497,-0.37476707,-5.118705,-0.013152308626868362,nan,nan,nan,nan,nan,4.590167760848999,5.790167760848999,0.00037169456481933594,0.0,-0.22174846497717854,0.0,-4.656871838702881,0.7208309114761127,0.011796796727341548,0.004124479600674364,0.010944123669526315,0.0,0.0,0.0,0.0
14.69327425956726,-0.04239302,-0.37905586,-5.0861573,-0.013456386028386553,nan,nan,nan,nan,nan,4.689692735671997,5.889692735671997,0.0004475116729736328,0.0,-0.19471175528680135,0.0,-4.6764012856088994,0.7251789090414539,0.008009489134674948,0.0032204028832841566,0.011246811350046468,0.0,0.0,0.0,0.0
14.794329166412354,-0.037607573,-0.37992325,-5.0679913,-0.013078506333529898,nan,nan,nan,nan,nan,4.790839433670044,5.990839433670044,0.0004928112030029297,0.0,-0.16539094878030583,0.0,-4.70847985005986,0.7287110976275011,0.004866855424027073,0.005426284722988775,0.011037914114119134,0.0,0.0,0.0,0.0
14.893473148345947,-0.03283404,-0.37785205,-5.04689,-0.012403050585302222,nan,nan,nan,nan,nan,4.889919281005859,6.0899192810058596,0.0003972053527832031,0.0,-0.13513565535030989,0.0,-4.750686567944602,0.7321400215139768,0.001714638168974384,0.008491109246943254,0.010499732664579287,0.0,0.0,0.0,0.0
14.993966102600098,-0.026775545,-0.37075043,-5.018673,-0.01115266595347985,nan,nan,nan,nan,nan,4.9905431270599365,6.190543127059937,0.0005502700805664062,0.0,-0.10314267059742706,0.0,-4.8028754039034744,0.7358484861659533,-0.0017178332383963098,0.011051816684625274,0.009672537206995006,0.0,0.0,0.0,0.0
15.093576669692993,-0.0232643,-0.36134213,-4.9859896,-0.009764155294285818,nan,nan,nan,nan,nan,5.090027809143066,6.290027809143067,0.00041294097900390625,0.0,-0.0705521663931148,0.0,-4.861792180242235,0.7399424802654119,-0.005305361572711429,0.012810281123929507,0.008513612451688066,0.0,0.0,0.0,0.0
15.193594217300415,-0.02243097,-0.34790847,-4.943734,-0.007884154749330269,nan,nan,nan,nan,nan,5.190131902694702,6.390131902694702,0.00043702125549316406,0.0,-0.03710132676680705,0.0,-4.92621542457402,0.7447530259376971,-0.008762148118680122,0.01099885384015378,0.007006502654591267,0.0,0.0,0.0,0.0
15.293389081954956,-0.029778844,-0.32856134,-4.9150643,-0.004084308703734549,nan,nan,nan,nan,nan,5.28982400894165,6.489824008941651,0.0007922649383544922,0.0,-0.0034427403462393754,0.0,-4.993114852417179,0.7481682705215742,-0.012361676812335647,0.00548953493653487,0.0045277080026171765,0.0,0.0,0.0,0.0
15.39369535446167,-0.0368929,-0.30671826,-4.892066,0.000734486192442433,nan,nan,nan,nan,nan,5.390204429626465,6.590204429626465,0.00043463706970214844,0.0,0.03047978877575284,0.0,-5.060727984500366,0.7505300812281396,-0.016497369951926785,-0.001471661069296289,0.0007655374731201229,0.0,0.0,0.0,0.0
15.493573427200317,-0.043910388,-0.2829986,-4.8714614,0.005682855133583232,nan,nan,nan,nan,nan,5.49005651473999,6.69005651473999,0.0005886554718017578,0.0,0.06393983580609644,0.0,-5.125727642236387,0.7521658015422739,-0.018821844999300744,-0.007174035145732612,-0.0033970278038151815,0.0,0.0,0.0,0.0
15.593398571014404,-0.049061753,-0.25998136,-4.8569074,0.008828271348068024,nan,nan,nan,nan,nan,5.589864253997803,6.789864253997803,0.0007352828979492188,0.0,0.09679023908212017,0.0,-5.1860311084690744,0.7529732265118207,-0.018669236830111704,-0.010565920469384144,-0.006692344038085929,0.0,0.0,0.0,0.0
15.693533182144165,-0.052550215,-0.2313314,-4.845029,0.010836800231228906,nan,nan,nan,nan,nan,5.690039157867432,6.890039157867432,0.0008060932159423828,0.0,0.12885591111891856,0.0,-5.239610801286582,0.7532258027959453,-0.01879078518729466,-0.010925599762148916,-0.008659852646554314,0.0,0.0,0.0,0.0
15.793287515640259,-0.053987052,-0.20390683,-4.8343554,0.01077407250663299,nan,nan,nan,nan,nan,5.78971004486084,6.98971004486084,0.0005052089691162109,0.0,0.1595625300650896,0.0,-5.284032351568959,0.7528100692328208,-0.018874442146298125,-0.009043574512536533,-0.009188666429385782,0.0,0.0,0.0,0.0
15.893353462219238,-0.053688522,-0.17262962,-4.8342657,0.01129987003404848,nan,nan,nan,nan,nan,5.889859437942505,7.089859437942505,0.00046133995056152344,0.0,0.18892543925274854,0.0,-5.31807549518785,0.7513893601381371,-0.0186586256466587,-0.0061336228025382885,-0.009303161886829713,0.0,0.0,0.0,0.0
15.993353605270386,-0.05235757,-0.14099805,-4.8385477,0.011978082847700388,nan,nan,nan,nan,nan,5.989854574203491,7.189854574203491,0.0005791187286376953,0.0,0.2164781257288477,0.0,-5.3402073974681254,0.7489386903254175,-0.019475195867134625,-0.0027734695297646694,-0.010018241087642352,0.0,0.0,0.0,0.0
16.09332299232483,-0.05091454,-0.110505566,-4.8468533,0.011978784748008436,nan,nan,nan,nan,nan,6.089759349822998,7.289759349822998,0.0004107952117919922,0.0,0.24198772454729042,0.0,-5.349661805247357,0.7462299754388666,-0.020455974357764316,0.0005080590664446906,-0.010194605800595195,0.0,0.0,0.0,0.0
16.193357706069946,-0.050437912,-0.07565829,-4.8672013,0.00978325097261772,nan,nan,nan,nan,nan,6.1897666454315186,7.389766645431519,0.0005249977111816406,0.0,0.2652648756095019,0.0,-5.346102308533164,0.7423270554851148,-0.020439422666817374,0.003102708386252866,-0.00868635383054369,0.0,0.0,0.0,0.0
16.29409408569336,-0.050419223,-0.042867184,-4.890866,0.007584092896573884,nan,nan,nan,nan,nan,6.2907874584198,7.4907874584198,0.00039124488830566406,0.0,0.28626239016747596,0.0,-5.329414155343787,0.7381711470305359,-0.01873028971333685,0.004513984727492506,-0.006960296313602607,0.0,0.0,0.0,0.0
16.393300533294678,-0.05425035,-0.013501809,-4.9119124,0.007078428519078023,nan,nan,nan,nan,nan,6.389739036560059,7.589739036560059,0.0004909038543701172,0.0,0.3041866795603774,0.0,-5.300918491981367,0.7336790495616449,-0.017230547394223677,0.003906516582437895,-0.005904239266531512,0.0,0.0,0.0,0.0
16.493282079696655,-0.05602568,0.014816627,-4.9335136,0.007357050660710875,nan,nan,nan,nan,nan,6.489668607711792,7.689668607711792,0.00038242340087890625,0.0,0.31946536243455925,0.0,-5.261003402714117,0.7292007797555202,-0.015920945105858845,0.0016292375379265542,-0.006158854405313352,0.0,0.0,0.0,0.0
16.593276500701904,-0.054855756,0.042729594,-4.95795,0.007382787380411936,nan,nan,nan,nan,nan,6.589653491973877,7.789653491973877,0.0004227161407470703,0.0,0.3317714410757664,0.0,-5.211347211042174,0.7248473191015855,-0.014024778687346777,0.0016257691510584054,-0.006225599076286481,0.0,0.0,0.0,0.0
16.693310737609863,-0.05485271,0.06252933,-4.9834013,0.006919354544481556,nan,nan,nan,nan,nan,6.689690351486206,7.889690351486206,0.00040268898010253906,0.0,0.34098476065217204,0.0,-5.15378705719587,0.7205371692355943,-0.009522954437566062,0.0016064048495062254,-0.005936427015074217,0.0,0.0,0.0,0.0
16.793275833129883,-0.053037334,0.08099848,-5.0092354,0.006250809312288144,nan,nan,nan,nan,nan,6.789667129516602,7.989667129516602,0.0005290508270263672,0.0,0.34700940080882614,0.0,-5.090531895880363,0.7164746173912221,-0.0051476384632809695,0.0019749559457945933,-0.005438682601095581,0.0,0.0,0.0,0.0
16.893269777297974,-0.05164821,0.10136241,-5.0257316,0.006408126193796016,nan,nan,nan,nan,nan,6.889682292938232,8.089682292938232,0.00041103363037109375,0.0,0.34979605461120233,0.0,-5.0238791876313265,0.7131287377651198,-0.004290677222364207,0.0023459900461114233,-0.005201796082230871,0.0,0.0,0.0,0.0
16.993177890777588,-0.046956416,0.12368556,-5.044128,0.00699444040791195,nan,nan,nan,nan,nan,6.98954701423645,8.18954701423645,0.000446319580078125,0.0,0.3493189445219412,0.0,-4.956437481232982,0.7105791686200187,-0.007423345390360055,0.002518445501671314,-0.005844407670860794,0.0,0.0,0.0,0.0
17.093186140060425,-0.040883873,0.1420566,-5.064121,0.00667789607188712,nan,nan,nan,nan,nan,7.089563846588135,8.289563846588134,0.0005636215209960938,0.0,0.34558100072586734,0.0,-4.890516762867621,0.7081500215491897,-0.01036024461086128,0.0057437380296495545,-0.005560261299593052,0.0,0.0,0.0,0.0
17.19322633743286,-0.044538304,0.15905671,-5.083253,0.006950821640960462,nan,nan,nan,nan,nan,7.189608812332153,8.389608812332153,0.0004317760467529297,0.0,0.3386129667548659,0.0,-4.828660131748458,0.7063948103627816,-0.011746615077840158,0.0035935615953775132,-0.005719868093391334,0.0,0.0,0.0,0.0
17.293585300445557,-0.046365738,0.17805898,-5.0906906,0.007296982414111212,nan,nan,nan,nan,nan,7.289960861206055,8.489960861206054,0.0005848407745361328,0.0,0.3284446706715866,0.0,-4.773035089191908,0.7057714804707543,-0.015565748209060927,0.00034799697280299386,-0.0060780875659980785,0.0,0.0,0.0,0.0
17.393352270126343,-0.04296564,0.19421022,-5.093264,0.006831734768741667,nan,nan,nan,nan,nan,7.3897411823272705,8.58974118232727,0.0004227161407470703,0.0,0.3152722132869268,0.0,-4.726166932191715,0.705946101652713,-0.01911423276754854,-0.0006110497661612578,-0.006076415111509647,0.0,0.0,0.0,0.0
17.493327617645264,-0.036991432,0.20745826,-5.086889,0.00566388849725359,nan,nan,nan,nan,nan,7.48971700668335,8.689717006683349,0.00046062469482421875,0.0,0.299134718431497,0.0,-4.689396090349927,0.7074174802408322,-0.019520248278057928,0.001509567596092054,-0.00510437417652296,0.0,0.0,0.0,0.0
17.593339681625366,-0.029843066,0.22057474,-5.07289,0.00446151488060275,nan,nan,nan,nan,nan,7.589722633361816,8.789722633361816,0.0004134178161621094,0.0,0.28019959057723987,0.0,-4.6641870104393846,0.709990114380741,-0.020410694021771623,0.004315084849203481,-0.003944631685123262,0.0,0.0,0.0,0.0
17.693297863006592,-0.022780575,0.2340426,-5.0570364,0.0036962334537715327,nan,nan,nan,nan,nan,7.689681529998779,8.889681529998779,0.0006105899810791016,0.0,0.2586586715468109,0.0,-4.6514945590845205,0.7130702149552189,-0.022039481099108586,0.006584118423194406,-0.0030635442511750505,0.0,0.0,0.0,0.0
17.793292760849,-0.01827351,0.24553551,-5.040478,0.0033251201556669264,nan,nan,nan,nan,nan,7.789676904678345,8.989676904678344,0.0003724098205566406,0.0,0.23469555411726517,0.0,-4.651779177988705,0.7164270974785236,-0.02240162858155198,0.007083762242564075,-0.002603793111857773,0.0,0.0,0.0,0.0
17.89329719543457,-0.020968609,0.24997987,-5.024587,0.0032326031698295295,nan,nan,nan,nan,nan,7.889681100845337,9.089681100845336,0.0004992485046386719,0.0,0.20853895316775417,0.0,-4.6650389512882064,0.7200334864938241,-0.019738871523426547,0.004484280752452451,-0.002549720334227113,0.0,0.0,0.0,0.0
17.993316888809204,-0.0282363,0.25131682,-5.006814,0.00324552119992322,nan,nan,nan,nan,nan,7.989707708358765,9.189707708358764,0.0005550384521484375,0.0,0.18042861979193067,0.0,-4.690787437249404,0.7237592096836566,-0.01422962328302014,-0.0021700387799996625,-0.002827883433822053,0.0,0.0,0.0,0.0
18.09337854385376,-0.03494529,0.2519864,-4.9898562,0.0032821037427314924,nan,nan,nan,nan,nan,8.089763879776001,9.289763879776,0.00040149688720703125,0.0,0.15062374857375235,0.0,-4.728075812167654,0.7276776766099122,-0.008664535019918531,-0.008999675893916044,-0.003115046648808185,0.0,0.0,0.0,0.0
18.193339586257935,-0.033714116,0.24892777,-4.9680667,0.002750423800815076,nan,nan,nan,nan,nan,8.189728021621704,9.389728021621703,0.0011179447174072266,0.0,0.11944023218439846,0.0,-4.775459592325744,0.7316693424875255,-0.004224617093443856,-0.010021796258002438,-0.002855944086482268,0.0,0.0,0.0,0.0
18.293240308761597,-0.03300498,0.2412914,-4.9392056,0.0016729663375242287,nan,nan,nan,nan,nan,8.289610862731934,9.489610862731933,0.0003390312194824219,0.0,0.08716897316996468,0.0,-4.831155521477097,0.7359552253077559,0.0010893261442408745,-0.00850450579655623,-0.0020299385742560835,0.0,0.0,0.0,0.0
18.393234968185425,-0.03235596,0.22567381,-4.9090834,0.0003514510642475266,nan,nan,nan,nan,nan,8.389617919921875,9.589617919921874,0.00031828880310058594,0.0,0.05404422436135171,0.0,-4.893207906328137,0.7401521075120724,0.007955242543965858,-0.006840445208234242,-0.0009043397525877805,0.0,0.0,0.0,0.0
18.493218183517456,-0.031754844,0.2092181,-4.885083,-0.0007298095988651498,nan,nan,nan,nan,nan,8.489605903625488,9.689605903625488,0.0003390312194824219,0.0,0.020421250077832225,0.0,-4.959227079291371,0.7437189504661155,0.01501045341778487,-0.005302805399109977,0.0002589991721219267,0.0,0.0,0.0,0.0
18.593310832977295,-0.031084247,0.19281867,-4.8646812,-0.0012572990569961334,nan,nan,nan,nan,nan,8.589746475219727,9.789746475219726,0.0003190040588378906,0.0,-0.013443932533046578,0.0,-5.026868022256498,0.7466490070864786,0.017082839838116145,-0.0037770695136759612,0.0008411656505366516,0.0,0.0,0.0,0.0
18.693299770355225,-0.031194545,0.17607546,-4.8576503,-0.0013683977532432008,nan,nan,nan,nan,nan,8.689687967300415,9.889687967300414,0.000347137451171875,0.0,-0.04711650020961124,0.0,-5.093375243798699,0.7482576164988869,0.017340872082023073,-0.00243650098475352,0.0010877751452284799,0.0,0.0,0.0,0.0
18.793274641036987,-0.029410867,0.15656602,-4.860433,-0.0020086244844370552,nan,nan,nan,nan,nan,8.789657354354858,9.989657354354858,0.0003268718719482422,0.0,-0.0803588535262692,0.0,-5.156424269982662,0.7488929768132301,0.01694457854983308,-0.001121020476380492,0.0014877672506368419,0.0,0.0,0.0,0.0
18.893199920654297,-0.027466362,0.13548672,-4.8701096,-0.003208519245553588,nan,nan,nan,nan,nan,8.889578819274902,10.089578819274902,0.00033354759216308594,0.0,-0.11283602933889852,0.0,-5.213622838956899,0.7483487855345304,0.016011677687011484,0.00018603884984089188,0.0024448690182710463,0.0,0.0,0.0,0.0
18.99386978149414,-0.026432019,0.11828199,-4.883432,-0.004511003123473261,nan,nan,nan,nan,nan,8.990276098251343,10.190276098251342,0.0003662109375,0.0,-0.14450044230637898,0.0,-5.263220624809926,0.7473782358194033,0.012112034380621974,0.0006178368831275553,0.003545082653630315,0.0,0.0,0.0,0.0
19.093531608581543,-0.02666574,0.09973,-4.9006395,-0.005933654048252463,nan,nan,nan,nan,nan,9.089956283569336,10.289956283569335,0.0003402233123779297,0.0,-0.1744986216062071,0.0,-5.302528569299714,0.7459451030657206,0.008330319345288148,7.727313384590862e-05,0.004650881887352997,0.0,0.0,0.0,0.0
19.19332528114319,-0.024621174,0.08558477,-4.9185834,-0.005992765836332982,nan,nan,nan,nan,nan,9.189714908599854,10.389714908599853,0.00033545494079589844,0.0,-0.2028995751287692,0.0,-5.330653543000749,0.7437304941651501,0.004026976114633896,0.0003677345011451845,0.005101086844335983,0.0,0.0,0.0,0.0
19.29328465461731,-0.02635679,0.06892584,-4.9346294,-0.0054981099596389015,nan,nan,nan,nan,nan,9.289666175842285,10.489666175842284,0.00034809112548828125,0.0,-0.22946445518395867,0.0,-5.346535986270355,0.7412537213619307,0.000934464666757747,0.0004270440333651178,0.0047998597302342655,0.0,0.0,0.0,0.0
19.393306493759155,-0.03042564,0.054057103,-4.9506607,-0.004553491569913902,nan,nan,nan,nan,nan,9.389697551727295,10.589697551727294,0.0003349781036376953,0.0,-0.25390762837863723,0.0,-5.349516283808225,0.7386474837018898,-0.0006174413330782133,-0.0010767928566472091,0.004173717804202301,0.0,0.0,0.0,0.0
19.4933500289917,-0.03302974,0.041591942,-4.9698267,-0.0033811861237183563,nan,nan,nan,nan,nan,9.489737272262573,10.689737272262573,0.0003325939178466797,0.0,-0.2759803840729478,0.0,-5.339464169969977,0.7354964418071415,-0.002737800282962981,-0.002804366709606712,0.003158293105541069,0.0,0.0,0.0,0.0
19.593205213546753,-0.032014158,0.02753199,-4.9969893,-0.0020278946470928833,nan,nan,nan,nan,nan,9.589608907699585,10.789608907699584,0.0003287792205810547,0.0,-0.2954438541136611,0.0,-5.316802053034066,0.7315810132781387,-0.0036700782911282793,-0.002148041678452176,0.002021767208357145,0.0,0.0,0.0,0.0
19.69319248199463,-0.02991744,0.011782136,-5.0216956,-0.0007789738341068154,nan,nan,nan,nan,nan,9.689567804336548,10.889567804336547,0.000335693359375,0.0,-0.312169267789108,0.0,-5.282331269489847,0.7275989882765489,-0.0017822591393881807,-0.00025921331632760934,0.0009998368878599325,0.0,0.0,0.0,0.0
19.79319667816162,-0.023379622,-0.007833864,-5.0496287,0.0003758814784424955,nan,nan,nan,nan,nan,9.78957200050354,10.98957200050354,0.0003533363342285156,0.0,-0.3259880139450071,0.0,-5.23732698518353,0.7233736207734567,0.0040673247854809014,0.003235558473472474,3.059531653856299e-05,0.0,0.0,0.0,0.0
19.893234968185425,-0.013537776,-0.03182378,-5.0788965,0.001245059866784132,nan,nan,nan,nan,nan,9.889618158340454,11.089618158340453,0.0003387928009033203,0.0,-0.3367667097380325,0.0,-5.183455037645433,0.7191484232485988,0.012296954422296833,0.008163321579843983,-0.0007712658132474098,0.0,0.0,0.0,0.0
19.993765115737915,-0.0037792816,-0.055339906,-5.1053815,0.0015308016065918601,nan,nan,nan,nan,nan,9.99015212059021,11.19015212059021,0.0003402233123779297,0.0,-0.3444275751155312,0.0,-5.122432144299706,0.7153198226726962,0.020646263942212837,0.012605726931486224,-0.0011734013228810098,0.0,0.0,0.0,0.0
20.093408823013306,0.004834409,-0.08068043,-5.138848,0.0013432473012937856,nan,nan,nan,nan,nan,10.089799880981445,11.289799880981445,0.000347137451171875,0.0,-0.34881366872185215,0.0,-5.057390384226333,0.7114074733232701,0.02688676001904047,0.014629229239668551,-0.001196906086304389,0.0,0.0,0.0,0.0
20.193438291549683,0.01724574,-0.10048833,-5.1613207,0.0014510619984056108,nan,nan,nan,nan,nan,10.189825057983398,11.389825057983398,0.0003387928009033203,0.0,-0.3499640617900916,0.0,-4.989969987100376,0.708247374073764,0.030363172820181323,0.016531189596014455,-0.0012521132700859694,0.0,0.0,0.0,0.0
20.29343318939209,0.025765665,-0.12215045,-5.178028,0.0016108318274678122,nan,nan,nan,nan,nan,10.289807319641113,11.489807319641113,0.00041365623474121094,0.0,-0.3478468987730722,0.0,-4.9229518194223045,0.7059633730308488,0.032813891345490565,0.017264968690380866,-0.0014427424700146432,0.0,0.0,0.0,0.0
20.39325761795044,0.030041862,-0.14267148,-5.190605,0.0013731661899660727,nan,nan,nan,nan,nan,10.389633417129517,11.589633417129516,0.0003345012664794922,0.0,-0.34249402135708756,0.0,-4.858900127150085,0.7046850491756416,0.03500391430185765,0.01456465992963356,-0.0015319871454825675,0.0,0.0,0.0,0.0
20.493330001831055,0.031078074,-0.16241492,-5.199863,0.00012117245140391046,nan,nan,nan,nan,nan,10.489718437194824,11.689718437194824,0.0003352165222167969,0.0,-0.33392824315136216,0.0,-4.799943784092645,0.7040533073200306,0.03457809373876426,0.007995769517369413,-0.000629742223241323,0.0,0.0,0.0,0.0
20.59336805343628,0.03178668,-0.18015364,-5.2008314,-0.0016256275994760054,nan,nan,nan,nan,nan,10.58974313735962,11.789743137359618,0.00033211708068847656,0.0,-0.32224733206972944,0.0,-4.748482507291375,0.7045287476027314,0.033009819974741554,0.001164741647042088,0.0008930682604458895,0.0,0.0,0.0,0.0
20.69338321685791,0.027095621,-0.20179409,-5.1893253,-0.0032645519338510075,nan,nan,nan,nan,nan,10.689757108688354,11.889757108688354,0.00033926963806152344,0.0,-0.30755793168335055,0.0,-4.70640127628482,0.7060982386929059,0.03182033552724332,-0.005525180624457274,0.002431679764900139,0.0,0.0,0.0,0.0
20.793286561965942,0.023377704,-0.21593261,-5.1725183,-0.004258853132077817,nan,nan,nan,nan,nan,10.789661169052124,11.989661169052123,0.0003457069396972656,0.0,-0.29001696253366754,0.0,-4.675290256778112,0.7087628777178454,0.029499954371861842,-0.01117030500285837,0.003622236527989004,0.0,0.0,0.0,0.0
20.893404245376587,0.016738955,-0.2272503,-5.1509423,-0.004961540713130007,nan,nan,nan,nan,nan,10.889788389205933,12.089788389205932,0.00036454200744628906,0.0,-0.26972526461535645,0.0,-4.656226321507399,0.7120522131253663,0.024014108891887605,-0.014488701823149224,0.00434883424158591,0.0,0.0,0.0,0.0
20.993494510650635,0.0066013513,-0.23591523,-5.129141,-0.0053493203606065675,nan,nan,nan,nan,nan,10.989989995956421,12.18998999595642,0.00034356117248535156,0.0,-0.24689096999284482,0.0,-4.6500040553422135,0.7155158623580117,0.01922880792627347,-0.018503256462292277,0.0049061176716196165,0.0,0.0,0.0,0.0
21.093279123306274,-0.008218631,-0.24466398,-5.1028094,-0.005788943647050631,nan,nan,nan,nan,nan,11.08970308303833,12.28970308303833,0.0003371238708496094,0.0,-0.22187007583191504,0.0,-4.656809977170429,0.7194250491216728,0.015570951236875826,-0.022965556856113553,0.005329889747674897,0.0,0.0,0.0,0.0
21.193328857421875,-0.015601015,-0.24756281,-5.074668,-0.005897665630759309,nan,nan,nan,nan,nan,11.189714431762695,12.389714431762695,0.0003502368927001953,0.0,-0.19470565565369927,0.0,-4.676406879490354,0.7238516539015087,0.010817705127833931,-0.02399358940721538,0.005516302397600523,0.0,0.0,0.0,0.0
21.293288469314575,-0.021612478,-0.24822986,-5.0424943,-0.005847247210985315,nan,nan,nan,nan,nan,11.289672374725342,12.489672374725341,0.00034499168395996094,0.0,-0.16573882338826215,0.0,-4.708043576214031,0.7282626999525953,0.006896507551731048,-0.020936565505990854,0.005401801197592948,0.0,0.0,0.0,0.0
21.393462657928467,-0.023641843,-0.24735774,-5.0058565,-0.0056527810022931,nan,nan,nan,nan,nan,11.38983702659607,12.589837026596069,0.0003409385681152344,0.0,-0.1351613257274288,0.0,-4.750647507838138,0.7329315353450451,0.002493426828930577,-0.015196730295986107,0.0051440769618208695,0.0,0.0,0.0,0.0
21.4935040473938,-0.01988281,-0.24586344,-4.969819,-0.005394902082308984,nan,nan,nan,nan,nan,11.489892721176147,12.689892721176147,0.0003609657287597656,0.0,-0.10335292705034563,0.0,-4.802511902045503,0.7374197624150576,0.000817230299281869,-0.00614258654176113,0.004757122708715773,0.0,0.0,0.0,0.0
21.593392610549927,-0.020186754,-0.24179967,-4.935496,-0.005260607540854065,nan,nan,nan,nan,nan,11.589793920516968,12.789793920516967,0.0003523826599121094,0.0,-0.07062967069661735,0.0,-4.861646794868463,0.7417055370362703,-0.0005768618036810605,0.0007879724012417443,0.0044735645820911316,0.0,0.0,0.0,0.0
21.693392515182495,-0.014283808,-0.23190826,-4.9040346,-0.005056040249421758,nan,nan,nan,nan,nan,11.689767122268677,12.889767122268676,0.00035309791564941406,0.0,-0.03722404357670994,0.0,-4.925974161138932,0.7454627670252121,-0.0030449219845883014,0.0068592152890424125,0.004213611968442021,0.0,0.0,0.0,0.0
21.793501138687134,-0.002842432,-0.21852091,-4.8728514,-0.0050814015676678365,nan,nan,nan,nan,nan,11.789876699447632,12.989876699447631,0.00035858154296875,0.0,-0.003424914669657735,0.0,-4.993150498622722,0.7485963965880545,-0.0063666511735851325,0.013441456689655037,0.004059574992584156,0.0,0.0,0.0,0.0
21.89344358444214,0.0077524004,-0.20265688,-4.8491,-0.005116043020465262,nan,nan,nan,nan,nan,11.889830350875854,13.089830350875854,0.00034689903259277344,0.0,0.030353707275329378,0.0,-5.060478687224394,0.7510525562248319,-0.008344788653597482,0.01956739208343382,0.00412800896493825,0.0,0.0,0.0,0.0
21.99341607093811,0.012707586,-0.18506585,-4.837282,-0.004860048320025566,nan,nan,nan,nan,nan,11.989804983139038,13.189804983139037,0.0003581047058105469,0.0,0.06385616649829012,0.0,-5.125568788748016,0.7522373235594083,-0.010211765114561549,0.02021978038315878,0.00400836525695776,0.0,0.0,0.0,0.0
22.093417167663574,0.01314026,-0.16270451,-4.83024,-0.004055483866390439,nan,nan,nan,nan,nan,12.089801788330078,13.289801788330077,0.00034236907958984375,0.0,0.09676992937170059,0.0,-5.185995304590501,0.7526873298065757,-0.012283917166720122,0.016783605158303374,0.0035452196458963772,0.0,0.0,0.0,0.0
22.193379163742065,0.0069500688,-0.13638002,-4.8326497,-0.0026780161956711833,nan,nan,nan,nan,nan,12.18976616859436,13.38976616859436,0.0003552436828613281,0.0,0.1287700345129146,0.0,-5.239476123584502,0.7520624113794361,-0.015447594926869876,0.009630680467730047,0.0026288603238978233,0.0,0.0,0.0,0.0
22.293428897857666,0.0011250217,-0.110812806,-4.840366,-0.0012862938485947977,nan,nan,nan,nan,nan,12.289817094802856,13.489817094802856,0.0008087158203125,0.0,0.15959476422689825,0.0,-5.284074671186345,0.7506883655350243,-0.017822958412995964,0.0012156252219888046,0.0014433114623840664,0.0,0.0,0.0,0.0
22.393476724624634,-0.0044496153,-0.08284709,-4.8533626,7.471419392766432e-05,nan,nan,nan,nan,nan,12.389850378036499,13.589850378036498,0.00035071372985839844,0.0,0.188922858958447,0.0,-5.318072937171364,0.7486156148001287,-0.018968476812441376,-0.005428621996026923,0.00028036886394223695,0.0,0.0,0.0,0.0
22.493651866912842,-0.00961475,-0.057587724,-4.8704467,0.0011251241196875228,nan,nan,nan,nan,nan,12.490043640136719,13.690043640136718,0.0003514289855957031,0.0,0.21652838501724786,0.0,-5.340237425030302,0.7460601807574229,-0.017509559709615374,-0.009854618545429164,-0.0007476595796820832,0.0,0.0,0.0,0.0
22.59360671043396,-0.01156113,-0.028162906,-4.892568,0.002371727163636762,nan,nan,nan,nan,nan,12.59001612663269,13.79001612663269,0.0003521442413330078,0.0,0.24205048175783717,0.0,-5.349669398406805,0.7429469466120551,-0.016211891501173834,-0.011424268395122032,-0.001688889328654228,0.0,0.0,0.0,0.0
22.69342803955078,-0.009869236,-0.002031228,-4.91386,0.003250077726978563,nan,nan,nan,nan,nan,12.689806461334229,13.889806461334228,0.0003571510314941406,0.0,0.2652736633285892,0.0,-5.346098297978972,0.7391807099261551,-0.015451391739848499,-0.010407120295399822,-0.0025889516837683322,0.0,0.0,0.0,0.0
22.7936749458313,-0.008700937,0.024233533,-4.9416814,0.003946350574763595,nan,nan,nan,nan,nan,12.79007077217102,13.99007077217102,0.0003514289855957031,0.0,0.28612280947341223,0.0,-5.32957770070121,0.735216920752754,-0.014315244628685601,-0.007891700780964479,-0.003154843924155843,0.0,0.0,0.0,0.0
22.893494606018066,-0.009586856,0.051341444,-4.9743223,0.004706194773514833,nan,nan,nan,nan,nan,12.889872074127197,14.089872074127197,0.00035071372985839844,0.0,0.30420894024251566,0.0,-5.30087251006499,0.730431213966886,-0.01399199719440311,-0.005813693759266939,-0.0038421875213105086,0.0,0.0,0.0,0.0
22.993511199951172,-0.014898725,0.083566636,-5.0072026,0.005502552181374789,nan,nan,nan,nan,nan,12.989887714385986,14.189887714385986,0.0003552436828613281,0.0,0.3194956371298018,0.0,-5.260904601209441,0.725899646666432,-0.015611386877270225,-0.006193763042908263,-0.004537735358158132,0.0,0.0,0.0,0.0
23.093549728393555,-0.01251595,0.11173677,-5.033162,0.005602498383803629,nan,nan,nan,nan,nan,13.089931726455688,14.289931726455688,0.0003705024719238281,0.0,0.3318014119342938,0.0,-5.211197112662131,0.721590306013277,-0.01738563641956774,-0.004672500852504535,-0.004822195538578212,0.0,0.0,0.0,0.0
23.193695068359375,-0.0070914924,0.14177987,-5.0610447,0.005240072435697041,nan,nan,nan,nan,nan,13.190134048461914,14.390134048461913,0.0003657341003417969,0.0,0.34101858062711604,0.0,-5.153517307258528,0.7176140029161773,-0.019135815945562712,-0.0004142346985888175,-0.004568027603727905,0.0,0.0,0.0,0.0
23.293419361114502,-0.0005110379,0.16847865,-5.086417,0.004607075578808973,nan,nan,nan,nan,nan,13.289802312850952,14.489802312850951,0.0003845691680908203,0.0,0.34701536391258536,0.0,-5.0904435338835885,0.7139059617867375,-0.021231357791611585,0.004668998691553176,-0.00399139918933332,0.0,0.0,0.0,0.0
23.39347505569458,0.009798859,0.19590111,-5.111096,0.0036184071494594116,nan,nan,nan,nan,nan,13.389873027801514,14.589873027801513,0.00036644935607910156,0.0,0.34979825128433834,0.0,-5.023750425855222,0.7106257784012083,-0.022679199517079612,0.009745692352512053,-0.0031232121406707006,0.0,0.0,0.0,0.0
23.49351954460144,0.023757411,0.21971203,-5.128826,0.002402109799122242,nan,nan,nan,nan,nan,13.489908456802368,14.689908456802367,0.0003771781921386719,0.0,0.34931129829166135,0.0,-4.956194823272994,0.7081935980090696,-0.022888403980264104,0.01655945678129926,-0.0018690865863237346,0.0,0.0,0.0,0.0
23.59357476234436,0.03786384,0.24584207,-5.143891,0.0008499841347059788,nan,nan,nan,nan,nan,13.590004682540894,14.790004682540893,0.0003571510314941406,0.0,0.34555734394073434,0.0,-4.890233480189897,0.7063877207904299,-0.023650444412404544,0.02160103281506026,-0.00047251633178975173,0.0,0.0,0.0,0.0
23.693264961242676,0.047817107,0.26648033,-5.152165,-1.135130213916237e-05,nan,nan,nan,nan,nan,13.689643621444702,14.889643621444701,0.0003712177276611328,0.0,0.33860998700167005,0.0,-4.828639593871486,0.7054627788895877,-0.023827381117378192,0.023324963282044888,0.0006252526151749075,0.0,0.0,0.0,0.0
23.79325580596924,0.056244355,0.28436258,-5.1555142,-0.00036039739928897356,nan,nan,nan,nan,nan,13.78963017463684,14.98963017463684,0.0004093647003173828,0.0,0.3284833099533881,0.0,-4.773205469921213,0.7054463226415777,-0.022273746115787457,0.021105388287301442,0.0010091042185156657,0.0,0.0,0.0,0.0
23.893271446228027,0.06382529,0.3005987,-5.154499,-0.00039096665867087085,nan,nan,nan,nan,nan,13.889657258987427,15.089657258987426,0.00036025047302246094,0.0,0.31528454294335806,0.0,-4.726202302671341,0.7058975773239786,-0.020855481295618955,0.017786711868770465,0.0010030451390417657,0.0,0.0,0.0,0.0
23.9938645362854,0.06802681,0.31761977,-5.1427994,-0.0003285897703489884,nan,nan,nan,nan,nan,13.990246295928955,15.190246295928954,0.00034999847412109375,0.0,0.29904171037601174,0.0,-4.689231175938151,0.7077629969060666,-0.02029841918592318,0.012441279869870805,0.0007778112126333656,0.0,0.0,0.0,0.0
24.093475103378296,0.07041846,0.3379939,-5.122076,-0.0002145631617533391,nan,nan,nan,nan,nan,14.089849710464478,15.289849710464477,0.0003707408905029297,0.0,0.28017382514142486,0.0,-4.664162787299044,0.7104844260949263,-0.021135838919870937,0.006609678031195314,0.0004886613699858908,0.0,0.0,0.0,0.0
24.19352650642395,0.06865409,0.3543067,-5.1042347,-7.757197246733433e-05,nan,nan,nan,nan,nan,14.189965724945068,15.389965724945068,0.0003733634948730469,0.0,0.25859388738250644,0.0,-4.65147685940124,0.7137770480767776,-0.021477083882420665,0.00011686569572739171,0.0001187596321737662,0.0,0.0,0.0,0.0
24.29349660873413,0.065206446,0.36833063,-5.0867314,-9.299063437686467e-06,nan,nan,nan,nan,nan,14.28989052772522,15.489890527725219,0.0004489421844482422,0.0,0.23464193211027057,0.0,-4.651793763975709,0.7171842997299835,-0.01924938299569912,-0.006891198611500471,-0.00030615486802355743,0.0,0.0,0.0,0.0
24.39338707923889,0.06263561,0.37817144,-5.0688562,-0.0003933731666949797,nan,nan,nan,nan,nan,14.389764308929443,15.589764308929443,0.0003631114959716797,0.0,0.20851634370939828,0.0,-4.665055282522544,0.7206503732688265,-0.01691277009004657,-0.011460131017129975,-0.0002871901449057833,0.0,0.0,0.0,0.0
24.49346160888672,0.059334785,0.3829849,-5.0359755,-0.0008820102612483484,nan,nan,nan,nan,nan,14.489847183227539,15.689847183227538,0.0003693103790283203,0.0,0.18038818363843814,0.0,-4.690831663366501,0.7251466753766752,-0.011943201952328045,-0.014396426440307078,-4.406179845509747e-06,0.0,0.0,0.0,0.0
24.593486785888672,0.056928933,0.3869178,-5.0116096,-0.0011962360816917955,nan,nan,nan,nan,nan,14.58987832069397,15.789878320693969,0.00036025047302246094,0.0,0.15058879820734483,0.0,-4.728124572212661,0.7294404832876493,-0.007746608073187005,-0.015414651464190509,0.0002906532663283309,0.0,0.0,0.0,0.0
24.69342017173767,0.054575622,0.3899645,-4.9881797,-0.0012238359884990356,nan,nan,nan,nan,nan,14.689820528030396,15.889820528030395,0.0003662109375,0.0,0.11941081322559184,0.0,-4.775507611316623,0.7333585734006626,-0.0047869662600369105,-0.014771477674595745,0.00045092265793851945,0.0,0.0,0.0,0.0
24.793708562850952,0.05398701,0.38985053,-4.9646425,-0.001108150752377822,nan,nan,nan,nan,nan,14.790318489074707,15.990318489074706,0.0004067420959472656,0.0,0.08693708870918172,0.0,-4.831575095243002,0.737045994222939,-0.0028231973725633182,-0.012978447025493329,0.00048173160138031664,0.0,0.0,0.0,0.0
24.893476486206055,0.055855278,0.38593102,-4.9431214,-0.0006966724303913811,nan,nan,nan,nan,nan,14.889862775802612,16.08986277580261,0.0003561973571777344,0.0,0.053962375443749544,0.0,-4.893365699460414,0.7406386807572939,3.0061216324972007e-05,-0.008927636160042976,0.0003523601730747851,0.0,0.0,0.0,0.0
24.993759870529175,0.060648773,0.38174668,-4.920944,0.00013544826333695623,nan,nan,nan,nan,nan,14.990139245986938,16.190139245986938,0.00034308433532714844,0.0,0.02024111152785228,0.0,-4.959585530262061,0.7438697870426615,0.001157395762904599,-0.003395010990656161,2.4504598478486434e-06,0.0,0.0,0.0,0.0
25.09367275238037,0.061753526,0.37746292,-4.903328,-0.0005930301897417826,nan,nan,nan,nan,nan,15.090059757232666,16.290059757232665,0.00034809112548828125,0.0,-0.01354984494579881,0.0,-5.027079374289164,0.746625041146639,0.0004977639588687948,4.584770710590786e-05,0.0001259267350800313,0.0,0.0,0.0,0.0
25.193501949310303,0.06354892,0.3699326,-4.8870635,-0.001551748670365831,nan,nan,nan,nan,nan,15.189878225326538,16.389878225326537,0.0003552436828613281,0.0,-0.04718028260774489,0.0,-5.093499309681089,0.748733624569339,0.0006486048662409385,0.0012143761668716,0.0011132279340207577,0.0,0.0,0.0,0.0
25.293545961380005,0.065253146,0.36017972,-4.875548,-0.0020897359115348256,nan,nan,nan,nan,nan,15.289927959442139,16.489927959442138,0.0004031658172607422,0.0,-0.08044795759132589,0.0,-5.156588049049946,0.7503307627900805,0.0013191922226338834,0.0027737196392411856,0.0016282842339897638,0.0,0.0,0.0,0.0
25.394310474395752,0.06529344,0.3504272,-4.871381,-0.003260837037086132,nan,nan,nan,nan,nan,15.39093542098999,16.59093542098999,0.0012192726135253906,0.0,-0.11327039921000234,0.0,-5.214349236629761,0.7507759955972774,0.0014579024033240559,0.0025554202597653374,0.002519736559322814,0.0,0.0,0.0,0.0
25.494144439697266,0.06398027,0.3357305,-4.8718905,-0.006151581065657266,nan,nan,nan,nan,nan,15.49078369140625,16.69078369140625,0.0007534027099609375,0.0,-0.14465683726147438,0.0,-5.263446873261165,0.7503280103622353,0.002563799164844459,0.00024070283173768976,0.004417573181263063,0.0,0.0,0.0,0.0
25.59409499168396,0.06436678,0.32327127,-4.870944,-0.008075363261332102,nan,nan,nan,nan,nan,15.59072470664978,16.79072470664978,0.00035309791564941406,0.0,-0.1747239347543488,0.0,-5.302789699931681,0.7493540454416426,0.0035110784026748066,-0.0017275058970582314,0.006327769388840155,0.0,0.0,0.0,0.0
25.693689823150635,0.06215308,0.3062504,-4.874763,-0.009039114030322913,nan,nan,nan,nan,nan,15.690091371536255,16.890091371536254,0.00034332275390625,0.0,-0.20300334292538846,0.0,-5.330736973884233,0.7478069458704915,0.004264669331050315,-0.0023317438480318854,0.007333104781346701,0.0,0.0,0.0,0.0
25.793532133102417,0.056998312,0.28639814,-4.883348,-0.009065413176983369,nan,nan,nan,nan,nan,15.789935111999512,16.98993511199951,0.00036215782165527344,0.0,-0.22953315216530862,0.0,-5.346561478629689,0.745377907889868,0.007472718327765271,-0.004300387981515854,0.007660900243699932,0.0,0.0,0.0,0.0
25.893468856811523,0.049962457,0.2612014,-4.897429,-0.007456115544649186,nan,nan,nan,nan,nan,15.88985013961792,17.08985013961792,0.0003495216369628906,0.0,-0.25394315734176265,0.0,-5.349510842212857,0.7424141535148777,0.011807314263282642,-0.006125812074804485,0.0066654459345774145,0.0,0.0,0.0,0.0
25.99346661567688,0.04409291,0.2377006,-4.9134517,-0.004608638858047161,nan,nan,nan,nan,nan,15.989846229553223,17.189846229553222,0.0003886222839355469,0.0,-0.2760030538504987,0.0,-5.339446209190758,0.7387172584526205,0.01634800963202533,-0.0065749247432110745,0.004518053993745013,0.0,0.0,0.0,0.0
26.093504667282104,0.04225453,0.21031944,-4.936584,-0.001632358544607809,nan,nan,nan,nan,nan,16.089911460876465,17.289911460876464,0.0004291534423828125,0.0,-0.29549872213511363,0.0,-5.316714972187353,0.7346406049305454,0.01982366321690314,-0.005229063782357104,0.0021485974672450794,0.0,0.0,0.0,0.0
26.193338632583618,0.040375527,0.18579696,-4.9587736,0.00025924264402871905,nan,nan,nan,nan,nan,16.1897234916687,17.3897234916687,0.0003757476806640625,0.0,-0.3121930834265796,0.0,-5.282268995696845,0.7302574534315307,0.02275764434048639,-0.0024311727157765284,0.000160725160981064,0.0,0.0,0.0,0.0
26.293378353118896,0.036660455,0.15940511,-4.9825397,0.000956078530220044,nan,nan,nan,nan,nan,16.28986668586731,17.48986668586731,0.00043582916259765625,0.0,-0.3260242925277426,0.0,-5.23718039020239,0.7260036621206072,0.023423086925291187,-0.001263077956369042,-0.0007127496179310386,0.0,0.0,0.0,0.0
26.393357276916504,0.03294752,0.13587303,-5.0014567,0.0006345636851508452,nan,nan,nan,nan,nan,16.38974094390869,17.58974094390869,0.0004267692565917969,0.0,-0.3367780223090028,0.0,-5.183384277256209,0.7220304522056046,0.023736717748590055,-0.0013610441023050516,-0.0006426043966858242,0.0,0.0,0.0,0.0
26.49369215965271,0.03416464,0.11462554,-5.011187,0.0007723146853689288,nan,nan,nan,nan,nan,16.490066289901733,17.690066289901733,0.0003554821014404297,0.0,-0.3444224128012676,0.0,-5.122486550804327,0.7187080068609198,0.02266266416556948,0.0002727848889379318,-0.0006002090454125818,0.0,0.0,0.0,0.0
26.594242572784424,0.037568048,0.08954569,-5.02315,0.0014742090825980072,nan,nan,nan,nan,nan,16.590696096420288,17.790696096420287,0.0005195140838623047,0.0,-0.3488384816244329,0.0,-5.056792081571571,0.7156940546982135,0.02238792799266457,0.0032859606181814705,-0.0010134560395361734,0.0,0.0,0.0,0.0
26.693500518798828,0.039514225,0.06466484,-5.036985,0.002319903580681534,nan,nan,nan,nan,nan,16.689965963363647,17.889965963363647,0.0003535747528076172,0.0,-0.34996337540311573,0.0,-4.989874682903743,0.7128941000882814,0.02438556785320144,0.0064538936521182175,-0.0017666027072314,0.0,0.0,0.0,0.0
26.7935209274292,0.03784903,0.036540285,-5.0525723,0.002964462507265288,nan,nan,nan,nan,nan,16.789901971817017,17.989901971817016,0.0004172325134277344,0.0,-0.34784335073993405,0.0,-4.922889345384734,0.7103262699368718,0.027811845139278934,0.0065905397662944665,-0.002434574890077176,0.0,0.0,0.0,0.0
26.89359426498413,0.033635784,0.007295917,-5.0587378,0.0030677971621836057,nan,nan,nan,nan,nan,16.889973878860474,18.089973878860473,0.00039005279541015625,0.0,-0.3424702756097144,0.0,-4.858689334204131,0.7088407793115482,0.0314446214235877,0.00416708238596214,-0.002634849534186553,0.0,0.0,0.0,0.0
26.99357318878174,0.027053181,-0.015994191,-5.059209,0.0020570845620648667,nan,nan,nan,nan,nan,16.98997402191162,18.18997402191162,0.00045490264892578125,0.0,-0.3339023306598562,0.0,-4.799801903042945,0.7082784030748994,0.03343686105586009,-0.0001350056162991354,-0.0020743934857897824,0.0,0.0,0.0,0.0
27.09374713897705,0.018500747,-0.04014098,-5.0576253,0.0005712533130556984,nan,nan,nan,nan,nan,17.09015417098999,18.29015417098999,0.00039458274841308594,0.0,-0.32219303651525993,0.0,-4.748289177338907,0.7084154299359023,0.033796129950629215,-0.004763785482230696,-0.0007737375523758384,0.0,0.0,0.0,0.0
27.193395853042603,0.009443244,-0.06888948,-5.051731,-0.0008552225514126461,nan,nan,nan,nan,nan,17.189774751663208,18.389774751663207,0.0003612041473388672,0.0,-0.30755508256542535,0.0,-4.706394777847094,0.7093430431939309,0.03437507127724107,-0.009157717441734738,0.0005972109298146037,0.0,0.0,0.0,0.0
27.293737411499023,0.0027425631,-0.097225696,-5.044236,-0.0017127109680946965,nan,nan,nan,nan,nan,17.29021382331848,18.49021382331848,0.00034928321838378906,0.0,-0.28991224927854764,0.0,-4.675150874371361,0.7110980053950098,0.03667447490630228,-0.011194288434670465,0.0015977721985887738,0.0,0.0,0.0,0.0
27.393404006958008,-0.00830952,-0.1236937,-5.042097,-0.0031437624355147437,nan,nan,nan,nan,nan,17.38977837562561,18.58977837562561,0.0005431175231933594,0.0,-0.26972742356442836,0.0,-4.656227593933477,0.7128296489292129,0.03668552535246669,-0.013724329737931711,0.0027656250501852083,0.0,0.0,0.0,0.0
27.493417263031006,-0.015369583,-0.14508791,-5.0348306,-0.004059284429739061,nan,nan,nan,nan,nan,17.48979139328003,18.68979139328003,0.0003592967987060547,0.0,-0.2469385918109171,0.0,-4.650003434231943,0.7151818183248512,0.034136270149755586,-0.014246467313132971,0.003736698927534153,0.0,0.0,0.0,0.0
27.595154285430908,-0.02000716,-0.16481055,-5.0186114,-0.004446610903822496,nan,nan,nan,nan,nan,17.591761112213135,18.791761112213134,0.0004069805145263672,0.0,-0.22133112933280236,0.0,-4.657086060473105,0.7183620584369463,0.029615735348149416,-0.011877589191110014,0.004140543043140262,0.0,0.0,0.0,0.0
27.69374990463257,-0.02301021,-0.17872621,-4.9999366,-0.004213446338857308,nan,nan,nan,nan,nan,17.69013810157776,18.890138101577758,0.0003592967987060547,0.0,-0.19458652807488636,0.0,-4.67651622795015,0.7220781178611109,0.024530776838361423,-0.008026466489163947,0.003962131767355848,0.0,0.0,0.0,0.0
27.79374361038208,-0.025818922,-0.1880225,-4.978921,-0.003360173966785767,nan,nan,nan,nan,nan,17.790222883224487,18.990222883224487,0.0003612041473388672,0.0,-0.16557475516530346,0.0,-4.708249184074503,0.7261094103760585,0.017064340454487226,-0.004413449246529385,0.003280798993074471,0.0,0.0,0.0,0.0
27.89370560646057,-0.026032181,-0.19103122,-4.9610233,-0.0025063586372823243,nan,nan,nan,nan,nan,17.89011812210083,19.09011812210083,0.0003867149353027344,0.0,-0.13507359647535333,0.0,-4.750781017546053,0.7302057997847992,0.0074046771778775245,-0.0005680191059599063,0.0023704314854852207,0.0,0.0,0.0,0.0
27.994224786758423,-0.026959678,-0.19145735,-4.939141,-0.0013926627480805396,nan,nan,nan,nan,nan,17.99084734916687,19.19084734916687,0.0003635883331298828,0.0,-0.10304431083734178,0.0,-4.803045535987526,0.7341268891706576,0.00024488370994515306,0.0025190941653182126,0.0014414609710898573,0.0,0.0,0.0,0.0
28.094133377075195,-0.026063424,-0.18606368,-4.9191375,-0.00026708032333089965,nan,nan,nan,nan,nan,18.090576171875,19.290576171875,0.00036597251892089844,0.0,-0.07037043982647896,0.0,-4.862133153734329,0.7378701475144241,-0.007237104562215352,0.004694842914446732,0.00039363327233560714,0.0,0.0,0.0,0.0
28.193678855895996,-0.02442868,-0.17441425,-4.8994026,0.0004809366231538093,nan,nan,nan,nan,nan,18.190065383911133,19.390065383911132,0.0003657341003417969,0.0,-0.03712370488237499,0.0,-4.926171426737795,0.7413404432601677,-0.014365819297297553,0.007060301379711605,-0.00035411713666040254,0.0,0.0,0.0,0.0
28.29382610321045,-0.024480857,-0.16089801,-4.88611,0.0008488121599911861,nan,nan,nan,nan,nan,18.290298223495483,19.490298223495483,0.00039958953857421875,0.0,-0.0032823089410294938,0.0,-4.993435670794705,0.7442265295750975,-0.020015283391555234,0.007599611521816153,-0.0007050002628712194,0.0,0.0,0.0,0.0
28.393874883651733,-0.029372472,-0.13946381,-4.8814673,0.0013031650927661318,nan,nan,nan,nan,nan,18.390288591384888,19.590288591384887,0.00037479400634765625,0.0,0.030508154555796817,0.0,-5.060784068043033,0.746173143682523,-0.024472285241195848,0.005547901737992557,-0.0010295808263013591,0.0,0.0,0.0,0.0
28.493744373321533,-0.029733863,-0.11712578,-4.8784657,0.002342943676270111,nan,nan,nan,nan,nan,18.490139722824097,19.690139722824096,0.0004544258117675781,0.0,0.06396751325715962,0.0,-5.125780185331266,0.7473534329199361,-0.027830858246923464,0.003377334722768394,-0.0017039557589596016,0.0,0.0,0.0,0.0
28.594031810760498,-0.027247872,-0.09057163,-4.88068,0.003575095852485715,nan,nan,nan,nan,nan,18.59050679206848,19.79050679206848,0.0003571510314941406,0.0,0.0969991295369342,0.0,-5.186399238877997,0.7479629702529021,-0.028917306818217022,0.0028319943621182364,-0.002637561551515128,0.0,0.0,0.0,0.0
28.6938636302948,-0.025352778,-0.06463306,-4.8862696,0.004665946988565181,nan,nan,nan,nan,nan,18.69031548500061,19.89031548500061,0.00036525726318359375,0.0,0.1289428286064841,0.0,-5.239747057733041,0.7477400072281121,-0.028716387375373412,0.0037613010595079367,-0.0036276666240142893,0.0,0.0,0.0,0.0
28.793798685073853,-0.027499016,-0.035776395,-4.8920994,0.005730017903288583,nan,nan,nan,nan,nan,18.79026961326599,19.99026961326599,0.0003559589385986328,0.0,0.15973100467227203,0.0,-5.284253429018452,0.7471813308120698,-0.0267939041132215,0.0025021585595404374,-0.004536198624883505,0.0,0.0,0.0,0.0
28.89349389076233,-0.02915402,-0.01125991,-4.8950543,0.005584985466944612,nan,nan,nan,nan,nan,18.889888048171997,20.089888048171996,0.00042748451232910156,0.0,0.18893358745541078,0.0,-5.318083572494005,0.746211408464342,-0.024453813786678855,0.000802286029492383,-0.004741804943834522,0.0,0.0,0.0,0.0
28.99372410774231,-0.029812906,0.014556838,-4.9042287,0.0052153075972746306,nan,nan,nan,nan,nan,18.990172863006592,20.19017286300659,0.00037360191345214844,0.0,0.216562732097785,0.0,-5.340257922130316,0.7446255993209033,-0.020963281085726426,-8.037565601929305e-05,-0.004480809883100353,0.0,0.0,0.0,0.0
29.093708992004395,-0.029908411,0.043299384,-4.9231534,0.0047358335743421095,nan,nan,nan,nan,nan,19.09012269973755,20.290122699737548,0.00037550926208496094,0.0,0.24207652424353526,0.0,-5.349672524581105,0.7420299206998474,-0.018087478891719834,-0.0002120227435168105,-0.004162491869542318,0.0,0.0,0.0,0.0
29.19402527809143,-0.029268421,0.07131816,-4.948165,0.003879810229088637,nan,nan,nan,nan,nan,19.19048810005188,20.39048810005188,0.00038909912109375,0.0,0.265424046015543,0.0,-5.346029320199444,0.73847091590441,-0.01750001937321928,0.00019218116028325396,-0.0035667965321140426,0.0,0.0,0.0,0.0
29.293837547302246,-0.026749743,0.10179514,-4.9783792,0.0015914532694544764,nan,nan,nan,nan,nan,19.290372133255005,20.490372133255004,0.0003597736358642578,0.0,0.2861815188224961,0.0,-5.329509008201343,0.7344219708814441,-0.017803742726582566,0.0020823565604759673,-0.0019290541659619052,0.0,0.0,0.0,0.0
29.393714427947998,-0.016813885,0.12764436,-5.007239,-0.0005001488354709682,nan,nan,nan,nan,nan,19.390145778656006,20.590145778656005,0.00037384033203125,0.0,0.3042547223821068,0.0,-5.300777846683824,0.7300948840777964,-0.01708387252671308,0.006365469492716335,1.9835403584874564e-05,0.0,0.0,0.0,0.0
29.493701696395874,-0.005714833,0.1549077,-5.0372767,-0.002108789836115431,nan,nan,nan,nan,nan,19.49013042449951,20.69013042449951,0.0004012584686279297,0.0,0.3195291564592757,0.0,-5.260795101583941,0.7257780551934886,-0.015816410270409382,0.011277128157879658,0.0015915531352066943,0.0,0.0,0.0,0.0
29.593618631362915,0.004257386,0.17957218,-5.063038,-0.002920551817013512,nan,nan,nan,nan,nan,19.590041160583496,20.790041160583495,0.0003650188446044922,0.0,0.3318131933819641,0.0,-5.211138059791754,0.7216296221566091,-0.014947754198434783,0.014628055557268843,0.0025892953387916693,0.0,0.0,0.0,0.0
29.693610906600952,0.014516387,0.20597097,-5.089643,-0.0032057735304857416,nan,nan,nan,nan,nan,19.690009593963623,20.890009593963622,0.00036907196044921875,0.0,0.34100910064481865,0.0,-5.153592982001143,0.7178199812925337,-0.015392438054852358,0.016026448946160267,0.0029538349411897483,0.0,0.0,0.0,0.0
