time,x,y,z,yaw,platform,trajectory,traj_double,traj_short,traj_spin,traj_time,ref_time,comptime,x_ref,y_ref,yaw_ref,z_ref,throttle_input,p_input,q_input,r_input,cbf_term_pitch_cbf,cbf_term_roll_cbf,cbf_term_thrust_cbf,cbf_term_yaw_cbf
10.00230860710144,0.032325417,-0.08897004,-2.8092444,-0.00331058900010601,SIM,CIRCLE_VERTICAL,DblSpd,Not Short,NoSpin,9.5367431640625e-07,1.2000009536743164,0.007730245590209961,0.1397773084429071,0.0,0.0,-5.320877397216533,0.7775562056896288,-0.005082542816695552,-0.012332874833007964,0.0010140531395794814,0.0,0.0,0.0,0.0
10.112366914749146,0.029577749,-0.08468703,-2.8277628,-0.0013520739036823022,nan,nan,nan,nan,nan,0.11008763313293457,1.3100876331329345,0.00040984153747558594,0.104904994693177,0.0,0.0,-5.333908583430293,0.7848271465752883,-0.012761468220345549,-0.02892085596262166,0.0015440631135996649,0.0,0.0,-124.9517477414025,0.0
10.212667465209961,0.025491958,-0.07685621,-2.8560605,9.978423605260141e-05,nan,nan,nan,nan,nan,0.21037077903747559,1.4103707790374755,0.0003497600555419922,0.07209469482062039,0.0,0.0,-5.342494313790349,0.794266078567824,-0.013656301359585975,-0.020565220005357286,0.00031391821302289956,0.0,0.0,-93.77878574653924,0.0
10.312303304672241,0.021119434,-0.06633836,-2.89976,0.0011746134925646038,nan,nan,nan,nan,nan,0.3099799156188965,1.5099799156188964,0.0005235671997070312,0.03883408660005927,0.0,0.0,-5.34783891921109,0.802708081652448,-0.016414888545344158,-0.007816996312590141,-0.0007781610450894767,0.0,0.0,-60.82597115938919,0.0
10.412675380706787,0.016262792,-0.05678241,-2.968993,0.0013931621227676887,nan,nan,nan,nan,nan,0.41039228439331055,1.6103922843933105,0.00036787986755371094,0.004941996448339724,0.0,0.0,-5.349965107790912,0.8102680624438149,-0.017602361389521776,0.004191757691237737,-0.0011441300724232162,0.0,0.0,-23.07516817513332,0.0
10.513226509094238,0.01258035,-0.051721323,-3.0459015,0.0015376042256188271,nan,nan,nan,nan,nan,0.5109338760375977,1.7109338760375976,0.0003895759582519531,-0.029040185680222402,0.0,0.0,-5.3487931587856306,0.8123233216912296,-0.01632108410719149,0.014562438114731313,-0.0011869901456267105,0.0,0.0,0.0,0.0
10.612582206726074,0.010020316,-0.049636617,-3.1402204,0.001572835842331719,nan,nan,nan,nan,nan,0.6102688312530518,1.8102688312530517,0.00035881996154785156,-0.062346620796541075,0.0,0.0,-5.344402234132202,0.7978069111114782,-0.012994063831673345,0.023232559656619415,-0.0011633688736923276,0.0,0.0,0.0,0.0
10.712765216827393,0.0084505435,-0.049731765,-3.245309,0.0015578521086861133,nan,nan,nan,nan,nan,0.7104823589324951,1.910482358932495,0.0003600120544433594,-0.09536468451235657,0.0,0.0,-5.336757445274576,0.7822816993933911,-0.007347550222798816,0.029704108571550807,-0.0012559316332490253,0.0,0.0,0.0,0.0
10.812495231628418,0.0075452076,-0.049720906,-3.3428628,0.001030296057479652,nan,nan,nan,nan,nan,0.810187578201294,2.010187578201294,0.000431060791015625,-0.12732837587606563,0.0,0.0,-5.326017614089735,0.7689192320726852,-0.0017416236343554487,0.03467111554817302,-0.0009668708078554434,0.0,0.0,0.5855327581914622,0.0
10.913645267486572,0.005540047,-0.043667488,-3.4675443,0.0006624289532671881,nan,nan,nan,nan,nan,0.9116835594177246,2.111683559417725,0.0008027553558349609,-0.15865050935051345,0.0,0.0,-5.311977588750895,0.7585356056252753,-0.0006151423619662679,0.037054956476511615,-0.0005547052414619483,0.0,0.0,7.382560360627458,0.0
11.012649774551392,-0.00014936423,-0.037751347,-3.6136665,0.0004201856968030378,nan,nan,nan,nan,nan,1.010394811630249,2.210394811630249,0.000354766845703125,-0.18765214550593154,0.0,0.0,-5.2954431794559165,0.7490225236486171,-0.0010955425825191197,0.03580336359481722,-0.00033095455185738764,0.0,0.0,12.795911190727846,0.0
11.112725019454956,-0.006722664,-0.03439642,-3.752823,0.00044927661171710815,nan,nan,nan,nan,nan,1.1104588508605957,2.310458850860596,0.0003447532653808594,-0.2153075783373362,0.0,0.0,-5.275939570758729,0.7403152036936396,-0.0012469002879760076,0.03096659950289366,-0.00019415509267645915,0.0,0.0,19.54433699474555,0.0
11.21256947517395,-0.018312104,-0.033620104,-3.9046764,0.0011443413722722325,nan,nan,nan,nan,nan,1.2102508544921875,2.4102508544921877,0.0004134178161621094,-0.24088340601021618,0.0,0.0,-5.253919642227452,0.7323525150140369,-8.981986930972517e-05,0.02359233265498649,-0.0005723833858457359,0.0,0.0,24.46759251237928,0.0
11.3124520778656,-0.035703655,-0.03577242,-4.0441756,0.002461486296492745,nan,nan,nan,nan,nan,1.3101332187652588,2.510133218765259,0.0003552436828613281,-0.26423955760111134,0.0,0.0,-5.22951569924249,0.725076927425653,0.003988765067957552,0.009890582664976633,-0.0017394646295211993,0.0,0.0,29.946532433036012,0.0
11.412757873535156,-0.056766827,-0.03798829,-4.194439,0.003864041485084713,nan,nan,nan,nan,nan,1.4104599952697754,2.6104599952697756,0.0003724098205566406,-0.28522154107667175,0.0,0.0,-5.202851355691424,0.7184344411087189,0.007331794026219513,-0.0044400105808370515,-0.0028525761992178127,0.0,0.0,33.79646412738756,0.0
11.512682676315308,-0.08002459,-0.04210306,-4.3488803,0.005184614158313465,nan,nan,nan,nan,nan,1.5103771686553955,2.7103771686553957,0.00037479400634765625,-0.30345404021035316,0.0,0.0,-5.174400818461421,0.7123744987703774,0.010398578865935624,-0.01844174805444338,-0.003942515849874222,0.0,0.0,38.58019510421081,0.0
11.612332820892334,-0.10254117,-0.043400373,-4.4865494,0.005696868697085029,nan,nan,nan,nan,nan,1.61000657081604,2.81000657081604,0.0003733634948730469,-0.31881779908817787,0.0,0.0,-5.1444133338184885,0.7068498820519408,0.012125842757265887,-0.030103225624379462,-0.004561531095544783,0.0,0.0,41.86439181084598,0.0
11.712352275848389,-0.12532236,-0.042896412,-4.621182,0.005329188490588243,nan,nan,nan,nan,nan,1.7100324630737305,2.9100324630737306,0.0004050731658935547,-0.3312701655691067,0.0,0.0,-5.112960512586552,0.7018165943812986,0.010050480811359185,-0.03914413697501453,-0.004413610910623191,0.0,0.0,45.055290574692094,0.0
11.812382698059082,-0.14591226,-0.0420579,-4.74508,0.004687581911569387,nan,nan,nan,nan,nan,1.810072422027588,3.010072422027588,0.0004031658172607422,-0.34062904504572294,0.0,0.0,-5.0804478319859445,0.6972337326477483,0.00655292871843191,-0.044393816302648464,-0.003904757231808252,0.0,0.0,47.601192544289574,0.0
11.912797689437866,-0.16812067,-0.044538684,-4.892529,0.003988873431721591,nan,nan,nan,nan,nan,1.9104907512664795,3.1104907512664797,0.0003452301025390625,-0.34682225681280915,0.0,0.0,-5.0470565848661995,0.6930633501319585,0.004293588471919513,-0.0466768270975849,-0.0033146472612634553,0.0,0.0,50.54357771618814,0.0
12.012671709060669,-0.18998943,-0.04526434,-5.0163717,0.0036201589571751187,nan,nan,nan,nan,nan,2.01041579246521,3.21041579246521,0.0003457069396972656,-0.3497438101066045,0.0,0.0,-5.0133890736093045,0.6892703130787349,0.002389915340137407,-0.04720952294263093,-0.002928463076707909,0.0,0.0,51.20800838056103,0.0
12.112470149993896,-0.2142653,-0.04323344,-5.1345897,0.0031778287670153,nan,nan,nan,nan,nan,2.110229969024658,3.3102299690246584,0.0003428459167480469,-0.3494069740856614,0.0,0.0,-4.979634184025629,0.6858221531767502,-0.0005766360011053498,-0.047011353932296496,-0.0027329458776864457,0.0,0.0,50.59607115006256,0.0
12.213818073272705,-0.2367256,-0.0383602,-5.228995,0.002348550245639392,nan,nan,nan,nan,nan,2.211944818496704,3.4119448184967043,0.0008919239044189453,-0.34572025282204216,0.0,0.0,-4.945433464571559,0.6826889180287447,-0.005444190640528854,-0.045859566311872206,-0.0021994914408387414,0.0,0.0,48.20284758601951,0.0
12.312598943710327,-0.26217005,-0.028411007,-5.312178,0.001209967605603767,nan,nan,nan,nan,nan,2.3102798461914062,3.5102798461914064,0.0003654956817626953,-0.3389805482659414,0.0,0.0,-4.912866838130814,0.6798430214774268,-0.012547170109518386,-0.044114310182904126,-0.0014901965292561587,0.0,0.0,43.20880468915857,0.0
12.412618398666382,-0.28279984,-0.014592778,-5.387623,-0.00018796566574546506,nan,nan,nan,nan,nan,2.41030216217041,3.6103021621704103,0.0003552436828613281,-0.3289859235013419,0.0,0.0,-4.8805501689496,0.6772590954132441,-0.020426734473902978,-0.040796540430493404,-0.000582093046744604,0.0,0.0,38.354308542387756,0.0
12.512695550918579,-0.30347356,-0.0025775149,-5.453842,-0.0013410900068327324,nan,nan,nan,nan,nan,2.5104148387908936,3.7104148387908937,0.0003638267517089844,-0.31590511575722446,0.0,0.0,-4.8493216742911756,0.6749138444442816,-0.02531790862440819,-0.03591472363332038,0.00036729907267576376,0.0,0.0,31.468508272700923,0.0
12.612573862075806,-0.3233154,0.009557785,-5.504357,-0.0020974561794427507,nan,nan,nan,nan,nan,2.6103286743164062,3.8103286743164064,0.0003814697265625,-0.2999028291553047,0.0,0.0,-4.819560832786659,0.6727859045666794,-0.02583474313704579,-0.030711843830855592,0.001057138079515063,0.0,0.0,23.74955395160489,0.0
12.712470054626465,-0.3460827,0.023752483,-5.5496135,-0.0028057361069664904,nan,nan,nan,nan,nan,2.710149049758911,3.9101490497589113,0.00042128562927246094,-0.281124087149325,0.0,0.0,-4.791507200065665,0.6708557067442326,-0.026515969406119385,-0.028006450715807405,0.0016583298301283463,0.0,0.0,14.286289413249662,0.0
12.812379360198975,-0.36710677,0.03087779,-5.5824704,-0.003062371687267177,nan,nan,nan,nan,nan,2.8100829124450684,4.0100829124450685,0.0004372596740722656,-0.2597042406686527,0.0,0.0,-4.765364735432377,0.6691053460937745,-0.021390686601174814,-0.026802414204973816,0.002022128040540104,0.0,0.0,4.522733668962572,0.0
12.912506580352783,-0.37613842,0.03914716,-5.598592,-0.003390474782183963,nan,nan,nan,nan,nan,2.910182476043701,4.110182476043701,0.0003566741943359375,-0.23582138714641834,0.0,0.0,-4.741372326762314,0.6711445228507277,-0.014340932838731819,-0.021303249833814028,0.0023991680269782024,0.0,0.0,0.0,0.0
13.013358354568481,-0.37932634,0.04982021,-5.5990314,-0.0037504665652084677,nan,nan,nan,nan,nan,3.0110418796539307,4.211041879653931,0.0003490447998046875,-0.2095264873602166,0.0,0.0,-4.719645490326107,0.6783907518698441,-0.008274903781773271,-0.01234276103891445,0.00286250351757801,0.0,0.0,0.0,0.0
13.11272406578064,-0.37615013,0.059283078,-5.5911875,-0.0038131792000561755,nan,nan,nan,nan,nan,3.1104278564453125,4.310427856445313,0.0003497600555419922,-0.18166782425149022,0.0,0.0,-4.700839839497754,0.6848912009048852,-0.004528049441344953,-0.004357007639581657,0.003121585725603153,0.0,0.0,0.0,0.0
13.212626934051514,-0.3678853,0.06846154,-5.575592,-0.0035629107104955737,nan,nan,nan,nan,nan,3.2103872299194336,4.410387229919434,0.0003676414489746094,-0.1519589944502594,0.0,0.0,-4.68470892177915,0.691547859015961,-0.0008536842390650333,0.006032448792568822,0.0032945468961357314,0.0,0.0,0.0,0.0
13.312580347061157,-0.3589707,0.076948054,-5.555115,-0.00237578615292591,nan,nan,nan,nan,nan,3.310265064239502,4.510265064239502,0.0003857612609863281,-0.12085840639208219,0.0,0.0,-4.671528927294402,0.6977897899806104,0.0004998595026641967,0.01438275676018614,0.0025561779332779902,0.0,0.0,0.0,0.0
13.412590026855469,-0.35041478,0.08400945,-5.528648,-0.00024052125004539373,nan,nan,nan,nan,nan,3.4102988243103027,4.610298824310303,0.0003540515899658203,-0.08858111409086765,0.0,0.0,-4.661394940636705,0.7034073336240181,0.0009867865897542462,0.018773470369593027,0.001055661828082949,0.0,0.0,0.0,0.0
13.512771368026733,-0.3375672,0.08610342,-5.495125,0.0011016809029098327,nan,nan,nan,nan,nan,3.5104801654815674,4.710480165481568,0.00034999847412109375,-0.05542690591015937,0.0,0.0,-4.654416640879185,0.7088036233572942,0.003597857838267237,0.020921888091434512,-0.0005186827409384071,0.0,0.0,0.0,0.0
13.612643480300903,-0.32352912,0.08437174,-5.463229,0.0005471537665454147,nan,nan,nan,nan,nan,3.6103694438934326,4.810369443893433,0.0003504753112792969,-0.02185193484090274,0.0,0.0,-4.6506828189972484,0.7135776271414553,0.008783126132835651,0.021715169723133622,-0.0006348782526200575,0.0,0.0,0.0,0.0
13.712620258331299,-0.3068955,0.07997481,-5.4306026,-0.0019699427344650466,nan,nan,nan,nan,nan,3.7103142738342285,4.910314273834229,0.0003428459167480469,0.011945394215399656,0.0,0.0,-4.650203905743591,0.7174867874341504,0.014669525137154443,0.02023570135789193,0.0009712299146060029,0.0,0.0,0.0,0.0
13.812618494033813,-0.28435352,0.07342722,-5.4028254,-0.0049037986880386165,nan,nan,nan,nan,nan,3.810321092605591,5.010321092605591,0.0004565715789794922,0.045652108584734404,0.0,0.0,-4.652990079418805,0.720929635114276,0.020232242656218015,0.020154052257480955,0.0033889791374323713,0.0,0.0,0.0,0.0
13.912495136260986,-0.26075706,0.065294854,-5.3630776,-0.007571857553855471,nan,nan,nan,nan,nan,3.9101808071136475,5.110180807113648,0.00035881996154785156,0.07888403567192921,0.0,0.0,-4.659005412189416,0.7243349550210637,0.023753931536762335,0.01962042663254569,0.005540888669132696,0.0,0.0,0.0,0.0
14.012633562088013,-0.23579302,0.055333715,-5.3188057,-0.009582583969847704,nan,nan,nan,nan,nan,4.01032280921936,5.2103228092193605,0.0003638267517089844,0.11147204302149832,0.0,0.0,-4.668226005201412,0.72797074988018,0.025360000026346557,0.018719590915543344,0.00735913244404139,0.0,0.0,0.0,0.0
14.112602233886719,-0.21036905,0.04735646,-5.277713,-0.01005168874467983,nan,nan,nan,nan,nan,4.1103127002716064,5.310312700271607,0.0003714561462402344,0.14296933814647922,0.0,0.0,-4.680532054268417,0.731357793181263,0.024812611058305956,0.01801476735110882,0.008402367762365472,0.0,0.0,0.0,0.0
14.212573051452637,-0.18258548,0.042089697,-5.2383704,-0.008657940140478215,nan,nan,nan,nan,nan,4.210285425186157,5.410285425186157,0.0003600120544433594,0.17312698929752152,0.0,0.0,-4.695817414080333,0.7342999136960695,0.019955666292228526,0.018633970867190576,0.007512637829348429,0.0,0.0,0.0,0.0
14.312451362609863,-0.15537858,0.041591957,-5.203485,-0.004159459508703519,nan,nan,nan,nan,nan,4.310136079788208,5.510136079788208,0.0003807544708251953,0.2016353254522091,0.0,0.0,-4.713917502230944,0.7367730548639841,0.011573753929073102,0.01937553606502961,0.004199930425555014,0.0,0.0,0.0,0.0
14.412476539611816,-0.12089968,0.03892683,-5.158915,0.0013857461512498865,nan,nan,nan,nan,nan,4.410169839859009,5.610169839859009,0.0003695487976074219,0.22831361888792587,0.0,0.0,-4.734721106323366,0.7391578345266838,0.004255891537301136,0.020515315178485916,-2.602688186905468e-06,0.0,0.0,0.0,0.0
14.513132095336914,-0.08977966,0.03503709,-5.121196,0.004612097391051807,nan,nan,nan,nan,nan,4.510829210281372,5.710829210281372,0.0003478527069091797,0.2530050706044376,0.0,0.0,-4.7581561779816495,0.741327145329652,4.47941407252571e-05,0.022109346655263904,-0.0035575865369965975,0.0,0.0,0.0,0.0
14.61274528503418,-0.05726961,0.03386672,-5.0860147,0.005755126325851791,nan,nan,nan,nan,nan,4.610454559326172,5.810454559326172,0.00036263465881347656,0.27508689540440934,0.0,0.0,-4.783604066635338,0.7428375411840161,-0.0015348937629799757,0.022149685243541974,-0.0043827985489252085,0.0,0.0,0.0,0.0
14.712642192840576,-0.027363589,0.042612076,-5.0572033,0.009865939893391056,nan,nan,nan,nan,nan,4.710628032684326,5.910628032684326,0.0003821849822998047,0.2947195704837132,0.0,0.0,-4.8112134147406245,0.7440111789357398,-0.008973466278843881,0.021333379413584482,-0.0073043851612571995,0.0,0.0,0.0,0.0
14.812609910964966,0.0025371949,0.051670313,-5.028388,0.013215018763844937,nan,nan,nan,nan,nan,4.810296535491943,6.0102965354919435,0.0003592967987060547,0.31151313188632046,0.0,0.0,-4.840439451422427,0.7449733298522582,-0.015131085341026276,0.020333967336760312,-0.010282657439389557,0.0,0.0,0.0,0.0
14.91288948059082,0.030342977,0.05879369,-5.0070357,0.01578731307560451,nan,nan,nan,nan,nan,4.910678148269653,6.1106781482696535,0.0004734992980957031,0.32550616070337385,0.0,0.0,-4.871369757272446,0.745658394497518,-0.018329378421771767,0.019484672914075966,-0.012506722033941374,0.0,0.0,0.0,0.0
15.012630462646484,0.056351893,0.06545591,-4.985592,0.017760954399222137,nan,nan,nan,nan,nan,5.01032018661499,6.21032018661499,0.0003902912139892578,0.3363677375067386,0.0,0.0,-4.903269729843251,0.7460843232491978,-0.01902063105962329,0.018538519622966283,-0.014347365810017677,0.0,0.0,0.0,0.0
15.1126868724823,0.07665822,0.069461696,-4.9693666,0.018424093051836933,nan,nan,nan,nan,nan,5.1103692054748535,6.310369205474854,0.0003554821014404297,0.3441362910701661,0.0,0.0,-4.936201777701335,0.7464940423142976,-0.017404100414716784,0.015289054371564857,-0.015319761968641023,0.0,0.0,0.0,0.0
15.212505102157593,0.09841829,0.069527015,-4.9606376,0.017783311507150137,nan,nan,nan,nan,nan,5.210280895233154,6.4102808952331545,0.0004887580871582031,0.34868456707847867,0.0,0.0,-4.969683788473922,0.7462838267614106,-0.01179611075678865,0.012097816387962208,-0.015124751417711461,0.0,0.0,0.0,0.0
15.312334299087524,0.12004051,0.06638006,-4.9510236,0.016267885692323104,nan,nan,nan,nan,nan,5.3100221157073975,6.510022115707398,0.0005664825439453125,0.3499835757139455,0.0,0.0,-5.003390682893011,0.7461853143292699,-0.004121665650429698,0.010581521656817885,-0.014077675005885353,0.0,0.0,0.0,0.0
15.412497282028198,0.1438794,0.060571667,-4.9395347,0.01380507493510571,nan,nan,nan,nan,nan,5.410192489624023,6.610192489624024,0.0004761219024658203,0.34801635293494004,0.0,0.0,-5.03721045672742,0.746170052133664,0.003384243721066133,0.010517778915558251,-0.012288779440768432,0.0,0.0,0.0,0.0
15.512800455093384,0.16868338,0.052504513,-4.9355245,0.011183196302913187,nan,nan,nan,nan,nan,5.510517597198486,6.7105175971984865,0.0003979206085205078,0.34277814657529376,0.0,0.0,-5.070732893553187,0.7461296737469171,0.009640978614704863,0.012342804841527923,-0.010184699847898162,0.0,0.0,0.0,0.0
15.61282753944397,0.19053468,0.0428699,-4.937691,0.009222128946959528,nan,nan,nan,nan,nan,5.610596179962158,6.810596179962158,0.0003521442413330078,0.3343433621946032,0.0,0.0,-5.103510947036574,0.7455343645559933,0.014316401927701809,0.016099530937380764,-0.00854308612853007,0.0,0.0,0.0,0.0
15.71260118484497,0.21018738,0.029095173,-4.9420443,0.006982423871654326,nan,nan,nan,nan,nan,5.710452079772949,6.910452079772949,0.0003497600555419922,0.3228111206959534,0.0,0.0,-5.135251544741724,0.7446599648978858,0.019599771573787138,0.017804470808643738,-0.006744942581650459,0.0,0.0,0.0,0.0
15.812896966934204,0.2246736,0.018893922,-4.9510465,0.005178400336683556,nan,nan,nan,nan,nan,5.810657739639282,7.010657739639282,0.0003769397735595703,0.3082175012572337,0.0,0.0,-5.165837184969919,0.743739432729277,0.022006559083836922,0.018652102344474876,-0.00510513758955903,0.0,0.0,0.0,0.0
15.912679433822632,0.23690353,0.0065153902,-4.956303,0.003228789210835148,nan,nan,nan,nan,nan,5.910369873046875,7.110369873046875,0.00040340423583984375,0.2908272299427896,0.0,0.0,-5.194729356605016,0.7428549074852346,0.022707736064247655,0.017856229936511425,-0.0034697795659159748,0.0,0.0,0.0,0.0
16.012624740600586,0.2454788,-0.0067404313,-4.9629397,0.001130356601074389,nan,nan,nan,nan,nan,6.010338544845581,7.210338544845581,0.00037550926208496094,0.27068216786931176,0.0,0.0,-5.221880968083272,0.7423031476247623,0.022018426201051034,0.01569142042625038,-0.0018257594264395722,0.0,0.0,0.0,0.0
16.11271834373474,0.24856769,-0.01710895,-4.97356,-0.0006354938617768231,nan,nan,nan,nan,nan,6.110457897186279,7.3104578971862795,0.0003483295440673828,0.24797542757926516,0.0,0.0,-5.246998354886992,0.7413866207093995,0.019814177863322666,0.011341075500531612,-9.048986307808164e-05,0.0,0.0,0.0,0.0
16.213087558746338,0.24659711,-0.023368275,-4.991554,-0.0020074752782254027,nan,nan,nan,nan,nan,6.210907697677612,7.4109076976776125,0.00046181678771972656,0.2228616881465999,0.0,0.0,-5.269875282225786,0.7399991114969754,0.014138733424696525,0.005974803740839231,0.0012682463702808962,0.0,0.0,0.0,0.0
16.312849283218384,0.24481845,-0.031093314,-5.0172563,-0.0032529878057364204,nan,nan,nan,nan,nan,6.310612440109253,7.510612440109253,0.00041675567626953125,0.195857362926305,0.0,0.0,-5.2900687735478495,0.7381667504994865,0.00840871413980711,0.0026273161699118734,0.0023824142910216072,0.0,0.0,0.0,0.0
16.412846088409424,0.24034484,-0.038290717,-5.046852,-0.004722418743609942,nan,nan,nan,nan,nan,6.410603284835815,7.610603284835816,0.0004162788391113281,0.1669500769179846,0.0,0.0,-5.30761611111429,0.7360707352237218,0.003389458267767988,0.0003685885686429336,0.003528012246823693,0.0,0.0,0.0,0.0
16.512789487838745,0.23342082,-0.04804133,-5.0716844,-0.006041504741458762,nan,nan,nan,nan,nan,6.510513067245483,7.710513067245484,0.0003552436828613281,0.13650956205959855,0.0,0.0,-5.322281149722252,0.734225521593949,1.676079337504382e-05,-0.001860618815606641,0.004784965923293002,0.0,0.0,0.0,0.0
16.61339020729065,0.22497986,-0.06124518,-5.0938377,-0.006912867474176292,nan,nan,nan,nan,nan,6.611431360244751,7.811431360244751,0.0007314682006835938,0.1044711905883538,0.0,0.0,-5.334044563399933,0.7326847658378446,0.0016491688633230223,-0.004539558868503176,0.005734063083332019,0.0,0.0,0.0,0.0
16.7126681804657,0.21822785,-0.07421665,-5.117566,-0.0061900362468491135,nan,nan,nan,nan,nan,6.71037483215332,7.9103748321533205,0.00039267539978027344,0.07209335295485476,0.0,0.0,-5.342494596248943,0.7313592061188342,0.004474467824096416,-0.004054073455118579,0.005472792386579375,0.0,0.0,0.0,0.0
16.813095092773438,0.20627399,-0.08585276,-5.143529,-0.00477747340827522,nan,nan,nan,nan,nan,6.810840606689453,8.010840606689452,0.00045943260192871094,0.038544677554293125,0.0,0.0,-5.347871108073429,0.7297864868915117,0.006561753654844061,-0.004298130718571931,0.004416001028347848,0.0,0.0,0.0,0.0
16.91280746459961,0.19189093,-0.09565307,-5.166324,-0.0030051729801094376,nan,nan,nan,nan,nan,6.910583257675171,8.11058325767517,0.0003533363342285156,0.0048773917008613525,0.0,0.0,-5.349966014135939,0.7284177557781295,0.007134573639062549,-0.0053709781397615905,0.003081079799285071,0.0,0.0,0.0,0.0
17.013501167297363,0.1765673,-0.10266128,-5.186186,-0.001304337672126371,nan,nan,nan,nan,nan,7.011627435684204,8.211627435684203,0.00035500526428222656,-0.029274018858588814,0.0,0.0,-5.348773611128863,0.7274410936799641,0.005665275570210174,-0.005441480542072628,0.001667107289016192,0.0,0.0,0.0,0.0
17.112715005874634,0.16080901,-0.107302055,-5.2062626,0.00017211663345154983,nan,nan,nan,nan,nan,7.110450983047485,8.310450983047485,0.0003619194030761719,-0.06240726076991323,0.0,0.0,-5.344391251054954,0.7263761339228553,0.0031457415770240883,-0.005921338878890806,0.00034068136808932737,0.0,0.0,0.0,0.0
17.213029623031616,0.14757052,-0.111405894,-5.2303486,0.0007968704294592718,nan,nan,nan,nan,nan,7.210800886154175,8.410800886154174,0.0004055500030517578,-0.09546836841375053,0.0,0.0,-5.336728066297445,0.7250719396030716,-0.00010077128590176353,-0.004758545174821799,-0.0004601798622723303,0.0,0.0,0.0,0.0
17.31302785873413,0.13405675,-0.11594731,-5.256438,0.0012796971902263995,nan,nan,nan,nan,nan,7.310820579528809,8.510820579528808,0.0004868507385253906,-0.12752783792411443,0.0,0.0,-5.325939642502107,0.7235468115339682,-0.0026068648072946794,-0.0025237773437302435,-0.0009316760719065088,0.0,0.0,0.0,0.0
17.412904500961304,0.11907973,-0.11956897,-5.27977,0.00219365193931212,nan,nan,nan,nan,nan,7.410696983337402,8.610696983337402,0.00037479400634765625,-0.15835291428764808,0.0,0.0,-5.312128746732192,0.722035286219841,-0.00392655907566505,-0.000979153085208971,-0.0014992209621574788,0.0,0.0,0.0,0.0
17.51268696784973,0.099535145,-0.12087321,-5.3004284,0.0039460823342891485,nan,nan,nan,nan,nan,7.5104756355285645,8.710475635528564,0.00036454200744628906,-0.18767522729657402,0.0,0.0,-5.2954285176809766,0.7208505229693276,-0.004495433214385569,-0.001918988287783877,-0.0028480332586501523,0.0,0.0,0.0,0.0
17.6126229763031,0.07560579,-0.11777568,-5.318427,0.005887747383570661,nan,nan,nan,nan,nan,7.610439300537109,8.810439300537109,0.0003731250762939453,-0.21530236353746812,0.0,0.0,-5.275943639635306,0.7199207550484485,-0.007065008823531373,-0.00594308079839732,-0.004429759952070602,0.0,0.0,0.0,0.0
17.712637901306152,0.051953856,-0.11321593,-5.3408127,0.006783526525549614,nan,nan,nan,nan,nan,7.710502862930298,8.910502862930297,0.0004932880401611328,-0.24094525430110614,0.0,0.0,-5.253860954913857,0.7186152944000085,-0.010163434338924644,-0.010779298602595584,-0.005462163097877973,0.0,0.0,0.0,0.0
17.81306743621826,0.02987616,-0.10613726,-5.3624544,0.007205097482775508,nan,nan,nan,nan,nan,7.810845375061035,9.010845375061034,0.0003876686096191406,-0.2643974939370537,0.0,0.0,-5.229333741956577,0.7172386195157682,-0.013345171519739444,-0.014546503764302018,-0.005979646249013423,0.0,0.0,0.0,0.0
17.913477182388306,0.0046309177,-0.097271666,-5.383579,0.007701089634395035,nan,nan,nan,nan,nan,7.911520481109619,9.111520481109618,0.00035381317138671875,-0.2854293365686535,0.0,0.0,-5.202558865088592,0.7159756841882634,-0.01592037210157923,-0.016387109535239155,-0.006241223317961252,0.0,0.0,0.0,0.0
18.01333451271057,-0.01964511,-0.08864886,-5.400116,0.008589737642307475,nan,nan,nan,nan,nan,8.01117205619812,9.21117205619812,0.0005066394805908203,-0.30358795553100676,0.0,0.0,-5.174167601052846,0.7150006571989035,-0.016980658482043134,-0.01877086492182192,-0.007048578635279495,0.0,0.0,0.0,0.0
18.113197326660156,-0.04397078,-0.07971827,-5.413438,0.00941800315815748,nan,nan,nan,nan,nan,8.111007928848267,9.311007928848266,0.000522613525390625,-0.318957435553274,0.0,0.0,-5.144104664411945,0.7142604014848365,-0.016952736529649494,-0.020490431223671845,-0.007874090019763835,0.0,0.0,0.0,0.0
18.21282386779785,-0.068395995,-0.07110075,-5.4246535,0.010180170922564208,nan,nan,nan,nan,nan,8.210670709609985,9.410670709609985,0.0004627704620361328,-0.33133979431015154,0.0,0.0,-5.1127561116148765,0.7137574409196445,-0.016123287536252497,-0.022168887152193666,-0.00858253825860121,0.0,0.0,0.0,0.0
18.312980890274048,-0.09391409,-0.061111443,-5.4359927,0.009980933020366574,nan,nan,nan,nan,nan,8.310844659805298,9.510844659805297,0.0004775524139404297,-0.34068900274736247,0.0,0.0,-5.080193537189774,0.7133571834255484,-0.014718407738237729,-0.023611993366936104,-0.008787408821450748,0.0,0.0,0.0,0.0
18.412975549697876,-0.11499575,-0.049937315,-5.443262,0.008889149303896123,nan,nan,nan,nan,nan,8.41081428527832,9.61081428527832,0.0007271766662597656,-0.3468369564304175,0.0,0.0,-5.046948116619143,0.7131196892394887,-0.01421137366546402,-0.023816671686260938,-0.008117499454361094,0.0,0.0,0.0,0.0
18.512638092041016,-0.13406059,-0.036147114,-5.448639,0.007069357003682894,nan,nan,nan,nan,nan,8.510449886322021,9.71044988632202,0.0003635883331298828,-0.34974425117526015,0.0,0.0,-5.013377547228717,0.7131361379627,-0.015170171570709944,-0.02173337636867605,-0.00672941198573798,0.0,0.0,0.0,0.0
18.6131854057312,-0.14837359,-0.024607847,-5.454687,0.005720020228909813,nan,nan,nan,nan,nan,8.611233472824097,9.811233472824096,0.000354766845703125,-0.3493870542306514,0.0,0.0,-4.979295258126994,0.7129571665919251,-0.014593485595336858,-0.01766292279823285,-0.005405052420483691,0.0,0.0,0.0,0.0
18.713005781173706,-0.16568032,-0.008377165,-5.447956,0.0034227162662963445,nan,nan,nan,nan,nan,8.710895299911499,9.910895299911498,0.0004994869232177734,-0.34577543323515175,0.0,0.0,-4.94578422949876,0.713404665754546,-0.01534010212357183,-0.014951986997919735,-0.0038082972494767786,0.0,0.0,0.0,0.0
18.812438249588013,-0.18626602,0.0038764703,-5.4370565,0.0012132961531381055,nan,nan,nan,nan,nan,8.810153722763062,10.01015372276306,0.00039958953857421875,-0.3389911687117365,0.0,0.0,-4.912908166080562,0.7143968543948301,-0.015334490125581666,-0.015307524829544897,-0.0018728891589549926,0.0,0.0,0.0,0.0
18.912654638290405,-0.20841652,0.013518556,-5.4235635,-0.0006055066471887171,nan,nan,nan,nan,nan,8.910459756851196,10.110459756851196,0.0004277229309082031,-0.3289677229433538,0.0,0.0,-4.880500053299323,0.7153763965323315,-0.012898753366340828,-0.018872869891422693,-0.00023206858495708702,0.0,0.0,0.0,0.0
19.013442516326904,-0.22633968,0.020228136,-5.4094563,-0.0014004961829524806,nan,nan,nan,nan,nan,9.011327981948853,10.211327981948852,0.0003871917724609375,-0.31577199132264805,0.0,0.0,-4.849042888553969,0.7163146108836084,-0.0078008554387931014,-0.021582060850731475,0.0006932544700056224,0.0,0.0,0.0,0.0
19.112708806991577,-0.24128103,0.02709655,-5.392713,-0.0017082817756734767,nan,nan,nan,nan,nan,9.110520124435425,10.310520124435424,0.0005137920379638672,-0.2998694312098523,0.0,0.0,-4.819505334633182,0.717355965661922,-0.0036599512701033106,-0.022922231934869444,0.0010935165108540903,0.0,0.0,0.0,0.0
19.212862491607666,-0.25712332,0.03100527,-5.370253,-0.0017804328851524671,nan,nan,nan,nan,nan,9.210692644119263,10.410692644119262,0.0004928112030029297,-0.2810144932648536,0.0,0.0,-4.791359508783416,0.7186450794166482,0.0013568699318891812,-0.023103670005943613,0.0012542298778801962,0.0,0.0,0.0,0.0
19.31297516822815,-0.2653763,0.031416327,-5.351814,-0.0017674345264987778,nan,nan,nan,nan,nan,9.310774564743042,10.510774564743041,0.0004966259002685547,-0.2595473098461455,0.0,0.0,-4.765191154443388,0.7197286445032682,0.006607824160039751,-0.021516795861188338,0.0013333710446920518,0.0,0.0,0.0,0.0
19.412794828414917,-0.27269918,0.028277216,-5.3310122,-0.0016837817344030025,nan,nan,nan,nan,nan,9.41055178642273,10.610551786422729,0.0003688335418701172,-0.23572904420875093,0.0,0.0,-4.741288156984592,0.7206248001461408,0.011787318889590259,-0.017934058716558204,0.0014410926051097682,0.0,0.0,0.0,0.0
19.512571573257446,-0.28329676,0.022368168,-5.306985,-0.0011098220892599578,nan,nan,nan,nan,nan,9.510294437408447,10.710294437408447,0.0004985332489013672,-0.20972899172593373,0.0,0.0,-4.719796948571892,0.721844407112718,0.018107962803001018,-0.017151563511061996,0.0010987839031396896,0.0,0.0,0.0,0.0
19.61250114440918,-0.30199787,0.020005241,-5.2682567,-0.0006914231105899491,nan,nan,nan,nan,nan,9.61023998260498,10.81023998260498,0.0005323886871337891,-0.1817221508647168,0.0,0.0,-4.700872836597709,0.7239832097296598,0.020270782200712392,-0.020430623744185993,0.0007554717367485639,0.0,0.0,0.0,0.0
19.7127206325531,-0.31452662,0.021349797,-5.229638,-0.000453786820253212,nan,nan,nan,nan,nan,9.710728406906128,10.910728406906127,0.00045228004455566406,-0.15185500424655954,0.0,0.0,-4.684658823359084,0.7261708607306655,0.018248950145692375,-0.023274686414476463,0.0005261140519774042,0.0,0.0,0.0,0.0
19.812639236450195,-0.32493332,0.023138009,-5.191566,-0.00041320217338490007,nan,nan,nan,nan,nan,9.810417652130127,11.010417652130126,0.00048613548278808594,-0.1208099562011448,0.0,0.0,-4.671511104475847,0.7282015576035848,0.013588528011397047,-0.023321618927142528,0.00040840162693047934,0.0,0.0,0.0,0.0
19.91247868537903,-0.33123046,0.026532166,-5.158353,-0.0005865857688214574,nan,nan,nan,nan,nan,9.91021990776062,11.11021990776062,0.0005500316619873047,-0.08860694404945767,0.0,0.0,-4.661401698961415,0.7298166107118408,0.00842286579933466,-0.021771023309106206,0.0005193994114399287,0.0,0.0,0.0,0.0
20.012567281723022,-0.3338391,0.033256475,-5.121438,-0.0006970731541154363,nan,nan,nan,nan,nan,10.010311365127563,11.210311365127563,0.00048804283142089844,-0.055483293950499335,0.0,0.0,-4.654425689478511,0.7313563811073178,0.0012385353032408188,-0.018313506918700276,0.0005528420945273006,0.0,0.0,0.0,0.0
20.112563610076904,-0.3378684,0.038050093,-5.0841537,-0.00033868286606492494,nan,nan,nan,nan,nan,10.110304117202759,11.310304117202758,0.0005013942718505859,-0.021873993355223203,0.0,0.0,-4.65068419959198,0.7330523951908186,-0.004243031790861108,-0.015095717535551553,0.0003442793109337153,0.0,0.0,0.0,0.0
20.21266746520996,-0.33892462,0.042816028,-5.0467663,0.0001734571667054396,nan,nan,nan,nan,nan,10.210583925247192,11.410583925247192,0.00045371055603027344,0.012036570571224633,0.0,0.0,-4.650207031275808,0.7346189697219262,-0.0075209438628314,-0.01155104491017083,-7.02028674844892e-05,0.0,0.0,0.0,0.0
20.312279224395752,-0.33267373,0.047520824,-5.015142,0.0009650531341104016,nan,nan,nan,nan,nan,10.309973001480103,11.509973001480102,0.0005390644073486328,0.04553534404871902,0.0,0.0,-4.652974738034297,0.7359409445721461,-0.009233668181830542,-0.006486779866537508,-0.0006065711558428857,0.0,0.0,0.0,0.0
20.413559675216675,-0.3185227,0.052763812,-4.9818077,0.0019147416561184642,nan,nan,nan,nan,nan,10.41137433052063,11.61137433052063,0.00046825408935546875,0.07927739267172315,0.0,0.0,-4.659096648577381,0.7371115780194635,-0.010599401853979729,0.0016916273295511347,-0.0013957560585646461,0.0,0.0,0.0,0.0
20.512545585632324,-0.29933208,0.057909675,-4.9508157,0.002258823836693011,nan,nan,nan,nan,nan,10.510261058807373,11.710261058807372,0.0009546279907226562,0.11145223901464692,0.0,0.0,-4.668219351952797,0.7383515019313122,-0.01050586536914648,0.010874842741081346,-0.0017377222645419764,0.0,0.0,0.0,0.0
20.612684726715088,-0.27146602,0.068535954,-4.9232125,0.0025640540840482324,nan,nan,nan,nan,nan,10.610439538955688,11.810439538955688,0.0010502338409423828,0.14300850634636358,0.0,0.0,-4.6805495858312565,0.7393007889466452,-0.012035567311824476,0.020487133669277936,-0.0018660516230138942,0.0,0.0,0.0,0.0
20.71254801750183,-0.24849446,0.079597756,-4.8983383,0.004279254546287643,nan,nan,nan,nan,nan,10.710264921188354,11.910264921188354,0.0007445812225341797,0.1731209603451145,0.0,0.0,-4.695813982752025,0.7402432444136936,-0.01448841743898518,0.028880021856383414,-0.002669577778667255,0.0,0.0,0.0,0.0
20.812582969665527,-0.21902324,0.09008411,-4.8743057,0.00632756714337263,nan,nan,nan,nan,nan,10.810306787490845,12.010306787490844,0.0010685920715332031,0.20168253019771015,0.0,0.0,-4.7139507786882655,0.7411070162685274,-0.016112224248161184,0.033427032557583655,-0.004411584840942006,0.0,0.0,0.0,0.0
20.91257667541504,-0.1878298,0.09618481,-4.8585315,0.006517634625053478,nan,nan,nan,nan,nan,10.910309314727783,12.110309314727782,0.0007216930389404297,0.22834938238442606,0.0,0.0,-4.734751890554049,0.7414863104032565,-0.013965339433479518,0.03666709444911914,-0.005045135274181234,0.0,0.0,0.0,0.0
21.01282835006714,-0.14768542,0.09929091,-4.8471394,0.004439919657126065,nan,nan,nan,nan,nan,11.01069974899292,12.21069974899292,0.0005195140838623047,0.2529748035706981,0.0,0.0,-4.75812451807104,0.7416469011656852,-0.008820366613011651,0.040701393942180246,-0.003805897890543505,0.0,0.0,0.0,0.0
21.11249017715454,-0.10715503,0.09880632,-4.841917,0.0013728237527784407,nan,nan,nan,nan,nan,11.110255002975464,12.310255002975463,0.0006561279296875,0.2750451475267007,0.0,0.0,-4.783551006419491,0.741534060539888,-0.0014367594611900216,0.044881883840311984,-0.0014589539119051447,0.0,0.0,0.0,0.0
21.21269392967224,-0.065525725,0.09840748,-4.8365116,-0.001456104658035656,nan,nan,nan,nan,nan,11.21045207977295,12.410452079772949,0.0005397796630859375,0.29468745667977986,0.0,0.0,-4.811163290444885,0.7415079071477816,0.005196380531096733,0.04629778557061763,0.0008539403459497658,0.0,0.0,0.0,0.0
21.312665700912476,-0.027937995,0.09817807,-4.83267,-0.0025022987177993495,nan,nan,nan,nan,nan,11.310460090637207,12.510460090637206,0.0006201267242431641,0.31153835444910405,0.0,0.0,-4.840488703512433,0.7415250492565124,0.008881790205281553,0.04501699496089457,0.0022914136902830837,0.0,0.0,0.0,0.0
21.412757635116577,0.012942388,0.09803311,-4.8328333,-0.00182493029423097,nan,nan,nan,nan,nan,11.410512447357178,12.610512447357177,0.0005707740783691406,0.3254855533363479,0.0,0.0,-4.8713176213721106,0.7415893122415564,0.009821989567110966,0.04238526418779861,0.001969731656345037,0.0,0.0,0.0,0.0
21.512299299240112,0.05215472,0.09783439,-4.840865,-0.0009746650049756141,nan,nan,nan,nan,nan,11.509997367858887,12.709997367858886,0.00040912628173828125,0.33633753637402725,0.0,0.0,-4.903164770739933,0.7410255850998995,0.009718464910254914,0.04059321672770284,0.0011888363992940173,0.0,0.0,0.0,0.0
21.612239837646484,0.0838492,0.10081515,-4.8430634,0.0002850372235916614,nan,nan,nan,nan,nan,11.609928131103516,12.809928131103515,0.0003876686096191406,0.34410905866374913,0.0,0.0,-4.936055056919656,0.7408933940842193,0.007654383154940108,0.03763985734809054,0.0001591240245713492,0.0,0.0,0.0,0.0
21.71222734451294,0.11861815,0.09981206,-4.848191,0.0010782548965956543,nan,nan,nan,nan,nan,11.709911584854126,12.909911584854125,0.0005655288696289062,0.34867372222645615,0.0,0.0,-4.969559312938961,0.7408351339947296,0.006548165766726637,0.03340037023977943,-0.0007159445552787238,0.0,0.0,0.0,0.0
21.812320709228516,0.1495474,0.09833224,-4.852926,0.0007834428238620286,nan,nan,nan,nan,nan,11.81000018119812,13.01000018119812,0.0004601478576660156,0.34998364752744876,0.0,0.0,-5.003383262239684,0.7406686496267689,0.0070021451505162275,0.027918087261667335,-0.0007405365663971503,0.0,0.0,0.0,0.0
21.91302514076233,0.1753881,0.09812828,-4.8562636,-0.00010572950394719663,nan,nan,nan,nan,nan,11.910778999328613,13.110778999328613,0.0009849071502685547,0.3479952006845008,0.0,0.0,-5.037407757224324,0.7407793075434406,0.00632465974525797,0.02145581451012045,-0.00010402239400410758,0.0,0.0,0.0,0.0
22.012396574020386,0.20383464,0.09509465,-4.8627276,-0.0015049696793972024,nan,nan,nan,nan,nan,12.010088205337524,13.210088205337524,0.0004138946533203125,0.3428074760799777,0.0,0.0,-5.0705906108747865,0.7408230191895786,0.006679686368238931,0.016654165437398,0.0008912946271845817,0.0,0.0,0.0,0.0
22.11248230934143,0.23132741,0.08737803,-4.8651943,-0.0035056386806516884,nan,nan,nan,nan,nan,12.110158920288086,13.310158920288085,0.0003876686096191406,0.3343870837542592,0.0,0.0,-5.103369619416548,0.7408701597906381,0.008702279796661263,0.013923230968564999,0.002352635575877138,0.0,0.0,0.0,0.0
22.21234965324402,0.25440934,0.0765457,-4.876691,-0.00578261479941013,nan,nan,nan,nan,nan,12.21003270149231,13.410032701492309,0.00043010711669921875,0.322865923718841,0.0,0.0,-5.13512066940768,0.7405608131221779,0.011962567932984608,0.012259420994037054,0.004208153480236502,0.0,0.0,0.0,0.0
22.312334537506104,0.27307191,0.06426729,-4.895421,-0.008118880490461564,nan,nan,nan,nan,nan,12.310015678405762,13.510015678405761,0.0005900859832763672,0.3083203678364378,0.0,0.0,-5.165645859523273,0.7396190901333408,0.015399699979798145,0.009793408012873976,0.0061713521079348865,0.0,0.0,0.0,0.0
22.412378787994385,0.28444898,0.05352721,-4.916178,-0.00990974608563917,nan,nan,nan,nan,nan,12.410197019577026,13.610197019577026,0.000484466552734375,0.29085976277320025,0.0,0.0,-5.194680760219179,0.7386082720751795,0.016295347735964062,0.005642483894797371,0.00790721560663801,0.0,0.0,0.0,0.0
22.512312650680542,0.2907474,0.039158836,-4.9445844,-0.011310351694758525,nan,nan,nan,nan,nan,12.510007619857788,13.710007619857787,0.0004265308380126953,0.2707531307716116,0.0,0.0,-5.221794369129089,0.737222513463381,0.016977711165269967,0.00022889336777039352,0.009241694718971807,0.0,0.0,0.0,0.0
22.61230230331421,0.29260808,0.02604303,-4.9768586,-0.011818695726173702,nan,nan,nan,nan,nan,12.609981775283813,13.809981775283813,0.00042557716369628906,0.24808907991628013,0.0,0.0,-5.2468842004387755,0.7355223269673655,0.01669539480622031,-0.004393695258013139,0.009953654093348483,0.0,0.0,0.0,0.0
22.71232032775879,0.29368475,0.013553848,-5.01264,-0.011635444865387052,nan,nan,nan,nan,nan,12.710006713867188,13.910006713867187,0.0004248619079589844,0.2230966462084327,0.0,0.0,-5.269681082856305,0.7337243059856547,0.014927537386924756,-0.007208374034608743,0.010008991594355846,0.0,0.0,0.0,0.0
22.81282663345337,0.29021433,0.005332987,-5.0427814,-0.011247127836999434,nan,nan,nan,nan,nan,12.81050992012024,14.010509920120239,0.0004105567932128906,0.19588610787318064,0.0,0.0,-5.290049362595915,0.7321355511751619,0.01124444894426332,-0.008506721452894574,0.009681430067940046,0.0,0.0,0.0,0.0
22.91238784790039,0.27892488,0.0006225681,-5.070412,-0.011134417913303829,nan,nan,nan,nan,nan,12.91013216972351,14.11013216972351,0.0003871917724609375,0.1670901481463675,0.0,0.0,-5.307540050062467,0.7312592708705337,0.004795289225505443,-0.010992353058264083,0.009567441764142579,0.0,0.0,0.0,0.0
23.012390851974487,0.2654281,-0.0036284204,-5.0971856,-0.011096900140693172,nan,nan,nan,nan,nan,13.010109901428223,14.210109901428222,0.0010237693786621094,0.1366351503825742,0.0,0.0,-5.322227925046746,0.7302055089053132,-0.001960577317714443,-0.014316185959859803,0.009528267771257827,0.0,0.0,0.0,0.0
23.112366437911987,0.24956568,-0.00848772,-5.133485,-0.010660211347900423,nan,nan,nan,nan,nan,13.110050201416016,14.310050201416015,0.0005888938903808594,0.10491707648571824,0.0,0.0,-5.333904787419542,0.7287266676696471,-0.00678818970729789,-0.0160388433710174,0.009262829656763186,0.0,0.0,0.0,0.0
23.21242070198059,0.23040791,-0.0134504875,-5.176578,-0.009822045610827768,nan,nan,nan,nan,nan,13.21010422706604,14.41010422706604,0.0004742145538330078,0.07218293979752678,0.0,0.0,-5.342475726442308,0.7266930085079792,-0.009096646520833265,-0.016930306159272032,0.008623867075728837,0.0,0.0,0.0,0.0
23.31249213218689,0.20884584,-0.018709257,-5.225355,-0.008906190543406202,nan,nan,nan,nan,nan,13.310184955596924,14.510184955596923,0.00038909912109375,0.03876514394041026,0.0,0.0,-5.347846609319797,0.724359130525991,-0.009608155206252387,-0.017754070469579948,0.007802889002200176,0.0,0.0,0.0,0.0
23.412341833114624,0.19027649,-0.023569684,-5.2684855,-0.008259271669869492,nan,nan,nan,nan,nan,13.410051107406616,14.610051107406616,0.0003566741943359375,0.005057413497920502,0.0,0.0,-5.349963458904942,0.7221839997131504,-0.008806115320400347,-0.01670442889721198,0.007197682175377292,0.0,0.0,0.0,0.0
23.512532949447632,0.17014582,-0.025323544,-5.31421,-0.006660847894846184,nan,nan,nan,nan,nan,13.510213851928711,14.71021385192871,0.00047588348388671875,-0.028797416217951264,0.0,0.0,-5.348813286471674,0.7203059517365471,-0.008200723074808864,-0.013635867935728685,0.006139391453068868,0.0,0.0,0.0,0.0
23.612332820892334,0.1530657,-0.026139077,-5.3501062,-0.0058241936793247745,nan,nan,nan,nan,nan,13.610013723373413,14.810013723373412,0.00041413307189941406,-0.062261689836343004,0.0,0.0,-5.344417598241906,0.718825263223101,-0.008201467060359643,-0.009472884866834763,0.005102103142008557,0.0,0.0,0.0,0.0
23.712341785430908,0.13455686,-0.025934128,-5.385908,-0.005509880478552023,nan,nan,nan,nan,nan,13.710024118423462,14.910024118423461,0.0003447532653808594,-0.09521550663607677,0.0,0.0,-5.3367996545366925,0.71771844505565,-0.008536759602263945,-0.004471119251852724,0.0047064469065517004,0.0,0.0,0.0,0.0
23.812488079071045,0.11882603,-0.023831043,-5.4165034,-0.005396243972452552,nan,nan,nan,nan,nan,13.810185432434082,15.010185432434081,0.0003657341003417969,-0.12732769965241258,0.0,0.0,-5.326017878192631,0.7166872694835363,-0.009198525529189433,-0.0004617608660041776,0.00459987190523011,0.0,0.0,0.0,0.0
23.912458896636963,0.105282776,-0.017979037,-5.446521,-0.0050884488081344974,nan,nan,nan,nan,nan,13.910144090652466,15.110144090652465,0.00035858154296875,-0.15818607436578352,0.0,0.0,-5.312213333918881,0.7157596515996334,-0.011348407103898507,0.004225783165037323,0.004427067706105773,0.0,0.0,0.0,0.0
24.012311458587646,0.09003531,-0.010855795,-5.468999,-0.003457678596733199,nan,nan,nan,nan,nan,14.00999665260315,15.209996652603149,0.00034999847412109375,-0.18753842203247784,0.0,0.0,-5.2955153807529625,0.7151636228380827,-0.013130031881877748,0.006231935864078972,0.00340331241114497,0.0,0.0,0.0,0.0
24.11229395866394,0.073451824,-0.010858045,-5.494597,-0.0010473647844117912,nan,nan,nan,nan,nan,14.109977006912231,15.30997700691223,0.00039505958557128906,-0.2151790301966226,0.0,0.0,-5.276039824959445,0.714330753815285,-0.010882571521383968,0.00571833257441357,0.0015049273466196968,0.0,0.0,0.0,0.0
24.21229863166809,0.052202955,-0.013138688,-5.520959,0.00238176888571074,nan,nan,nan,nan,nan,14.20998477935791,15.40998477935791,0.0003306865692138672,-0.24081808993596335,0.0,0.0,-5.2539815890169885,0.7133966286015002,-0.004589534572279864,0.002913552978546908,-0.0011708669639476743,0.0,0.0,0.0,0.0
24.31295871734619,0.032264106,-0.015519408,-5.5378933,0.005266916831254647,nan,nan,nan,nan,nan,14.310657739639282,15.510657739639282,0.0003781318664550781,-0.26435589380595353,0.0,0.0,-5.229381693711716,0.7129423117200033,0.0014087299631162142,-0.0015601520624089137,-0.0038787968477629314,0.0,0.0,0.0,0.0
24.41231894493103,0.012394373,-0.019467218,-5.546779,0.007336590687043879,nan,nan,nan,nan,nan,14.410038948059082,15.610038948059081,0.0003414154052734375,-0.2851389564027852,0.0,0.0,-5.202967424828544,0.7130481567602212,0.00648177935420689,-0.004217226674963794,-0.005724584201888729,0.0,0.0,0.0,0.0
24.512371301651,-0.008259652,-0.02107999,-5.5546722,0.008408490901523487,nan,nan,nan,nan,nan,14.510052680969238,15.710052680969238,0.00034308433532714844,-0.30339932201821496,0.0,0.0,-5.174495992500939,0.7132531367371363,0.008696573669266945,-0.007685636759680457,-0.0068528790482467695,0.0,0.0,0.0,0.0
24.612528085708618,-0.03834657,-0.0229743,-5.561298,0.009450567211583336,nan,nan,nan,nan,nan,14.610211849212646,15.810211849212646,0.0003266334533691406,-0.3188464489091954,0.0,0.0,-5.1443500676064815,0.7134044030594113,0.009141731826341077,-0.014146277659798031,-0.0076176003214972745,0.0,0.0,0.0,0.0
24.712326526641846,-0.07197963,-0.02580952,-5.5678687,0.010500357109829838,nan,nan,nan,nan,nan,14.710011959075928,15.910011959075927,0.00033974647521972656,-0.3312679266194202,0.0,0.0,-5.112967078360336,0.7135584285833239,0.00936466356199819,-0.023486693823518902,-0.008469909712972462,0.0,0.0,0.0,0.0
24.81243133544922,-0.10443562,-0.029157648,-5.5734043,0.011109396974230343,nan,nan,nan,nan,nan,14.810119390487671,16.01011939048767,0.000347137451171875,-0.3406326971690255,0.0,0.0,-5.080432366739733,0.7135364763246431,0.00907807462083415,-0.03194288686629537,-0.009096684479538434,0.0,0.0,0.0,0.0
24.912299156188965,-0.14070545,-0.033176865,-5.5778084,0.01111398100230896,nan,nan,nan,nan,nan,14.90998649597168,16.10998649597168,0.00032782554626464844,-0.346799278571789,0.0,0.0,-5.0472256326806395,0.7135602045788831,0.008341664050002941,-0.04036479766044481,-0.00920119398059725,0.0,0.0,0.0,0.0
25.01225781440735,-0.17307876,-0.03470136,-5.5781255,0.009993392100245385,nan,nan,nan,nan,nan,15.00994348526001,16.20994348526001,0.0004489421844482422,-0.3497376608363656,0.0,0.0,-5.013548748750615,0.7137476353796133,0.005847467016430641,-0.043863781263262756,-0.008580293715770796,0.0,0.0,0.0,0.0
25.112302780151367,-0.19669384,-0.032927368,-5.569721,0.008377964312188322,nan,nan,nan,nan,nan,15.109995365142822,16.30999536514282,0.000335693359375,-0.3494115836282527,0.0,0.0,-4.979713422506579,0.714359523847671,0.001607525495908152,-0.04179292697908325,-0.007380383498859442,0.0,0.0,0.0,0.0
25.21256995201111,-0.21601608,-0.029477375,-5.55807,0.006629365684454502,nan,nan,nan,nan,nan,15.210251808166504,16.410251808166503,0.0003459453582763672,-0.3458090900325097,0.0,0.0,-4.9459993217553,0.7152910501355152,-0.003832862983161324,-0.03573672285465744,-0.005970309912442271,0.0,0.0,0.0,0.0
25.312662601470947,-0.23103066,-0.026812216,-5.5463643,0.005533448569724605,nan,nan,nan,nan,nan,15.310355186462402,16.5103551864624,0.0003445148468017578,-0.3389742017016753,0.0,0.0,-4.9128421513533524,0.7157556274396971,-0.007516529582577888,-0.028621384368446245,-0.0049863621298389185,0.0,0.0,0.0,0.0
25.41247057914734,-0.24914768,-0.026961386,-5.52973,0.005422731383162212,nan,nan,nan,nan,nan,15.410220861434937,16.610220861434936,0.00034809112548828125,-0.3289953099113764,0.0,0.0,-4.880576023946959,0.7165125817643406,-0.007826836958270118,-0.023269582693366736,-0.004651167195971351,0.0,0.0,0.0,0.0
25.512556552886963,-0.26585248,-0.025351623,-5.514336,0.005154995818643978,nan,nan,nan,nan,nan,15.510241985321045,16.710241985321044,0.0003578662872314453,-0.315930287849918,0.0,0.0,-4.849374460269621,0.7175139373429538,-0.007793481205349244,-0.020074601750043684,-0.0044959616391325695,0.0,0.0,0.0,0.0
25.612407207489014,-0.28214192,-0.021976717,-5.490456,0.004523020033793661,nan,nan,nan,nan,nan,15.610092401504517,16.810092401504516,0.00037026405334472656,-0.29994403213594434,0.0,0.0,-4.8196293328003925,0.7185312115675194,-0.008323457203758013,-0.01847648933887604,-0.004111523557882938,0.0,0.0,0.0,0.0
25.71231961250305,-0.29544938,-0.018607847,-5.46365,0.0037848047957774666,nan,nan,nan,nan,nan,15.70999813079834,16.90999813079834,0.0003380775451660156,-0.28115450010724496,0.0,0.0,-4.791548214041124,0.719986694659707,-0.008957507487151647,-0.016264660983866776,-0.0034677713886234057,0.0,0.0,0.0,0.0
25.812411069869995,-0.30934376,-0.015270498,-5.4308844,0.0031707810485439745,nan,nan,nan,nan,nan,15.810107231140137,17.010107231140136,0.00033020973205566406,-0.25969872490417184,0.0,0.0,-4.765358630495074,0.7216104399296086,-0.008440543060699026,-0.015129861232286148,-0.0029356020944287776,0.0,0.0,0.0,0.0
25.91236424446106,-0.32124832,-0.007801596,-5.4015317,0.0025177356809729786,nan,nan,nan,nan,nan,15.910050392150879,17.110050392150878,0.00034999847412109375,-0.2358544063111155,0.0,0.0,-4.741402438094187,0.7231698559677576,-0.009505279185929284,-0.014510764040196553,-0.0024063783470668052,0.0,0.0,0.0,0.0
26.01242685317993,-0.33344635,-0.005548522,-5.3777304,0.002275996177013423,nan,nan,nan,nan,nan,16.01010799407959,17.21010799407959,0.0003447532653808594,-0.20977948771986624,0.0,0.0,-4.719834751384133,0.7242116290091289,-0.008285650335519253,-0.01522225653256518,-0.0020752041055122103,0.0,0.0,0.0,0.0
26.112480401992798,-0.343343,-0.0025720787,-5.353027,0.002279539593041036,nan,nan,nan,nan,nan,16.11017107963562,17.31017107963562,0.00035452842712402344,-0.18174207371703477,0.0,0.0,-4.700884940798642,0.7252014619025781,-0.005602353882440605,-0.016180396054532024,-0.0020323270111511672,0.0,0.0,0.0,0.0
26.212281465530396,-0.35036424,-0.0008689783,-5.324014,0.0021349652248840332,nan,nan,nan,nan,nan,16.20996117591858,17.40996117591858,0.0003323554992675781,-0.15208883182469557,0.0,0.0,-4.684771531688207,0.726470643455389,-0.0031664375971807374,-0.015968579483493634,-0.001982721213547293,0.0,0.0,0.0,0.0
26.31237030029297,-0.3521214,-0.0023358741,-5.2960453,0.0016708912417251584,nan,nan,nan,nan,nan,16.310049772262573,17.510049772262573,0.0003368854522705078,-0.1209267621109896,0.0,0.0,-4.6715540863317795,0.7276125418909335,0.001549027113482645,-0.014141607214668648,-0.0016071566552732924,0.0,0.0,0.0,0.0
26.4123637676239,-0.34918678,-0.0049899686,-5.2621913,0.0004174388332526999,nan,nan,nan,nan,nan,16.410059928894043,17.610059928894042,0.00034046173095703125,-0.08865930470951094,0.0,0.0,-4.661415405417751,0.7290539762903898,0.006638994166567203,-0.0100176283449199,-0.0007333801573411173,0.0,0.0,0.0,0.0
26.51233458518982,-0.33936688,-0.0044072554,-5.228758,-0.00044370694167110425,nan,nan,nan,nan,nan,16.510016441345215,17.710016441345214,0.0003495216369628906,-0.05558181018679591,0.0,0.0,-4.65444152104693,0.730836492491444,0.009047684739032356,-0.002829470572572649,0.0001987990704946482,0.0,0.0,0.0,0.0
26.61227250099182,-0.32337186,-0.0048215156,-5.1923122,-0.0012812658246509764,nan,nan,nan,nan,nan,16.60995078086853,17.80995078086853,0.0003306865692138672,-0.021993301031810106,0.0,0.0,-4.65069169103824,0.7325457460612687,0.009393163927916092,0.00505711399986421,0.0008744504986390388,0.0,0.0,0.0,0.0
26.712521076202393,-0.3014868,-0.008181658,-5.1542478,-0.0022310194858655647,nan,nan,nan,nan,nan,16.71020007133484,17.910200071334838,0.000347137451171875,0.01190677905046098,0.0,0.0,-4.650202589185335,0.7341863836654046,0.010189700179705252,0.013784343724793919,0.0016097078675047047,0.0,0.0,0.0,0.0
26.81251096725464,-0.27838558,-0.015070525,-5.12078,-0.0031360048864970966,nan,nan,nan,nan,nan,16.81020212173462,18.01020212173462,0.00034880638122558594,0.04561220128636975,0.0,0.0,-4.652984831608456,0.73565598665951,0.013086652952085375,0.021288847433973766,0.002345929710551328,0.0,0.0,0.0,0.0
26.912851572036743,-0.249538,-0.021141952,-5.080739,-0.004189103323105283,nan,nan,nan,nan,nan,16.910733222961426,18.110733222961425,0.0003380775451660156,0.07906611191394658,0.0,0.0,-4.659047584043153,0.7373047530339492,0.014789703226050941,0.027317167401665836,0.0030747832032202395,0.0,0.0,0.0,0.0
27.01236629486084,-0.21920125,-0.021004714,-5.0557437,-0.004591763969381319,nan,nan,nan,nan,nan,17.010050773620605,18.210050773620605,0.0003535747528076172,0.11138479536439473,0.0,0.0,-4.668196703811382,0.7384281672785942,0.012915059808799045,0.032154399952891384,0.0035956119971347783,0.0,0.0,0.0,0.0
27.112425565719604,-0.18300667,-0.021697845,-5.0326366,-0.004452273412460132,nan,nan,nan,nan,nan,17.11012840270996,18.31012840270996,0.0003452301025390625,0.14291242262755474,0.0,0.0,-4.680506589334422,0.7389861781119336,0.008827190967098384,0.03556992557089155,0.0036074181880673883,0.0,0.0,0.0,0.0
27.21251606941223,-0.14797245,-0.02585435,-5.0109277,-0.004381845502857792,nan,nan,nan,nan,nan,17.210208892822266,18.410208892822265,0.00036454200744628906,0.17310448553532914,0.0,0.0,-4.695804607057324,0.7395463879849586,0.0065733470814779964,0.03802881131768715,0.0033799733601981136,0.0,0.0,0.0,0.0
27.31242799758911,-0.11125596,-0.034274254,-4.98474,-0.005776608620000031,nan,nan,nan,nan,nan,17.31012535095215,18.510125350952148,0.0003478527069091797,0.20163235849011998,0.0,0.0,-4.713915411093656,0.7404568152742695,0.00782134095576869,0.038175774888748536,0.004229898472885981,0.0,0.0,0.0,0.0
27.412373781204224,-0.074532576,-0.04530029,-4.963531,-0.006691653675759429,nan,nan,nan,nan,nan,17.410127639770508,18.610127639770507,0.0003552436828613281,0.22830279731987976,0.0,0.0,-4.734711793070408,0.7413061644313687,0.010564023871115923,0.03694133810759423,0.005098373280711776,0.0,0.0,0.0,0.0
27.512317419052124,-0.036425192,-0.053590767,-4.943012,-0.006310255926962138,nan,nan,nan,nan,nan,17.510000944137573,18.710000944137573,0.00036334991455078125,0.2528113600811029,0.0,0.0,-4.757953689939419,0.7420313199906975,0.011488174868573741,0.034517268618413664,0.005203814970332919,0.0,0.0,0.0,0.0
27.612435579299927,-0.002894666,-0.05952695,-4.923471,-0.004913976608096829,nan,nan,nan,nan,nan,17.610128164291382,18.81012816429138,0.0003578662872314453,0.2750186071159874,0.0,0.0,-4.7835172853552,0.7426667517987608,0.009492020563066974,0.030044325069352888,0.004289449685262896,0.0,0.0,0.0,0.0
27.71246099472046,0.023997083,-0.06264304,-4.9085865,-0.003479953549711643,nan,nan,nan,nan,nan,17.71013855934143,18.91013855934143,0.00036907196044921875,0.29463021380141236,0.0,0.0,-4.811073990368361,0.7432268954860247,0.006860348319425383,0.02302123648326427,0.00314960492014138,0.0,0.0,0.0,0.0
27.8131263256073,0.047469385,-0.062429197,-4.9001665,-0.0018222209782122424,nan,nan,nan,nan,nan,17.810824394226074,19.010824394226074,0.0003383159637451172,0.31159450732734767,0.0,0.0,-4.840598422205339,0.743337352856396,0.0026607405615811787,0.014437360009735252,0.0018335610670486468,0.0,0.0,0.0,0.0
27.912485361099243,0.06845289,-0.05849379,-4.892152,-0.0005963845289563372,nan,nan,nan,nan,nan,17.91018533706665,19.11018533706665,0.0003612041473388672,0.3254448478050443,0.0,0.0,-4.871214709546658,0.7434668569013549,-0.0016843851772457273,0.006257762558349436,0.0008261156949617202,0.0,0.0,0.0,0.0
28.01259136199951,0.09653649,-0.051256157,-4.8885574,0.00013652000645419894,nan,nan,nan,nan,nan,18.010273456573486,19.210273456573486,0.00035381317138671875,0.3363633677306218,0.0,0.0,-4.903254535770846,0.7433620160892798,-0.007113627200086322,0.0018648496901678313,8.254384804556957e-05,0.0,0.0,0.0,0.0
28.11244821548462,0.124458,-0.044419874,-4.8906465,0.0005796703742876239,nan,nan,nan,nan,nan,18.110132932662964,19.310132932662963,0.00043487548828125,0.3441217111121598,0.0,0.0,-4.936123181503465,0.7432480299648944,-0.011264972742547081,0.002971098092905246,-0.0003692401857166291,0.0,0.0,0.0,0.0
28.212419271469116,0.14897567,-0.038433857,-4.8978467,0.0008565778753071459,nan,nan,nan,nan,nan,18.210103750228882,19.41010375022888,0.0003521442413330078,0.348679370735533,0.0,0.0,-4.969624081520508,0.7425512630065471,-0.013361125036458114,0.005129215507772294,-0.0006086376033268073,0.0,0.0,0.0,0.0
28.312442541122437,0.17076546,-0.030313147,-4.905998,0.001677576929545763,nan,nan,nan,nan,nan,18.310122966766357,19.510122966766357,0.0005125999450683594,0.3499832435031643,0.0,0.0,-5.00342480174679,0.7420048212832792,-0.015250706518411334,0.006359075640994816,-0.0011530513174191658,0.0,0.0,0.0,0.0
28.412695169448853,0.18642817,-0.020350449,-4.915721,0.002289578971569035,nan,nan,nan,nan,nan,18.410388946533203,19.610388946533202,0.0003497600555419922,0.34800928024984645,0.0,0.0,-5.037276545708848,0.7414234151400586,-0.01690239312826672,0.0070117329499610305,-0.001727668937749231,0.0,0.0,0.0,0.0
28.512601852416992,0.19846146,-0.008997337,-4.926507,0.0028484732912374758,nan,nan,nan,nan,nan,18.510283708572388,19.710283708572387,0.0003993511199951172,0.3427941296031122,0.0,0.0,-5.070655394059086,0.7409213645110792,-0.017393641757512943,0.006615669051237676,-0.0021745901754848555,0.0,0.0,0.0,0.0
28.612492084503174,0.2084784,0.0041710977,-4.9380326,0.003416787774086604,nan,nan,nan,nan,nan,18.610177278518677,19.810177278518676,0.0003750324249267578,0.3343852493176248,0.0,0.0,-5.103375553390489,0.7403791691632162,-0.017751670045406603,0.005230848012988226,-0.0026313619754225115,0.0,0.0,0.0,0.0
28.71242904663086,0.22085257,0.021350587,-4.952747,0.00416939462904559,nan,nan,nan,nan,nan,18.710108518600464,19.910108518600463,0.00035071372985839844,0.3228560201086089,0.0,0.0,-5.135144331289291,0.7397614057354371,-0.020064127885242238,0.005800340096007141,-0.0032278110038190585,0.0,0.0,0.0,0.0
28.81241273880005,0.2332603,0.037652124,-4.96662,0.004769852887738628,nan,nan,nan,nan,nan,18.81011939048767,20.01011939048767,0.00036406517028808594,0.30830375985057784,0.0,0.0,-5.165676768624926,0.739136547375755,-0.022464306358017497,0.008867855788906394,-0.003730051630752859,0.0,0.0,0.0,0.0
28.91245126724243,0.24870661,0.05505693,-4.979739,0.005060160712638544,nan,nan,nan,nan,nan,18.910147428512573,20.110147428512573,0.0004127025604248047,0.2908690948310675,0.0,0.0,-5.1946668170802495,0.7386489493693682,-0.022839462372804358,0.013287775504165027,-0.003941640170734977,0.0,0.0,0.0,0.0
29.01228952407837,0.2609837,0.06966591,-4.994532,0.005062414051505259,nan,nan,nan,nan,nan,19.009971141815186,20.209971141815185,0.0004968643188476562,0.27076095135600353,0.0,0.0,-5.221784821890029,0.7379351820111845,-0.021673673485468458,0.017935100610959223,-0.003889245239458222,0.0,0.0,0.0,0.0
29.11229658126831,0.27129388,0.08333568,-5.0151477,0.00486290682755301,nan,nan,nan,nan,nan,19.109984874725342,20.30998487472534,0.00034236907958984375,0.24808834023622087,0.0,0.0,-5.2468849437265,0.7370800136504303,-0.019075777617565327,0.021599446844805414,-0.0036700537700021193,0.0,0.0,0.0,0.0
29.212707042694092,0.27598777,0.09369551,-5.0427923,0.004492654092395047,nan,nan,nan,nan,nan,19.210384845733643,20.410384845733642,0.000339508056640625,0.22299805778545673,0.0,0.0,-5.269762610870955,0.7356584765097228,-0.013285791962975855,0.021082169595182255,-0.0034409943348614963,0.0,0.0,0.0,0.0
29.312618017196655,0.27541998,0.09994064,-5.0672903,0.004000194785060366,nan,nan,nan,nan,nan,19.310303211212158,20.510303211212157,0.0003459453582763672,0.1959440598577694,0.0,0.0,-5.290010216038082,0.7344060787733622,-0.006533647165231723,0.01791696053371124,-0.003156120137841642,0.0,0.0,0.0,0.0
29.41246223449707,0.27338925,0.109977074,-5.0981793,0.0033889552518873,nan,nan,nan,nan,nan,19.410162925720215,20.610162925720214,0.000438690185546875,0.16708100487719033,0.0,0.0,-5.307545017532764,0.7329341168156108,-0.0015408568179159073,0.013312932863023815,-0.0028171494974744285,0.0,0.0,0.0,0.0
29.512476205825806,0.26835003,0.116070785,-5.127092,0.0028810726247601387,nan,nan,nan,nan,nan,19.5101580619812,20.7101580619812,0.00041365623474121094,0.13662014920204,0.0,0.0,-5.322234285624625,0.7313871866170469,0.0018073467438952699,0.008605033717255198,-0.002399242215051425,0.0,0.0,0.0,0.0
