time,x,y,z,yaw,platform,trajectory,traj_double,traj_short,traj_spin,traj_time,ref_time,comptime,x_ref,y_ref,yaw_ref,z_ref,throttle_input,p_input,q_input,r_input,cbf_term_pitch_cbf,cbf_term_roll_cbf,cbf_term_thrust_cbf,cbf_term_yaw_cbf
10.007699251174927,-0.061638735,0.09686941,-2.940757,-0.006353376819268744,SIM,SAWTOOTH,DblSpd,Not Short,NoSpin,1.1920928955078125e-06,1.2000011920928955,0.009610176086425781,0.0,0.17600017484029137,0.0,-5.0,0.7729575002363085,0.008,9.734700318369066e-05,0.001657953484079404,0.0,-1.5880937061242764,0.0,0.0
10.137630939483643,-0.054669794,0.098454386,-2.9362354,-0.007575488004726982,nan,nan,nan,nan,nan,0.12994599342346191,1.3299459934234619,0.0004723072052001953,0.0,0.19505874570210777,0.0,-5.0,0.8027616133560086,0.06264715229625038,-0.0014133860032778775,0.006214184586786598,0.0,0.0,-68.10356573126123,0.0
10.237576484680176,-0.050679892,0.1005695,-2.9461958,-0.006696919139157005,nan,nan,nan,nan,nan,0.229888916015625,1.429888916015625,0.0003962516784667969,0.0,0.20971704101562502,0.0,-5.0,0.8103160295359272,0.06341025964077948,-0.0018625380554828466,0.0060452430434137375,0.0,0.0,-38.443933543176456,0.0
10.337570190429688,-0.046393637,0.103090726,-2.9757984,-0.004837745541974813,nan,nan,nan,nan,nan,0.3298976421356201,1.52989764213562,0.0004010200500488281,0.0,0.22438498751322433,0.0,-5.0,0.8170886911918915,0.05154722691376703,-0.0013242753366673635,0.004724943532386148,0.0,0.0,-5.911347895503992,0.0
10.437482357025146,-0.0394869,0.10283201,-3.0226943,-0.003445371390256499,nan,nan,nan,nan,nan,0.4298079013824463,1.6298079013824462,0.0004105567932128906,0.0,0.23903849220275883,0.0,-5.0,0.8105725972676343,0.03894471923051032,8.602334207398052e-05,0.0033134653655965155,0.0,0.0,0.0,0.0
10.538142919540405,-0.03366428,0.10381445,-3.0878954,-0.001633150172856185,nan,nan,nan,nan,nan,0.5305900573730469,1.7305900573730468,0.0004112720489501953,0.0,0.2538198750813802,0.0,-5.0,0.7960679513247383,0.02766278014266255,0.0018143365398187266,0.0018498405333850344,0.0,0.0,0.0,0.0
10.638323068618774,-0.03051386,0.10749068,-3.1750686,0.0010335011448662154,nan,nan,nan,nan,nan,0.6309282779693604,1.8309282779693603,0.0006017684936523438,0.0,0.2685361474355062,0.0,-5.0,0.7821129646096363,0.01725367083457027,0.0019488890954375935,-0.00023182752836045122,0.0,0.0,0.0,0.0
10.738497257232666,-0.030297961,0.11359094,-3.2691238,0.0032821468784858827,nan,nan,nan,nan,nan,0.7310066223144531,1.931006622314453,0.00040459632873535156,0.0,0.28321430460611985,0.0,-5.0,0.7700855048668704,0.007012709435663091,9.154864867960959e-05,-0.002205343212491235,0.0,0.0,1.141179723078964,0.0
10.838175535202026,-0.031199776,0.124917164,-3.396025,0.005761041622902769,nan,nan,nan,nan,nan,0.8304705619812012,2.0304705619812013,0.0003628730773925781,0.0,0.29780234909057623,0.0,-5.0,0.759604669321166,-0.004429466185370866,-0.002790698038839196,-0.0042101545180447085,0.0,0.0,5.881456990402382,0.0
10.93763256072998,-0.029086865,0.13781266,-3.517924,0.007733179620832691,nan,nan,nan,nan,nan,0.9299435615539551,2.1299435615539553,0.0003807544708251953,0.0,0.31239172236124685,0.0,-5.0,0.7500015329541762,-0.01256009997047333,-0.004560671887303083,-0.005956557744178621,0.0,0.0,7.036447488972721,0.0
11.037654638290405,-0.022940937,0.15345494,-3.6549196,0.008546559101393635,nan,nan,nan,nan,nan,1.0299770832061768,2.229977083206177,0.0003788471221923828,0.0,0.327063305536906,0.0,-5.0,0.7412109200918247,-0.01961243060882025,-0.004225689294565298,-0.006965926098616968,0.0,0.0,9.461137627270988,0.0
11.137717008590698,-0.016019443,0.16886635,-3.7756486,0.008788373806652924,nan,nan,nan,nan,nan,1.1300368309020996,2.3300368309021,0.0003924369812011719,0.0,0.3417387351989747,0.0,-5.0,0.7331713110694964,-0.02509881909947651,-0.0007812707136975994,-0.007381633893860149,0.0,0.0,12.816913898687602,0.0
11.237628698348999,-0.007119698,0.19069082,-3.9248154,0.009439296586997086,nan,nan,nan,nan,nan,1.2299277782440186,2.4299277782440187,0.0004513263702392578,0.0,0.35638940747578945,0.0,-5.0,0.7258247931915803,-0.02977540289114635,0.0035601817244080417,-0.007743578722363203,0.0,0.0,15.121175240502446,0.0
11.33748722076416,8.1771315e-05,0.21119475,-4.0591493,0.009770114203194126,nan,nan,nan,nan,nan,1.3297770023345947,2.529777002334595,0.0004382133483886719,0.0,0.3710339603424073,0.0,-5.0,0.7191169925162254,-0.031837149924704586,0.007401729024612538,-0.008147750787783367,0.0,0.0,17.560476909051527,0.0
11.43784213066101,0.0047634896,0.23785941,-4.200216,0.009475008610200172,nan,nan,nan,nan,nan,1.4301555156707764,2.6301555156707765,0.0003650188446044922,0.0,0.3857561422983806,0.0,-5.0,0.712996987823554,-0.03261876504719139,0.009000850361772322,-0.008037350286626964,0.0,0.0,18.049412416640727,0.0
11.537667751312256,0.009759598,0.260588,-4.3262362,0.00865153129475619,nan,nan,nan,nan,nan,1.5299904346466064,2.7299904346466066,0.0003571510314941406,0.00039859708150233433,0.39920280583699536,0.0,-5.0,0.7074172086091262,-0.034465118411669195,0.008041120459260899,-0.007470160180189062,0.0,0.0,18.221052462094523,0.0
11.637620449066162,0.015961343,0.28449428,-4.4585586,0.007003750610615241,nan,nan,nan,nan,nan,1.629945993423462,2.829945993423462,0.0005400180816650391,0.015058745702107804,0.3698825085957844,0.0,-5.0,0.7023333192761638,-0.049108379081493105,0.0021748270839335787,-0.006424636716235782,0.0,0.0,16.824581177030293,0.0
11.737791299819946,0.02088573,0.30895838,-4.5768127,0.005123633208556043,nan,nan,nan,nan,nan,1.7301959991455078,2.930195999145508,0.0004832744598388672,0.029762079874674538,0.340475840250651,0.0,-5.0,0.6977040918910166,-0.0628996832759875,-0.0031202176905388884,-0.004956554564150236,0.0,0.0,15.207534988282731,0.0
11.838248014450073,0.023247274,0.33670372,-4.6939826,0.003833912467647106,nan,nan,nan,nan,nan,1.8307580947875977,3.030758094787598,0.0005824565887451172,0.044511187235514386,0.31097762552897124,0.0,-5.0,0.6934912699338355,-0.07138528768704343,-0.008866250422006994,-0.00403316107049722,0.0,0.0,11.977396094021081,0.0
11.937822818756104,0.025672035,0.3597157,-4.790833,0.0027210888947194825,nan,nan,nan,nan,nan,1.930250883102417,3.130250883102417,0.0003552436828613281,0.059103462855021216,0.2817930742899576,0.0,-5.0,0.6896594254410877,-0.07296797689025562,-0.013782456013281982,-0.0034014027328449904,0.0,0.0,7.133226833264656,0.0
12.037646532058716,0.027655778,0.38201815,-4.893877,0.0019188387696531146,nan,nan,nan,nan,nan,2.030101776123047,3.230101776123047,0.00039839744567871094,0.07374826049804693,0.25250347900390613,0.0,-5.0,0.6861758118203879,-0.06828462803639856,-0.016754573456105596,-0.002887302669602012,0.0,0.0,1.9620928286164006,0.0
12.137634038925171,0.02879468,0.39714068,-4.977529,0.0012028949916312714,nan,nan,nan,nan,nan,2.129974365234375,3.329974365234375,0.0003948211669921875,0.08839624023437508,0.22320751953124987,0.0,-5.0,0.684620580028228,-0.05836615252184473,-0.01865909701913398,-0.002392106431034155,0.0,0.0,0.0,0.0
12.238201379776001,0.029353853,0.4057566,-5.061145,0.0006984713681671868,nan,nan,nan,nan,nan,2.230529308319092,3.430529308319092,0.0005233287811279297,0.10314429855346685,0.19371140289306632,0.0,-5.0,0.6855954492625033,-0.043871006497601714,-0.020184592589913803,-0.0019553833054615256,0.0,0.0,0.0,0.0
12.338338613510132,0.036474716,0.40965536,-5.1485615,0.00035259376654064867,nan,nan,nan,nan,nan,2.3306291103363037,3.530629110336304,0.00040912628173828125,0.11782560284932463,0.16434879430135077,0.0,-5.0,0.6868159063496835,-0.025172557579584556,-0.01796544230793723,-0.0013975822239882937,0.0,0.0,0.0,0.0
12.437658071517944,0.04334278,0.4078061,-5.2130685,0.00032837070574640026,nan,nan,nan,nan,nan,2.4299798011779785,3.6299798011779787,0.0004086494445800781,0.1323970375061036,0.13520592498779282,0.0,-5.0,0.6885759796644338,-0.007894894652715366,-0.013738581705783133,-0.0009824443946993744,0.0,0.0,0.0,0.0
12.537605047225952,0.04706323,0.40359852,-5.268359,-0.00020787882441037492,nan,nan,nan,nan,nan,2.5299503803253174,3.7299503803253176,0.0004360675811767578,0.14705938911437996,0.10588122177124011,0.0,-5.0,0.6912038090358249,0.008453185302974214,-0.009534860073718138,-0.00046355428651449163,0.0,0.0,0.0,0.0
12.63838005065918,0.04537787,0.39860135,-5.3085155,-0.0012572337307729213,nan,nan,nan,nan,nan,2.6307075023651123,3.8307075023651125,0.0004291534423828125,0.16183710034688323,0.07632579930623358,0.0,-5.0,0.6942960977369818,0.01868897679108592,-0.010013127901416114,0.00038160547140793653,0.0,0.0,0.0,0.0
12.737687110900879,0.04041569,0.38724998,-5.342588,-0.002814168907716335,nan,nan,nan,nan,nan,2.7301008701324463,3.9301008701324465,0.0005819797515869141,0.1764147942860922,0.04717041142781562,0.0,-5.0,0.6975206180008605,0.026764228686359786,-0.013170203440506574,0.0016046382016329359,0.0,0.0,0.0,0.0
12.838341236114502,0.043043848,0.3709751,-5.365163,-0.0022771041020202484,nan,nan,nan,nan,nan,2.830828905105591,4.030828905105591,0.0006406307220458984,0.19118823941548674,0.017623521169026546,0.0,-5.0,0.7009711121693756,0.03284908132226631,-0.012770987456548347,0.001879781771315325,0.0,0.0,0.0,0.0
12.9374361038208,0.05211671,0.3515788,-5.3849964,-0.00017958097245721408,nan,nan,nan,nan,nan,2.9301555156707764,4.1301555156707765,0.0003407001495361328,0.2057561422983806,-0.011512284596761192,0.0,-5.0,0.7039669464652886,0.035968830075248946,-0.007755072473652056,0.0007810433691810499,0.0,0.0,0.0,0.0
13.038239002227783,0.06480334,0.32854432,-5.4036255,0.0026911726689077455,nan,nan,nan,nan,nan,3.030665636062622,4.230665636062622,0.0005528926849365234,0.220497626622518,-0.040995253245035994,0.0,-5.0,0.706520852120404,0.03753615397218636,0.0002735379581165217,-0.001519782227942759,0.0,0.0,0.0,0.0
13.137486696243286,0.08195278,0.29919788,-5.421642,0.005512477297458988,nan,nan,nan,nan,nan,3.129957437515259,4.329957437515259,0.0006356239318847656,0.2350604241689047,-0.07012084833780943,0.0,-5.0,0.7086916885733996,0.03769668905894466,0.008568633617037432,-0.00392675670621284,0.0,0.0,0.0,0.0
13.23737645149231,0.10346116,0.2625435,-5.435773,0.007555520508105661,nan,nan,nan,nan,nan,3.2297914028167725,4.429791402816773,0.0004737377166748047,0.24970273907979337,-0.09940547815958674,0.0,-5.0,0.7107351162148854,0.039547260318929196,0.016521006351879777,-0.005746537606540055,0.0,0.0,0.0,0.0
13.338837385177612,0.12543704,0.22795266,-5.446543,0.011177181453556641,nan,nan,nan,nan,nan,3.331204891204834,4.531204891204834,0.00048470497131347656,0.26457671737670907,-0.12915343475341814,0.0,-5.0,0.7126544603925601,0.03970570300268049,0.023121984509830613,-0.008437100923319278,0.0,0.0,0.0,0.0
13.437769174575806,0.1442834,0.19176398,-5.4525156,0.012772467805281157,nan,nan,nan,nan,nan,3.4302759170532227,4.630275917053223,0.0005106925964355469,0.27910713450113944,-0.15821426900227886,0.0,-5.0,0.7144140827762947,0.03771374361905154,0.02574415156855009,-0.010829250810135825,0.0,0.0,0.0,0.0
13.538275957107544,0.16142917,0.15443002,-5.4546323,0.012100382673539002,nan,nan,nan,nan,nan,3.530759572982788,4.730759572982788,0.00048470497131347656,0.293844737370809,-0.18768947474161798,0.0,-5.0,0.7162815530016116,0.03608499426938401,0.023916693877954254,-0.010685070779701891,0.0,0.0,0.0,0.0
13.637577533721924,0.17757411,0.116612725,-5.4532256,0.010817636473159687,nan,nan,nan,nan,nan,3.630340337753296,4.830340337753296,0.0006470680236816406,0.30844991620381684,-0.21689983240763366,0.0,-5.0,0.7180540188393209,0.03303563055964268,0.0198355354929425,-0.009746653811853351,0.0,0.0,0.0,0.0
13.738109588623047,0.19144814,0.07663167,-5.4445314,0.010538793862685662,nan,nan,nan,nan,nan,3.730647325515747,4.930647325515747,0.000736236572265625,0.3231616077423097,-0.24632321548461933,0.0,-5.0,0.7199984974179182,0.028265182110801274,0.013905070050472429,-0.009180875442145712,0.0,0.0,0.0,0.0
13.837578773498535,0.2022044,0.038887594,-5.442652,0.010478562672453616,nan,nan,nan,nan,nan,3.830143451690674,5.030143451690674,0.00043463706970214844,0.3377543729146323,-0.27550874582926455,0.0,-5.0,0.721508544722354,0.023660694402585766,0.007385696395519741,-0.008988570156922168,0.0,0.0,0.0,0.0
13.937828540802002,0.21438347,-0.0015193119,-5.437944,0.010447484568308144,nan,nan,nan,nan,nan,3.930189847946167,5.130189847946167,0.0004639625549316406,0.35242784436543795,-0.3048556887308759,0.0,-5.0,0.7226386503254713,0.019179018858628098,0.001594387543999247,-0.008828273695081367,0.0,0.0,0.0,0.0
14.038071393966675,0.22663333,-0.03817709,-5.432787,0.01042935939733339,nan,nan,nan,nan,nan,4.030689716339111,5.2306897163391115,0.0010232925415039062,0.3671678250630698,-0.3343356501261395,0.0,-5.0,0.7238157585126666,0.014497652418784436,-0.0021816841428195935,-0.008820505659964985,0.0,0.0,0.0,0.0
14.137998580932617,0.24099617,-0.07688566,-5.428209,0.009730984633019073,nan,nan,nan,nan,nan,4.130471467971802,5.330471467971802,0.0005068778991699219,0.3818024819691977,-0.36360496393839536,0.0,-5.0,0.724569359151325,0.009765521855329936,-0.00427894067399026,-0.008415663868764172,0.0,0.0,0.0,0.0
14.237780332565308,0.258118,-0.11218076,-5.417523,0.009572159060536566,nan,nan,nan,nan,nan,4.230224609375,5.430224609375,0.0007393360137939453,0.39643294270833346,-0.3928658854166669,0.0,-5.0,0.7255577057581821,0.004154416058114318,-0.0040805017888255425,-0.008092433364644443,0.0,0.0,0.0,0.0
14.337569236755371,0.27492848,-0.14634995,-5.3971286,0.008631439394656189,nan,nan,nan,nan,nan,4.329897880554199,5.529897880554199,0.0009014606475830078,0.4,-0.37789662170410143,0.0,-5.0,0.7270242197839207,0.01930925477486901,0.0017139241620047182,-0.007633790610360466,0.0,0.0,0.0,0.0
14.437590599060059,0.29282254,-0.17799628,-5.376988,0.007098483222414844,nan,nan,nan,nan,nan,4.429994821548462,5.629994821548462,0.0006518363952636719,0.4,-0.34853485234578435,0.0,-5.0,0.728604142121361,0.036392186629460165,0.007774710035687665,-0.006735569886415502,0.0,0.0,0.0,0.0
14.538328170776367,0.3124356,-0.21007797,-5.3554792,0.005244376927716905,nan,nan,nan,nan,nan,4.530852794647217,5.730852794647217,0.0004138946533203125,0.4,-0.31894984690348294,0.0,-5.0,0.7298859939169973,0.04742488847711337,0.012313313408719464,-0.00545333526057003,0.0,0.0,0.0,0.0
14.637602806091309,0.3286434,-0.2360288,-5.3370485,0.004019941829122244,nan,nan,nan,nan,nan,4.630099296569824,5.830099296569824,0.0005600452423095703,0.4,-0.28983753967285136,0.0,-5.0,0.7310377865124098,0.05259467001628552,0.015376639751575744,-0.00438613276979387,0.0,0.0,0.0,0.0
14.73743748664856,0.3425395,-0.25820735,-5.331157,0.0035394818007093414,nan,nan,nan,nan,nan,4.729796886444092,5.929796886444092,0.0005795955657958984,0.4,-0.2605929133097329,0.0,-5.0,0.7311202594737414,0.050828993979332396,0.01590087878521617,-0.0038989024494545826,0.0,0.0,0.0,0.0
14.838258981704712,0.35377464,-0.2786083,-5.328791,0.003379634990495827,nan,nan,nan,nan,nan,4.831008434295654,6.0310084342956545,0.00042128562927246094,0.4,-0.23090419260660788,0.0,-5.0,0.73076268199176,0.04397475251971296,0.013978355095270926,-0.0036654039142460697,0.0,0.0,0.0,0.0
14.937719345092773,0.36262584,-0.29380202,-5.3284407,0.0032182100096802575,nan,nan,nan,nan,nan,4.9301416873931885,6.130141687393189,0.00048422813415527344,0.4,-0.20182510503133122,0.0,-5.0,0.7302975664122157,0.0355540455418245,0.01017800156166438,-0.0032858457328887505,0.0,0.0,0.0,0.0
15.037588357925415,0.37145925,-0.307152,-5.326489,0.002900827411238715,nan,nan,nan,nan,nan,5.029907941818237,6.2299079418182375,0.0005288124084472656,0.4,-0.1725603370666502,0.0,-5.0,0.7298694900268741,0.025072502799457504,0.005965402118802174,-0.0028677789108066407,0.0,0.0,0.0,0.0
15.137700080871582,0.37883818,-0.3176565,-5.320683,0.0023770937588005712,nan,nan,nan,nan,nan,5.130026817321777,6.3300268173217775,0.0005440711975097656,0.4,-0.1431921335856118,0.0,-5.0,0.7298192812278318,0.015758887350942954,0.002483472125206695,-0.002257975743088955,0.0,0.0,0.0,0.0
15.237696170806885,0.38737795,-0.3256654,-5.3097534,0.0025943121499818096,nan,nan,nan,nan,nan,5.230135440826416,6.430135440826416,0.0005362033843994141,0.4,-0.11382693735758442,0.0,-5.0,0.7300356559826603,0.007887985560810187,-0.0002286653350662548,-0.002114812026274275,0.0,0.0,0.0,0.0
15.337532043457031,0.38951188,-0.32154742,-5.300513,0.002550265901163074,nan,nan,nan,nan,nan,5.329850673675537,6.529850673675537,0.00046253204345703125,0.4,-0.08457713572184225,0.0,-5.0,0.7302749493537639,-0.0022093418607691748,-0.0034700172912967633,-0.002052908704540466,0.0,0.0,0.0,0.0
15.437358856201172,0.3901253,-0.30925018,-5.294041,0.0023249633110431177,nan,nan,nan,nan,nan,5.429682493209839,6.629682493209839,0.0006508827209472656,0.4,-0.055293135325113735,0.0,-5.0,0.7303316483580227,-0.014766019830924288,-0.007314731239125571,-0.0017944212031189744,0.0,0.0,0.0,0.0
15.537509441375732,0.39125863,-0.2921879,-5.2902484,0.0024752204164544857,nan,nan,nan,nan,nan,5.529837131500244,6.729837131500244,0.0009582042694091797,0.4,-0.02591444142659487,0.0,-5.0,0.7300719845987935,-0.026307405388498205,-0.009717110548518525,-0.0017919111046099307,0.0,0.0,0.0,0.0
15.63755750656128,0.39523113,-0.26583502,-5.2844234,0.003099095382329886,nan,nan,nan,nan,nan,5.629952430725098,6.829952430725098,0.0005247592926025391,0.4,0.0034527130126955187,0.0,-5.0,0.7299496052560269,-0.03704432854291913,-0.009603453544730996,-0.0022194471571766955,0.0,0.0,0.0,0.0
15.73753833770752,0.39330497,-0.24867031,-5.2722116,0.005028349137933022,nan,nan,nan,nan,nan,5.729929685592651,6.9299296855926515,0.0007741451263427734,0.4,0.032779374440511246,0.0,-5.0,0.7302449710535539,-0.039349973419016984,-0.010672492569250661,-0.003566324910799803,0.0,0.0,0.0,0.0
15.837470531463623,0.38876557,-0.22603638,-5.26014,0.006480850723526915,nan,nan,nan,nan,nan,5.829797983169556,7.029797983169556,0.0007228851318359375,0.4,0.06207407506306986,0.0,-5.0,0.7306141674436277,-0.037085877497538534,-0.012454393936842853,-0.005057018497261175,0.0,0.0,0.0,0.0
15.93768835067749,0.38244298,-0.20409016,-5.2471185,0.007942963943548724,nan,nan,nan,nan,nan,5.930019855499268,7.130019855499268,0.0007159709930419922,0.4,0.09147249094645203,0.0,-5.0,0.7309861272753215,-0.03432149261095099,-0.014326168110323272,-0.006022353225854128,0.0,0.0,0.0,0.0
16.037538051605225,0.37642416,-0.18110906,-5.232303,0.01006733688162496,nan,nan,nan,nan,nan,6.029868125915527,7.2298681259155275,0.0004184246063232422,0.4,0.12076131693522162,0.0,-5.0,0.7314835217999787,-0.02926852635029183,-0.016850218928280952,-0.007789534203297835,0.0,0.0,0.0,0.0
16.137341737747192,0.37526956,-0.15401462,-5.2152696,0.012464004964369642,nan,nan,nan,nan,nan,6.12962007522583,7.32962007522583,0.0007662773132324219,0.4,0.1500218887329104,0.0,-5.0,0.7321242873561797,-0.025656516652587544,-0.016012616225544767,-0.009933170086885946,0.0,0.0,0.0,0.0
16.237736225128174,0.36821225,-0.12095413,-5.201409,0.012911180783430206,nan,nan,nan,nan,nan,6.230093955993652,7.4300939559936525,0.0005214214324951172,0.4,0.17949422709147156,0.0,-5.0,0.7324804679710495,-0.023687103849253967,-0.014348321796030742,-0.010952252691808311,0.0,0.0,0.0,0.0
16.33760643005371,0.36126253,-0.09051953,-5.1908402,0.012134720941492075,nan,nan,nan,nan,nan,6.329902172088623,7.529902172088623,0.0006091594696044922,0.4,0.20877130381266298,0.0,-5.0,0.7325975554142031,-0.021773483632504066,-0.012915172989112893,-0.010516886967034284,0.0,0.0,0.0,0.0
16.43737530708313,0.35399756,-0.05837498,-5.180273,0.01121865922849047,nan,nan,nan,nan,nan,6.429713249206543,7.629713249206543,0.0005540847778320312,0.4,0.23804921976725285,0.0,-5.0,0.7325836306119828,-0.01772480918954646,-0.011202244957697543,-0.009661280004867922,0.0,0.0,0.0,0.0
16.537445783615112,0.34727085,-0.030083219,-5.171641,0.011190823696480922,nan,nan,nan,nan,nan,6.529781103134155,7.7297811031341555,0.0005121231079101562,0.4,0.26740245691935244,0.0,-5.0,0.7325619385099432,-0.013811682429961235,-0.009876231574176511,-0.009485090871743334,0.0,0.0,0.0,0.0
16.637402057647705,0.34001398,-0.0062321904,-5.1696453,0.011452258222745334,nan,nan,nan,nan,nan,6.629730701446533,7.829730701446533,0.00046563148498535156,0.4,0.29672100575765,0.0,-5.0,0.7320963615659359,-0.007131609741865385,-0.00851103807837585,-0.00962444637345805,0.0,0.0,0.0,0.0
16.73740291595459,0.33355564,0.016469514,-5.163311,0.010448881323469595,nan,nan,nan,nan,nan,6.7297163009643555,7.929716300964356,0.0004248619079589844,0.4,0.3260501149495445,0.0,-5.0,0.7318375872654258,-0.00021019022864328016,-0.006556331087686144,-0.009164605936457846,0.0,0.0,0.0,0.0
16.837409019470215,0.3337811,0.03822109,-5.1586185,0.008355849818778892,nan,nan,nan,nan,nan,6.829707145690918,8.029707145690917,0.00045490264892578125,0.4,0.3553807627360026,0.0,-5.0,0.7316728082736529,0.006622234383089087,-0.0026129210646420914,-0.007744675548029951,0.0,0.0,0.0,0.0
16.937273502349854,0.33544707,0.056955207,-5.155715,0.006549669165060775,nan,nan,nan,nan,nan,6.929556131362915,8.129556131362914,0.0005397796630859375,0.4,0.3846697985331218,0.0,-5.0,0.7313846297192238,0.01290347896926747,0.003554418751919821,-0.005962180013011178,0.0,0.0,0.0,0.0
17.037285327911377,0.33556607,0.07438025,-5.153905,0.005637769708410836,nan,nan,nan,nan,nan,7.029563665390015,8.229563665390014,0.00042438507080078125,0.4,0.3859946581522624,0.0,-5.0,0.7311018528096943,0.004528187456146245,0.006950386540059396,-0.004964424012080138,0.0,0.0,0.0,0.0
17.13729453086853,0.33365226,0.09491085,-5.1438293,0.005562794225241358,nan,nan,nan,nan,nan,7.129573106765747,8.329573106765746,0.0003783702850341797,0.4,0.3566585553487142,0.0,-5.0,0.7312389593652393,-0.014280045114358634,0.007979473626116534,-0.004651482879468764,0.0,0.0,0.0,0.0
17.237502098083496,0.3383314,0.11373582,-5.140812,0.004736529405017486,nan,nan,nan,nan,nan,7.22979736328125,8.42979736328125,0.00040602684020996094,0.4,0.3272594401041667,0.0,-5.0,0.731201456735969,-0.030018220644965798,0.009807748200489802,-0.004124779161936394,0.0,0.0,0.0,0.0
17.33754014968872,0.34721935,0.13422686,-5.1448884,0.003115773877987794,nan,nan,nan,nan,nan,7.3298492431640625,8.529849243164062,0.00046634674072265625,0.4,0.29791088867187504,0.0,-5.0,0.730773824570297,-0.04107115115493904,0.01355053708807974,-0.0027865978591922005,0.0,0.0,0.0,0.0
17.43733310699463,0.35816953,0.15297474,-5.1517935,0.0012550542590471596,nan,nan,nan,nan,nan,7.429613828659058,8.629613828659057,0.0005042552947998047,0.4,0.2686466102600098,0.0,-5.0,0.7300083808765809,-0.04743561497993056,0.017558320338760144,-0.0011315525472470338,0.0,0.0,0.0,0.0
17.537320613861084,0.37452915,0.17235509,-5.1581078,-0.002253555265922133,nan,nan,nan,nan,nan,7.529596328735352,8.72959632873535,0.00045013427734375,0.4,0.23931841023763023,0.0,-5.0,0.7294298132285628,-0.04894161411280981,0.023084976359989535,0.0018615954689169606,0.0,0.0,0.0,0.0
17.63729190826416,0.3938963,0.18930878,-5.1650624,-0.005391457063291379,nan,nan,nan,nan,nan,7.629570007324219,8.829570007324218,0.0003781318664550781,0.4,0.20999279785156252,0.0,-5.0,0.72891502444136,-0.04648760394401814,0.02754204829193013,0.004798599007569406,0.0,0.0,0.0,0.0
17.737389087677002,0.40691218,0.20515527,-5.170421,-0.007448953765141425,nan,nan,nan,nan,nan,7.729676246643066,8.929676246643066,0.00039315223693847656,0.4,0.18062830098470056,0.0,-5.0,0.7284938636574605,-0.042831016152054674,0.028625148236306006,0.006996639123354075,0.0,0.0,0.0,0.0
17.837423086166382,0.41607112,0.21921389,-5.177441,-0.008290627555325933,nan,nan,nan,nan,nan,7.829717636108398,9.029717636108398,0.0004286766052246094,0.4,0.15128282674153648,0.0,-5.0,0.7280884292787626,-0.038465465125596614,0.025597243235306728,0.008064579186857377,0.0,0.0,0.0,0.0
17.93724822998047,0.42144176,0.23142758,-5.1847167,-0.007982535708831017,nan,nan,nan,nan,nan,7.9295265674591064,9.129526567459106,0.00032639503479003906,0.4,0.12200554021199546,0.0,-5.0,0.7276222938426996,-0.031817042370336474,0.01847893354261612,0.007764868769503987,0.0,0.0,0.0,0.0
18.037291765213013,0.42334816,0.23958363,-5.1886277,-0.007003633065050842,nan,nan,nan,nan,nan,8.029567956924438,9.229567956924438,0.000392913818359375,0.4,0.09266006596883139,0.0,-5.0,0.7274320409293583,-0.023680481955903616,0.008881400410400649,0.006564460975626922,0.0,0.0,0.0,0.0
18.13727569580078,0.4223578,0.24606253,-5.1966176,-0.0053618658332672126,nan,nan,nan,nan,nan,8.129558801651001,9.329558801651,0.00032830238342285156,0.4,0.06332941818237306,0.0,-5.0,0.7270642431730457,-0.015601624413217215,-0.00021171323645710662,0.0049870017499839695,0.0,0.0,0.0,0.0
18.237349271774292,0.42203972,0.24831332,-5.2026753,-0.003408786636022298,nan,nan,nan,nan,nan,8.229626178741455,9.429626178741454,0.0005123615264892578,0.4,0.03397632090250653,0.0,-5.0,0.726745756919267,-0.00782800474555498,-0.006736816686288836,0.0030999763103470497,0.0,0.0,0.0,0.0
18.33748173713684,0.42027023,0.24924213,-5.213114,-0.0011676339599489029,nan,nan,nan,nan,nan,8.329774379730225,9.529774379730224,0.0003325939178466797,0.4,0.004599515279134092,0.0,-5.0,0.7264117352801965,-0.0015862519908907227,-0.010536863409159504,0.0012437531710100336,0.0,0.0,0.0,0.0
18.437480688095093,0.41758332,0.24649477,-5.225231,0.0003651871253487274,nan,nan,nan,nan,nan,8.429768562316895,9.629768562316894,0.000377655029296875,0.4,-0.0247321116129557,0.0,-5.0,0.725828319591752,0.0025467850620425688,-0.013284212046376049,-0.000309814550382862,0.0,0.0,0.0,0.0
18.53734803199768,0.41487637,0.23629163,-5.237309,0.001537870646983748,nan,nan,nan,nan,nan,8.529622077941895,9.729622077941894,0.00034046173095703125,0.4,-0.05402247619628904,0.0,-5.0,0.7252561591932589,0.009904187774411297,-0.014982849906946588,-0.0014564447318090043,0.0,0.0,0.0,0.0
18.637428760528564,0.408787,0.223103,-5.2515407,0.0016882134519011667,nan,nan,nan,nan,nan,8.629719972610474,9.829719972610473,0.0003376007080078125,0.4,-0.08338452529907228,0.0,-5.0,0.7247544467654898,0.015974828453016808,-0.01686564214486563,-0.0018284483890446536,0.0,0.0,0.0,0.0
18.73726487159729,0.40308732,0.20718901,-5.2644506,0.0007245117345893275,nan,nan,nan,nan,nan,8.729543209075928,9.929543209075927,0.0003421306610107422,0.4,-0.11266600799560544,0.0,-5.0,0.7243838523635674,0.019813752232932608,-0.01853951811764181,-0.0014134315176701348,0.0,0.0,0.0,0.0
18.837357997894287,0.39703473,0.19004439,-5.2742395,-0.0008075295761892538,nan,nan,nan,nan,nan,8.829638957977295,10.029638957977294,0.00034332275390625,0.4,-0.1420274276733399,0.0,-5.0,0.7242482091772399,0.02137036367857785,-0.019179900811682207,-9.556888514739873e-06,0.0,0.0,0.0,0.0
18.93733286857605,0.38936803,0.16590175,-5.2835655,-0.001912648096059717,nan,nan,nan,nan,nan,8.929624080657959,10.129624080657958,0.0003650188446044922,0.4,-0.17135639699300134,0.0,-5.0,0.7241937328252719,0.022586857914014116,-0.019340642607137037,0.0009785246063080877,0.0,0.0,0.0,0.0
19.03738522529602,0.3828526,0.13572189,-5.291552,-0.0033735499920534533,nan,nan,nan,nan,nan,9.029669523239136,10.229669523239135,0.000370025634765625,0.4,-0.2007030601501465,0.0,-5.0,0.7241249822964422,0.02914062874453825,-0.018463355746571822,0.0023721482554800418,0.0,0.0,0.0,0.0
19.137367486953735,0.38139796,0.10315421,-5.2926455,-0.005228362744942625,nan,nan,nan,nan,nan,9.129644393920898,10.329644393920898,0.00033664703369140625,0.4,-0.23002902221679689,0.0,-5.0,0.7245033541580139,0.031961834521403346,-0.01515201455447189,0.0038550859696404134,0.0,0.0,0.0,0.0
19.237544059753418,0.3774079,0.074905075,-5.2967176,-0.0073027568299281285,nan,nan,nan,nan,nan,9.229847192764282,10.429847192764282,0.0003552436828613281,0.4,-0.2594218432108561,0.0,-5.0,0.7249016454223971,0.031726290742638844,-0.011082157184657503,0.005544977704103588,0.0,0.0,0.0,0.0
19.33743143081665,0.3685962,0.045347303,-5.3000937,-0.009639681522194044,nan,nan,nan,nan,nan,9.329710721969604,10.529710721969604,0.00036215782165527344,0.4,-0.28871514511108404,0.0,-5.0,0.725121784363662,0.02831889753950371,-0.00953206953398517,0.007404106900871966,0.0,0.0,0.0,0.0
19.437277793884277,0.3578628,0.01782757,-5.3011575,-0.011724559029343804,nan,nan,nan,nan,nan,9.429553031921387,10.629553031921386,0.0003364086151123047,0.4,-0.3180022226969402,0.0,-5.0,0.7255273916113842,0.02374861653875514,-0.010877778665986108,0.009391493759029429,0.0,0.0,0.0,0.0
19.53724431991577,0.34792918,-0.008536176,-5.3038225,-0.01375661747333187,nan,nan,nan,nan,nan,9.529517889022827,10.729517889022826,0.0003402233123779297,0.4,-0.34732524744669596,0.0,-5.0,0.7257111068488834,0.0186742537867775,-0.012625384020580398,0.011327736658851697,0.0,0.0,0.0,0.0
19.63726282119751,0.34165838,-0.03808021,-5.3079042,-0.01522360236340483,nan,nan,nan,nan,nan,9.629539728164673,10.829539728164672,0.0003566741943359375,0.4,-0.3766649869283041,0.0,-5.0,0.7258019060571604,0.012885176985495279,-0.011614520891552672,0.012627515090216422,0.0,0.0,0.0,0.0
19.73727536201477,0.33759722,-0.06748962,-5.3129478,-0.0155907677373463,nan,nan,nan,nan,nan,9.729549169540405,10.929549169540405,0.00033593177795410156,0.3969994551340739,-0.39399891026814776,0.0,-5.0,0.7257928357884573,0.014211529105026838,-0.0060720301236045346,0.013187847634213748,0.0,0.0,0.0,0.0
19.83741569519043,0.3344975,-0.09334507,-5.317463,-0.015094616497386682,nan,nan,nan,nan,nan,9.829697608947754,11.029697608947753,0.00036406517028808594,0.38231101735432943,-0.36462203470865884,0.0,-5.0,0.7257586829568429,0.030484534797020423,0.003439287395541646,0.01286928146084931,0.0,0.0,0.0,0.0
19.937487363815308,0.33206508,-0.11721315,-5.3220468,-0.014193498950691406,nan,nan,nan,nan,nan,9.929791450500488,11.129791450500488,0.00035500526428222656,0.36763058725992837,-0.33526117451985676,0.0,-5.0,0.7257028235715709,0.04274532222532026,0.011541203160045185,0.011932686866348602,0.0,0.0,0.0,0.0
20.03739619255066,0.33122942,-0.14490142,-5.330455,-0.01409012167286198,nan,nan,nan,nan,nan,10.029677629470825,11.229677629470824,0.0003533363342285156,0.35298061434427896,-0.3059612286885579,0.0,-5.0,0.7254771069908197,0.05070329301897826,0.01737805752354265,0.011328703397586608,0.0,0.0,0.0,0.0
20.137552499771118,0.33658338,-0.1695607,-5.3287983,-0.01341163884882088,nan,nan,nan,nan,nan,10.129846572875977,11.329846572875976,0.0003509521484375,0.3382891693115234,-0.27657833862304687,0.0,-5.0,0.7257481502311832,0.05380403462135032,0.023357561499877163,0.010558285940833093,0.0,0.0,0.0,0.0
20.23738408088684,0.3427175,-0.19595042,-5.324811,-0.011850185417597997,nan,nan,nan,nan,nan,10.22966480255127,11.429664802551269,0.00034737586975097656,0.3236491622924805,-0.24729832458496093,0.0,-5.0,0.7263466382769193,0.05295133719243867,0.028803757238648954,0.00914702174051493,0.0,0.0,0.0,0.0
20.337846279144287,0.35007378,-0.22033204,-5.3187523,-0.009419537803723826,nan,nan,nan,nan,nan,10.330153226852417,11.530153226852416,0.0003387928009033203,0.30891086006164553,-0.21782172012329098,0.0,-5.0,0.7269185389950118,0.04987683460895393,0.031535747341694065,0.007118818605413289,0.0,0.0,0.0,0.0
20.437443733215332,0.35885614,-0.23974814,-5.311324,-0.007143600822002763,nan,nan,nan,nan,nan,10.429724216461182,11.629724216461181,0.0003523826599121094,0.29430711491902667,-0.18861422983805337,0.0,-5.0,0.7276400642278367,0.04345214469429003,0.03289485181224635,0.0049143447470089835,0.0,0.0,0.0,0.0
20.537344217300415,0.3692073,-0.25871548,-5.308588,-0.005230592593188791,nan,nan,nan,nan,nan,10.52962040901184,11.72962040901184,0.00034356117248535156,0.27965567334492997,-0.15931134668985997,0.0,-5.0,0.7280207721662564,0.03662290532866878,0.03343677021397773,0.003059346292908561,0.0,0.0,0.0,0.0
20.637313842773438,0.3768994,-0.27365607,-5.300125,-0.003675918041524777,nan,nan,nan,nan,nan,10.629587173461914,11.829587173461913,0.00036025047302246094,0.2649938812255859,-0.12998776245117183,0.0,-5.0,0.7284850233436785,0.02821820714565523,0.031456168667954615,0.0018391916779355371,0.0,0.0,0.0,0.0
20.73735547065735,0.38044152,-0.282375,-5.2931805,-0.002594566048017038,nan,nan,nan,nan,nan,10.729637622833252,11.929637622833251,0.0003337860107421875,0.2503198153177897,-0.10063963063557937,0.0,-5.0,0.7290071636532887,0.018425457950544007,0.026146221895540448,0.001130985256189082,0.0,0.0,0.0,0.0
20.838184356689453,0.38304895,-0.28775856,-5.28424,-0.0015331851416848716,nan,nan,nan,nan,nan,10.830490112304688,12.030490112304687,0.00036787986755371094,0.23552811686197916,-0.07105623372395829,0.0,-5.0,0.7293509146027175,0.007406169493459683,0.01883531249216925,0.0007138245501851367,0.0,0.0,0.0,0.0
20.937549114227295,0.38640013,-0.290381,-5.2725573,-0.0004999117100171653,nan,nan,nan,nan,nan,10.929845571517944,12.129845571517944,0.00034427642822265625,0.2209559828440348,-0.04191196568806959,0.0,-5.0,0.729979854123216,-9.973696373224709e-05,0.013621848573780881,0.0001488216502514266,0.0,0.0,0.0,0.0
21.037524223327637,0.3868586,-0.29369128,-5.2668047,0.00020548967793845505,nan,nan,nan,nan,nan,11.02981185913086,12.229811859130859,0.00035953521728515625,0.20629426066080728,-0.012588521321614544,0.0,-5.0,0.7301780873089986,-0.005563928232220196,0.008265644845031719,-0.0003089849664290239,0.0,0.0,0.0,0.0
21.137494802474976,0.38745126,-0.28971788,-5.2594566,0.0006608453622319668,nan,nan,nan,nan,nan,11.129775524139404,12.329775524139404,0.00041103363037109375,0.1916329231262207,0.016734153747558624,0.0,-5.0,0.7303094627117301,-0.011540927413197167,0.0034227770392167814,-0.0005554843997579341,0.0,0.0,0.0,0.0
21.23754358291626,0.38504118,-0.2789472,-5.2515783,0.0016480127422081187,nan,nan,nan,nan,nan,11.229838609695435,12.429838609695434,0.00035452842712402344,0.17695700391133623,0.04608599217732756,0.0,-5.0,0.7304953797425461,-0.017212582316690466,-0.0006127013157597589,-0.0009741818831818893,0.0,0.0,0.0,0.0
21.337700605392456,0.37977147,-0.2641915,-5.2477674,0.0031269337173073855,nan,nan,nan,nan,nan,11.330004453659058,12.530004453659057,0.00035190582275390625,0.16226601346333822,0.0754679730733236,0.0,-5.0,0.7304787143405985,-0.023901782386314314,-0.005769648040763396,-0.002137631274706921,0.0,0.0,0.0,0.0
21.43756628036499,0.3719145,-0.24492314,-5.2493153,0.004570355884765906,nan,nan,nan,nan,nan,11.429848909378052,12.629848909378051,0.00035762786865234375,0.14762215995788572,0.1047556800842286,0.0,-5.0,0.7300226236004228,-0.027905888255550456,-0.00980888927842469,-0.0032608871220188365,0.0,0.0,0.0,0.0
21.53743577003479,0.3716163,-0.2219751,-5.2515917,0.00579640209345126,nan,nan,nan,nan,nan,11.529712200164795,12.729712200164794,0.00034999847412109375,0.13297554397583006,0.1340489120483399,0.0,-5.0,0.7295271720816368,-0.030811828531822794,-0.010313173610167797,-0.004430595233485903,0.0,0.0,0.0,0.0
21.637465476989746,0.36654106,-0.19447951,-5.2515335,0.007839124151336587,nan,nan,nan,nan,nan,11.629745483398438,12.829745483398437,0.0003571510314941406,0.11830399576822913,0.16339200846354177,0.0,-5.0,0.7291857778976313,-0.03159038004685009,-0.009153228095814193,-0.0057994505157835064,0.0,0.0,0.0,0.0
21.73733162879944,0.35982898,-0.16665317,-5.2507915,0.010697865489820074,nan,nan,nan,nan,nan,11.729607582092285,12.929607582092284,0.00033736228942871094,0.10365755462646482,0.19268489074707038,0.0,-5.0,0.7289699259801582,-0.031033282953336846,-0.009128026011382755,-0.008007530914044143,0.0,0.0,0.0,0.0
21.837387800216675,0.34977514,-0.1338998,-5.248843,0.014218549560109225,nan,nan,nan,nan,nan,11.82966947555542,13.02966947555542,0.0003387928009033203,0.08898181025187171,0.2220363794962566,0.0,-5.0,0.7287781405832564,-0.028494067152554224,-0.00948763962647355,-0.011132541278351954,0.0,0.0,0.0,0.0
21.93740487098694,0.3367946,-0.09980053,-5.2447786,0.015144790364678189,nan,nan,nan,nan,nan,11.929709434509277,13.129709434509277,0.0003542900085449219,0.07430928293863928,0.25138143412272146,0.0,-5.0,0.7287675710572306,-0.028498005939471154,-0.010515680628699888,-0.012665592605040764,0.0,0.0,0.0,0.0
22.037365436553955,0.3188493,-0.06308933,-5.24381,0.014679013956651622,nan,nan,nan,nan,nan,12.029640674591064,13.229640674591064,0.00034236907958984375,0.05965270105997718,0.28069459788004564,0.0,-5.0,0.728625940323392,-0.027022945103384474,-0.01186146269793221,-0.012643142313187715,0.0,0.0,0.0,0.0
22.137274742126465,0.29947898,-0.031579603,-5.2421055,0.013264927811923007,nan,nan,nan,nan,nan,12.129591464996338,13.329591464996337,0.00033211708068847656,0.044993251800537065,0.3100134963989259,0.0,-5.0,0.7284846211090721,-0.024833944950874185,-0.013875645432243641,-0.011693182582674166,0.0,0.0,0.0,0.0
22.237449884414673,0.27536395,0.0015117635,-5.2387023,0.011581443929141531,nan,nan,nan,nan,nan,12.229721784591675,13.429721784591674,0.00034737586975097656,0.030307471593221003,0.339385056813558,0.0,-5.0,0.7284530692975637,-0.022112574819267816,-0.016860087732914444,-0.010169608908344218,0.0,0.0,0.0,0.0
22.3375461101532,0.24519671,0.03509506,-5.2327185,0.010928529613320085,nan,nan,nan,nan,nan,12.329837083816528,13.529837083816528,0.0003559589385986328,0.015623894373575808,0.3687522112528484,0.0,-5.0,0.7285882939928415,-0.01610805346933592,-0.02080295917075385,-0.009428719951650845,0.0,0.0,0.0,0.0
22.43747901916504,0.21121822,0.06870313,-5.224886,0.011461899082514685,nan,nan,nan,nan,nan,12.429796934127808,13.629796934127807,0.0003457069396972656,0.0009631163279215205,0.398073767344157,0.0,-5.0,0.7288687048383025,-0.010001426262339963,-0.02534560804179371,-0.009619756858862186,0.0,0.0,0.0,0.0
22.537517309188843,0.18515489,0.098091066,-5.217137,0.011415309076678242,nan,nan,nan,nan,nan,12.529796600341797,13.729796600341796,0.00034618377685546875,0.0,0.3725929972330728,0.0,-5.0,0.7291925071173412,-0.028427972014825414,-0.032328405172416266,-0.010209814298791494,0.0,0.0,0.0,0.0
22.637392282485962,0.16023153,0.12657604,-5.2105927,0.011077360301322458,nan,nan,nan,nan,nan,12.629711389541626,13.829711389541625,0.0004181861877441406,0.0,0.34328465906778965,0.0,-5.0,0.7294512512285759,-0.04260089759698789,-0.03460141665504203,-0.010361799061686558,0.0,0.0,0.0,0.0
22.737539768218994,0.13268933,0.1569037,-5.2041144,0.010548198644095555,nan,nan,nan,nan,nan,12.729839086532593,13.929839086532592,0.0003364086151123047,0.0,0.3139138679504394,0.0,-5.0,0.7296289699507458,-0.05220642763059087,-0.03423110430916617,-0.01029576819491458,0.0,0.0,0.0,0.0
22.837825536727905,0.106886655,0.18422659,-5.198556,0.009941169992101623,nan,nan,nan,nan,nan,12.83014178276062,14.03014178276062,0.0003638267517089844,0.0,0.28449174372355135,0.0,-5.0,0.7298111535817036,-0.057585921682352235,-0.032537540428019984,-0.009976001812543446,0.0,0.0,0.0,0.0
22.93742322921753,0.07741835,0.21169356,-5.196174,0.009691257720672123,nan,nan,nan,nan,nan,12.929738759994507,14.129738759994506,0.00034618377685546875,0.0,0.25527663040161125,0.0,-5.0,0.7297247130373427,-0.05720446013853061,-0.030267295488608126,-0.009746635363154312,0.0,0.0,0.0,0.0
23.037336349487305,0.051157378,0.23164502,-5.196923,0.009611524139194253,nan,nan,nan,nan,nan,13.029613018035889,14.229613018035888,0.00034236907958984375,0.0,0.22598018137613923,0.0,-5.0,0.7294630612869699,-0.051092732821542475,-0.026791317703109448,-0.009510814945073652,0.0,0.0,0.0,0.0
23.137377977371216,0.0278122,0.25109848,-5.1963034,0.00939385651745195,nan,nan,nan,nan,nan,13.129658460617065,14.329658460617065,0.0003459453582763672,0.0,0.19663351821899405,0.0,-5.0,0.7292077844994288,-0.041994367138708334,-0.0213610577647433,-0.009124535821112908,0.0,0.0,0.0,0.0
23.23771905899048,0.009664893,0.26585692,-5.196645,0.008857524091395012,nan,nan,nan,nan,nan,13.229998588562012,14.429998588562011,0.0003495216369628906,0.0,0.1672004140218098,0.0,-5.0,0.7289992094608113,-0.03287015969899019,-0.014489153615400858,-0.008386423002282204,0.0,0.0,0.0,0.0
23.337716102600098,-0.007204471,0.27728945,-5.199645,0.008064084393537396,nan,nan,nan,nan,nan,13.330009698867798,14.530009698867797,0.0003521442413330078,0.0,0.13786382166544583,0.0,-5.0,0.7285688083505211,-0.0222342322476601,-0.007135116340936672,-0.007385483423932904,0.0,0.0,0.0,0.0
23.437678575515747,-0.020129625,0.28606194,-5.202155,0.00728683271971718,nan,nan,nan,nan,nan,13.430015563964844,14.630015563964843,0.0003447532653808594,0.0,0.10852876790364574,0.0,-5.0,0.728264695292511,-0.013208540420495561,0.00030452041402341073,-0.006431968761617838,0.0,0.0,0.0,0.0
23.537546157836914,-0.029483868,0.28897604,-5.205743,0.0067071682363254725,nan,nan,nan,nan,nan,13.529829502105713,14.729829502105712,0.0003647804260253906,0.0,0.07925001271565746,0.0,-5.0,0.7280156617611412,-0.004270179292966569,0.007305617054613863,-0.005559511974403184,0.0,0.0,0.0,0.0
23.637516021728516,-0.038650148,0.2863693,-5.205481,0.006095453797357604,nan,nan,nan,nan,nan,13.629794836044312,14.82979483604431,0.0003666877746582031,0.0,0.0499268480936685,0.0,-5.0,0.7278683938457994,0.004765674483606867,0.012945887880545393,-0.004904525222225989,0.0,0.0,0.0,0.0
23.737487316131592,-0.04600083,0.28022492,-5.201526,0.0053684750237392755,nan,nan,nan,nan,nan,13.72976565361023,14.929765653610229,0.000354766845703125,0.0,0.02060207494099924,0.0,-5.0,0.7280081345093048,0.013255812789713299,0.015647823621080865,-0.004286108089082729,0.0,0.0,0.0,0.0
23.83748435974121,-0.049899742,0.27238,-5.19518,0.0044174225954443785,nan,nan,nan,nan,nan,13.829777240753174,15.029777240753173,0.0003571510314941406,0.0,-0.008734657287597791,0.0,-5.0,0.7283951850062347,0.01961643583873267,0.017638613829105792,-0.0035379415146918726,0.0,0.0,0.0,0.0
23.93769598007202,-0.04384188,0.24935265,-5.189969,0.002702154200870579,nan,nan,nan,nan,nan,13.930000305175781,15.13000030517578,0.0003495216369628906,0.0,-0.038133422851562584,0.0,-5.0,0.7286229470200318,0.027699112445426832,0.021337611528075118,-0.002418426619967444,0.0,0.0,0.0,0.0
24.037534713745117,-0.03714909,0.22876562,-5.182227,0.0011235476939256642,nan,nan,nan,nan,nan,14.029815912246704,15.229815912246703,0.00035691261291503906,0.0,-0.06741266759236667,0.0,-5.0,0.7289342517932101,0.03444365739799283,0.02516519569798008,-0.0010569444767121526,0.0,0.0,0.0,0.0
24.137792587280273,-0.033347245,0.2038479,-5.172637,-0.0009248809627769201,nan,nan,nan,nan,nan,14.130119323730469,15.330119323730468,0.0005307197570800781,0.0,-0.09683500162760428,0.0,-5.0,0.729335669320178,0.03658849578388164,0.02624161532457263,0.0002855643117863839,0.0,0.0,0.0,0.0
24.237468719482422,-0.03008772,0.17637609,-5.161121,-0.0031248048104335936,nan,nan,nan,nan,nan,14.229753255844116,15.429753255844116,0.0003764629364013672,0.0,-0.1260609550476076,0.0,-5.0,0.7297957667174888,0.0377421621547035,0.02309107464185934,0.0020310117734150266,0.0,0.0,0.0,0.0
24.337690591812134,-0.023834655,0.14946446,-5.148616,-0.004740620515417551,nan,nan,nan,nan,nan,14.329996585845947,15.529996585845947,0.00036787986755371094,0.0,-0.15546566518147806,0.0,-5.0,0.730458816641702,0.03631009662512108,0.02096587829249708,0.003498361876721462,0.0,0.0,0.0,0.0
24.437633275985718,-0.015588947,0.11824913,-5.138926,-0.0058939662183684375,nan,nan,nan,nan,nan,14.429929256439209,15.629929256439208,0.0004215240478515625,0.0,-0.18477924855550143,0.0,-5.0,0.7308737191927407,0.0344072518820538,0.01923107626400149,0.004594143113063347,0.0,0.0,0.0,0.0
24.537412881851196,-0.009038964,0.08429193,-5.131915,-0.007430990372721429,nan,nan,nan,nan,nan,14.529705286026001,15.729705286026,0.00040912628173828125,0.0,-0.21404688390096044,0.0,-5.0,0.731031941006136,0.03199602031931512,0.016776732509425428,0.005650521776650796,0.0,0.0,0.0,0.0
24.637446641921997,-0.002257821,0.053083584,-5.1253047,-0.008554666523236547,nan,nan,nan,nan,nan,14.629746913909912,15.829746913909911,0.0005860328674316406,0.0,-0.243392428080241,0.0,-5.0,0.7310852774942875,0.029034975473423017,0.01403110911298174,0.006851990630557626,0.0,0.0,0.0,0.0
24.73761487007141,0.0074942005,0.015997184,-5.1193094,-0.008930747608291873,nan,nan,nan,nan,nan,14.729894876480103,15.929894876480102,0.0003788471221923828,0.0,-0.2727691637674969,0.0,-5.0,0.7311787702505761,0.025249855313941406,0.012513848021319059,0.007344454893395424,0.0,0.0,0.0,0.0
24.837833642959595,0.018100524,-0.019856617,-5.1203027,-0.008760471559428426,nan,nan,nan,nan,nan,14.83015751838684,16.03015751838684,0.0003638267517089844,0.0,-0.30217953872680686,0.0,-5.0,0.7307634672399249,0.021861634458744776,0.012373088812159884,0.007315403996790373,0.0,0.0,0.0,0.0
24.937697410583496,0.024982667,-0.052499764,-5.1226454,-0.00832254599335237,nan,nan,nan,nan,nan,14.930020332336426,16.130020332336425,0.0003674030303955078,0.0,-0.33147263081868505,0.0,-5.0,0.7302402433055173,0.016725688202293535,0.010549105709637742,0.007026323107775343,0.0,0.0,0.0,0.0
25.03747320175171,0.034033336,-0.0868334,-5.126764,-0.007688479153757351,nan,nan,nan,nan,nan,15.02975845336914,16.22975845336914,0.0004634857177734375,0.0,-0.36072914632161474,0.0,-5.0,0.7297030828825821,0.010683111737236113,0.00782617996038863,0.006580723823364384,0.0,0.0,0.0,0.0
25.13757586479187,0.044008687,-0.12203733,-5.133042,-0.007319864855108157,nan,nan,nan,nan,nan,15.129861116409302,16.3298611164093,0.0004723072052001953,0.0,-0.39009259414672864,0.0,-5.0,0.7292008851402048,0.005536578593822233,0.006366347471794755,0.0061591467509286455,0.0,0.0,0.0,0.0
25.237500429153442,0.052065782,-0.15538046,-5.140839,-0.007371129980236637,nan,nan,nan,nan,nan,15.229791402816772,16.42979140281677,0.00041413307189941406,-0.009702739079793368,-0.38059452184041326,0.0,-5.0,0.7286283857312023,0.020812286820240354,0.00983950998884425,0.006027214053295775,0.0,0.0,0.0,0.0
25.337820053100586,0.056491654,-0.19063827,-5.1526012,-0.007313014377100909,nan,nan,nan,nan,nan,15.330140590667725,16.530140590667724,0.00037550926208496094,-0.024420619964599686,-0.35115876007080066,0.0,-5.0,0.7278997265187058,0.03946577758746019,0.01250727852434632,0.005816569103739576,0.0,0.0,0.0,0.0
25.43753170967102,0.06298401,-0.21585454,-5.1617546,-0.006143543740601654,nan,nan,nan,nan,nan,15.429887533187866,16.629887533187866,0.00035262107849121094,-0.03905017153422046,-0.3218996569315591,0.0,-5.0,0.727361246557215,0.04925462095630541,0.014104020791957902,0.004973131036914602,0.0,0.0,0.0,0.0
25.537557363510132,0.06794537,-0.24047469,-5.1655645,-0.004394089669585457,nan,nan,nan,nan,nan,15.529902935028076,16.729902935028075,0.0003540515899658203,-0.05371909713745126,-0.2925618057250975,0.0,-5.0,0.7272132690410248,0.05122417657006976,0.01467189929275949,0.0035743710562926604,0.0,0.0,0.0,0.0
25.637447357177734,0.068006724,-0.2594051,-5.165735,-0.002963521640642156,nan,nan,nan,nan,nan,15.62973427772522,16.82973427772522,0.0003669261932373047,-0.06836102739969897,-0.26327794520060205,0.0,-5.0,0.7273750449750127,0.047485040944396005,0.013610782182536441,0.0021720640027722156,0.0,0.0,0.0,0.0
25.73790669441223,0.06313588,-0.2765602,-5.164065,-0.0021807198426748806,nan,nan,nan,nan,nan,15.730249881744385,16.930249881744384,0.0003542900085449219,-0.08310331598917652,-0.233793368021647,0.0,-5.0,0.7276404524602516,0.04026136495636951,0.009177232519661788,0.0015530559650909768,0.0,0.0,0.0,0.0
25.837870121002197,0.057995334,-0.29221776,-5.162285,-0.0021037259622227415,nan,nan,nan,nan,nan,15.830192565917969,17.030192565917968,0.0003533363342285156,-0.0977615763346355,-0.20447684733072902,0.0,-5.0,0.7278686054183177,0.0346158006273841,0.004689252382512126,0.0015586120206952817,0.0,0.0,0.0,0.0
25.937775135040283,0.04440679,-0.30268788,-5.1635222,-0.0022511388959925924,nan,nan,nan,nan,nan,15.930096626281738,17.130096626281738,0.00036334991455078125,-0.11241417185465503,-0.17517165629068995,0.0,-5.0,0.7278659600969565,0.026680794241445167,-0.0018025433423650577,0.0019532310859165596,0.0,0.0,0.0,0.0
26.0376079082489,0.033702202,-0.3110501,-5.1679254,-0.0023594406019003637,nan,nan,nan,nan,nan,16.029930591583252,17.22993059158325,0.0003597736358642578,-0.1270564867655437,-0.14588702646891258,0.0,-5.0,0.7276373114644559,0.01688999789360345,-0.008731734306131243,0.0023984842656336164,0.0,0.0,0.0,0.0
26.13763952255249,0.025752438,-0.3135193,-5.1724315,-0.0022692870127607005,nan,nan,nan,nan,nan,16.129933834075928,17.329933834075927,0.0003685951232910156,-0.14172362899780283,-0.11655274200439436,0.0,-5.0,0.7273354096061332,0.008429727475005295,-0.011766991551474563,0.0024675674734686627,0.0,0.0,0.0,0.0
26.237658500671387,0.0163493,-0.30957037,-5.1780577,-0.0020981107430450147,nan,nan,nan,nan,nan,16.229946613311768,17.429946613311767,0.0004222393035888672,-0.1563921699523927,-0.08721566009521467,0.0,-5.0,0.7270055305643969,-0.001457554004226917,-0.012015186407834569,0.0022982958789493717,0.0,0.0,0.0,0.0
26.337775230407715,0.0063017686,-0.29875562,-5.1854997,-0.0019189821186269898,nan,nan,nan,nan,nan,16.330094814300537,17.530094814300536,0.00037598609924316406,-0.17108057276407887,-0.057838854471842276,0.0,-5.0,0.7265438682139358,-0.013736974333990027,-0.011459829362257416,0.0020106296716737647,0.0,0.0,0.0,0.0
26.437936305999756,-0.009313722,-0.283175,-5.194668,-0.0017246288884287808,nan,nan,nan,nan,nan,16.430278062820435,17.630278062820434,0.00036215782165527344,-0.1857741158803305,-0.028451768239339037,0.0,-5.0,0.7261131125891084,-0.023386602106015578,-0.011555236811244169,0.0018204986171329954,0.0,0.0,0.0,0.0
26.537785530090332,-0.023563717,-0.26899248,-5.199608,-0.0014691523637419303,nan,nan,nan,nan,nan,16.530160427093506,17.730160427093505,0.000362396240234375,-0.20042352930704765,0.0008470586140952641,0.0,-5.0,0.7258542748838942,-0.029611891125078185,-0.012142853006581373,0.0015640960375519714,0.0,0.0,0.0,0.0
26.637741804122925,-0.037782,-0.25027326,-5.203062,-0.0013006064207101414,nan,nan,nan,nan,nan,16.63005828857422,17.830058288574218,0.0003628730773925781,-0.21507521565755217,0.030150431315104333,0.0,-5.0,0.7258918625582428,-0.03150308299804463,-0.01118364235986239,0.0012649364840148839,0.0,0.0,0.0,0.0
26.738181114196777,-0.05035821,-0.22748795,-5.2063723,-0.001640228905494612,nan,nan,nan,nan,nan,16.730716705322266,17.930716705322265,0.0003685951232910156,-0.2298384501139324,0.05967690022786476,0.0,-5.0,0.7258663986141446,-0.03442670553009702,-0.008040919649917955,0.0013646422890907126,0.0,0.0,0.0,0.0
26.8376145362854,-0.07124492,-0.2083877,-5.206592,-0.002347003002814839,nan,nan,nan,nan,nan,16.82992720603943,18.029927206039428,0.00039649009704589844,-0.24438932355244966,0.0887786471048993,0.0,-5.0,0.7260723270235875,-0.032123517151762315,-0.007183539164388885,0.0018839432761240359,0.0,0.0,0.0,0.0
26.93778371810913,-0.08341848,-0.18714717,-5.2135973,-0.0032923118453243947,nan,nan,nan,nan,nan,16.930102348327637,18.130102348327636,0.0003619194030761719,-0.2590816777547202,0.11816335550944031,0.0,-5.0,0.7259929831254003,-0.027534343867491137,-0.004837050058771919,0.0025019485893121632,0.0,0.0,0.0,0.0
27.037637948989868,-0.09758485,-0.16635497,-5.2129564,-0.003891855644986262,nan,nan,nan,nan,nan,17.03002095222473,18.23002095222473,0.0004169940948486328,-0.2737364063262941,0.14747281265258813,0.0,-5.0,0.7259812205903274,-0.022642776815519655,-0.0015478492861367254,0.0031492244046873044,0.0,0.0,0.0,0.0
27.13753581047058,-0.11207772,-0.14631638,-5.2110415,-0.004035631109608609,nan,nan,nan,nan,nan,17.129851818084717,18.329851818084716,0.00043964385986328125,-0.2883782666524252,0.17675653330485047,0.0,-5.0,0.7263955277466243,-0.018168797200870394,-0.001038721719633835,0.003392651339975648,0.0,0.0,0.0,0.0
27.238240480422974,-0.12819973,-0.1237101,-5.2121654,-0.003937868205735693,nan,nan,nan,nan,nan,17.230762720108032,18.43076272010803,0.0003769397735595703,-0.3031785322825115,0.20635706456502298,0.0,-5.0,0.7264783201013026,-0.013684974520288388,-0.0010709183809862839,0.0033667929687410153,0.0,0.0,0.0,0.0
27.33804726600647,-0.13563663,-0.09890209,-5.210536,-0.004597289046512345,nan,nan,nan,nan,nan,17.330371141433716,18.530371141433715,0.0003676414489746094,-0.3177877674102785,0.23557553482055688,0.0,-5.0,0.7266691983509032,-0.00980521716950541,0.0023682634843923884,0.0037008038643289716,0.0,0.0,0.0,0.0
27.438387870788574,-0.14516151,-0.0773756,-5.204368,-0.005261598095732296,nan,nan,nan,nan,nan,17.430694818496704,18.630694818496703,0.00039649009704589844,-0.33250190671285007,0.26500381342570006,0.0,-5.0,0.7270860474807271,-0.005079347864493547,0.006434070355991144,0.004251552136987784,0.0,0.0,0.0,0.0
27.537585735321045,-0.15459776,-0.056798454,-5.1942086,-0.005318626219237517,nan,nan,nan,nan,nan,17.529894828796387,18.729894828796386,0.0004096031188964844,-0.3470512415568035,0.294102483113607,0.0,-5.0,0.7277313147577317,-0.00021914669792991629,0.008486419016629847,0.004496158834001871,0.0,0.0,0.0,0.0
27.637630462646484,-0.16224293,-0.039392885,-5.1827464,-0.004708801713370435,nan,nan,nan,nan,nan,17.629920721054077,18.829920721054076,0.0004513263702392578,-0.3617217057545981,0.3234434115091962,0.0,-5.0,0.7285135660736551,0.005263775006430929,0.00996040349991171,0.0040536270955135465,0.0,0.0,0.0,0.0
27.737587928771973,-0.17049752,-0.01866809,-5.168489,-0.004009290721912944,nan,nan,nan,nan,nan,17.729872465133667,18.929872465133666,0.0003647804260253906,-0.37638129488627126,0.35276258977254255,0.0,-5.0,0.7293971224246816,0.008359907422385822,0.010502420901545123,0.0034356665796451786,0.0,0.0,0.0,0.0
27.837573528289795,-0.1781826,0.0020546452,-5.1589937,-0.0033426662069451444,nan,nan,nan,nan,nan,17.82986855506897,19.02986855506897,0.0004029273986816406,-0.39104738807678235,0.3820947761535647,0.0,-5.0,0.7299020825864058,0.009802239450307589,0.010633484475586557,0.002858927662461468,0.0,0.0,0.0,0.0
27.93751096725464,-0.18151495,0.025025362,-5.151174,-0.0027626705888454763,nan,nan,nan,nan,nan,17.929838180541992,19.12983818054199,0.00036907196044921875,-0.4,0.3885808003743488,0.0,-5.0,0.7301404534767177,-0.001123497916593682,0.008873539381378833,0.0024165416815354825,0.0,0.0,0.0,0.0
28.03749704360962,-0.18692574,0.050596457,-5.1441436,-0.0023344781817039475,nan,nan,nan,nan,nan,18.02979326248169,19.22979326248169,0.0003948211669921875,-0.4,0.3592606430053709,0.0,-5.0,0.7302574843586505,-0.024798403382090595,0.0048441816792071475,0.0021268400924772703,0.0,0.0,0.0,0.0
28.137511014938354,-0.19726036,0.08106721,-5.136569,-0.0017782712903331678,nan,nan,nan,nan,nan,18.129804134368896,19.329804134368896,0.00039458274841308594,-0.4,0.3299241205851235,0.0,-5.0,0.7304387794426623,-0.04651965638490684,-0.0012420980468156654,0.0016793988259912514,0.0,0.0,0.0,0.0
28.237513780593872,-0.20941529,0.10677443,-5.1302247,-0.0006945212179620183,nan,nan,nan,nan,nan,18.229795694351196,19.429795694351196,0.0004189014434814453,-0.4,0.3005932629903156,0.0,-5.0,0.7306080578651113,-0.05987447797831658,-0.008297812563840925,0.0005950240796907525,0.0,0.0,0.0,0.0
28.33784031867981,-0.23057336,0.13864413,-5.1200395,0.001093455820379613,nan,nan,nan,nan,nan,18.330155611038208,19.530155611038207,0.0003464221954345703,-0.4,0.2711543540954588,0.0,-5.0,0.730872873570483,-0.06896333187408014,-0.01621584465146044,-0.001050055890986945,0.0,0.0,0.0,0.0
28.43769907951355,-0.24907343,0.16974005,-5.11192,0.002522445682665131,nan,nan,nan,nan,nan,18.429991960525513,19.629991960525512,0.0004215240478515625,-0.4,0.24186902491251605,0.0,-5.0,0.7310695360199527,-0.07281652963042813,-0.022587277543625363,-0.0028405518841975465,0.0,0.0,0.0,0.0
28.53789710998535,-0.2701388,0.19239204,-5.1026354,0.0035835801379731184,nan,nan,nan,nan,nan,18.53036642074585,19.73036642074585,0.0003666877746582031,-0.4,0.21242584991455057,0.0,-5.0,0.7312003634421367,-0.07042747928620126,-0.02549673472150547,-0.004031563834182062,0.0,0.0,0.0,0.0
28.63761615753174,-0.291782,0.20845023,-5.0937977,0.004592806916558379,nan,nan,nan,nan,nan,18.62990379333496,19.82990379333496,0.00042557716369628906,-0.4,0.18322822062174457,0.0,-5.0,0.7314736715512338,-0.05931559472343999,-0.029112915769419573,-0.005301622025383136,0.0,0.0,0.0,0.0
28.737609148025513,-0.31211457,0.22748588,-5.087944,0.005395977658581493,nan,nan,nan,nan,nan,18.72989273071289,19.92989273071289,0.0004589557647705078,-0.4,0.15389813232421853,0.0,-5.0,0.731424814655618,-0.046592070665165956,-0.029154910382636238,-0.006057999906206399,0.0,0.0,0.0,0.0
28.837810754776,-0.3276681,0.24098814,-5.0807285,0.005810738452367431,nan,nan,nan,nan,nan,18.830115795135498,20.030115795135497,0.0004067420959472656,-0.4,0.1244993667602537,0.0,-5.0,0.7313627684803202,-0.03285807379938329,-0.02583149592901357,-0.006232183002266386,0.0,0.0,0.0,0.0
28.93775224685669,-0.34330884,0.2531276,-5.06909,0.00574731491330898,nan,nan,nan,nan,nan,18.93009614944458,20.13009614944458,0.00038886070251464844,-0.4,0.09517179616292296,0.0,-5.0,0.7314962358907693,-0.019364150000755684,-0.020790545039336927,-0.005979305539854972,0.0,0.0,0.0,0.0
29.037615299224854,-0.35794362,0.2600124,-5.0621243,0.005561827313399732,nan,nan,nan,nan,nan,19.029954433441162,20.22995443344116,0.00036144256591796875,-0.4,0.0658800328572589,0.0,-5.0,0.731669870820962,-0.008751496211432978,-0.01540186556722852,-0.005456067358379802,0.0,0.0,0.0,0.0
29.137643575668335,-0.37462783,0.26094064,-5.0601397,0.00550637548108706,nan,nan,nan,nan,nan,19.12993359565735,20.329933595657348,0.00040221214294433594,-0.4,0.03655281194051083,0.0,-5.0,0.7312048064947159,0.000948446181581025,-0.011256564127572016,-0.005169444122441095,0.0,0.0,0.0,0.0
29.23751401901245,-0.39065027,0.25297636,-5.0524406,0.00531195018378508,nan,nan,nan,nan,nan,19.229795932769775,20.429795932769775,0.0004017353057861328,-0.4,0.007259859720865647,0.0,-5.0,0.7312215761319084,0.01348378710644525,-0.008967260373256947,-0.004851296497178018,0.0,0.0,0.0,0.0
29.337661504745483,-0.4017015,0.24224131,-5.051009,0.00491849108890631,nan,nan,nan,nan,nan,19.3299560546875,20.5299560546875,0.0003859996795654297,-0.4,-0.0221204427083336,0.0,-5.0,0.7310129649750411,0.022644408886892838,-0.005782960816034364,-0.004452602999442737,0.0,0.0,0.0,0.0
29.437434434890747,-0.41563204,0.23035307,-5.055995,0.004590316718868795,nan,nan,nan,nan,nan,19.42973041534424,20.629730415344238,0.00042724609375,-0.4,-0.05138758850097683,0.0,-5.0,0.7303627547863486,0.0288348983506159,-0.002794187634153552,-0.0040286402455746205,0.0,0.0,0.0,0.0
29.537500858306885,-0.43045193,0.21600306,-5.062666,0.003995915248856723,nan,nan,nan,nan,nan,19.529914617538452,20.72991461753845,0.0003724098205566406,-0.4,-0.08077495447794619,0.0,-5.0,0.7295304030923818,0.030997754751119988,-0.001742315018371624,-0.003653590050325825,0.0,0.0,0.0,0.0
29.637552499771118,-0.4408954,0.20083061,-5.067411,0.0030495833258377385,nan,nan,nan,nan,nan,19.629863023757935,20.829863023757934,0.0004334449768066406,-0.4,-0.11009315363566108,0.0,-5.0,0.7288676277631757,0.03034371949094136,-0.0006148127108022485,-0.002831817849082118,0.0,0.0,0.0,0.0
29.737380266189575,-0.44503102,0.17805699,-5.068316,0.0021466466212205926,nan,nan,nan,nan,nan,19.72968363761902,20.929683637619018,0.00038433074951171875,-0.4,-0.13937386703491236,0.0,-5.0,0.72856829600023,0.031160557234307457,0.0031028439132231907,-0.001976154193723956,0.0,0.0,0.0,0.0
29.837515830993652,-0.44696784,0.14488854,-5.0679636,0.001569209631521521,nan,nan,nan,nan,nan,19.829821348190308,21.029821348190307,0.0004031658172607422,-0.4,-0.16874759546915713,0.0,-5.0,0.7284145252134515,0.03391126448076269,0.008450460351928072,-0.0013721417077388553,0.0,0.0,0.0,0.0
29.93840503692627,-0.4493507,0.114872485,-5.0672207,0.0011732412128795128,nan,nan,nan,nan,nan,19.930689811706543,21.130689811706542,0.0003829002380371094,-0.4,-0.19833567810058625,0.0,-5.0,0.7283701031982619,0.033891869537441215,0.012920497766213429,-0.001107666382132584,0.0,0.0,0.0,0.0
30.037643909454346,-0.4547789,0.08397061,-5.0669813,0.00018962155273873158,nan,nan,nan,nan,nan,20.02994465827942,21.22994465827942,0.000396728515625,-0.4,-0.2274504330952965,0.0,-5.0,0.7283919025538644,0.030030313297185744,0.013929609501292708,-0.0005658256326807461,0.0,0.0,0.0,0.0
30.13770580291748,-0.46188933,0.05486601,-5.0686793,-0.0017121253236608118,nan,nan,nan,nan,nan,20.13002634048462,21.33002634048462,0.0003731250762939453,-0.4,-0.2568077265421552,0.0,-5.0,0.7282600446258516,0.025828070257646843,0.011010477524083542,0.0009451671195076923,0.0,0.0,0.0,0.0
30.23763871192932,-0.46585113,0.023551987,-5.0690565,-0.005116570016066744,nan,nan,nan,nan,nan,20.22994327545166,21.42994327545166,0.0003867149353027344,-0.4,-0.28611669413248725,0.0,-5.0,0.7281581930524547,0.021154748353206604,0.008006300842006738,0.00340230291964236,0.0,0.0,0.0,0.0
